Serial<id=0x6d91ef10, open=True>(port='/dev/ttyUSB0', baudrate=115200, bytesize=8, parity='N', stopbits=1, timeout=None, xonxoff=False, rtscts=False, dsrdtr=False)
Serial<id=0x6d38efb8, open=True>(port='/dev/ttyUSB1', baudrate=19200, bytesize=8, parity='N', stopbits=1, timeout=None, xonxoff=False, rtscts=False, dsrdtr=False)
11
$GNGGA,205418.000,4000.568170,N,10514.624466,W,2,15,1.59,1655.326,M,-20.634,M,,*72
$GPGSV,3,1,11,11,72,207,19,06,66,049,17,12,50,311,,44,42,197,39,1*65
$GPGSV,3,2,11,19,41,065,,24,28,236,16,20,25,166,38,22,21,133,38,1*61
$GPGSV,3,3,11,25,19,313,,17,18,078,,03,01,026,,1*5C
$GPGSV,1,1,02,11,72,207,17,24,28,236,25,8*65
$GLGSV,1,1,03,75,54,179,30,87,10,241,30,74,04,160,25,1*49
$GAGSV,2,1,05,26,87,157,,21,45,138,26,33,37,221,30,13,35,045,,7*72
$GAGSV,2,2,05,31,25,313,,7*42
$GAGSV,1,1,02,21,45,138,25,33,37,221,28,1*77
$GBGSV,3,1,10,11,73,305,,34,68,029,,25,53,210,35,43,52,269,14,1*79
$GBGSV,3,2,10,23,44,295,,12,39,052,,24,13,165,31,21,13,103,22,1*70
$GBGSV,3,3,10,22,09,054,,42,01,148,,1*75
$GBGSV,1,1,01,24,13,165,22,5*45
$GNGGA,205423.000,4000.568176,N,10514.624388,W,2,16,1.59,1655.313,M,-20.634,M,,*7E
$GPGSV,3,1,11,11,72,207,19,06,66,049,15,12,50,311,,44,42,197,39,1*67
$GPGSV,3,2,11,19,41,065,14,24,28,236,19,20,25,166,38,22,21,133,38,1*6B
$GPGSV,3,3,11,25,19,313,,17,18,078,,03,01,026,,1*5C
$GPGSV,1,1,02,11,72,207,17,24,28,236,26,8*66
$GLGSV,1,1,03,75,54,179,31,87,10,241,31,74,04,160,24,1*48
$GAGSV,2,1,05,26,87,157,,21,45,138,27,33,37,221,30,13,35,045,,7*73
$GAGSV,2,2,05,31,25,313,,7*42
$GAGSV,1,1,02,21,45,138,26,33,37,221,29,1*75
$GBGSV,2,1,08,11,73,305,,25,53,210,35,43,52,269,14,23,44,295,,1*7C
$GBGSV,2,2,08,12,39,052,,24,13,165,31,21,13,103,20,22,09,054,,1*7D
$GBGSV,1,1,01,24,13,165,21,5*46
$PAIR010,0,0,2307,248082*39
$PAIR010,0,1,2307,248082*38
$GNGGA,205428.000,4000.568212,N,10514.624370,W,2,16,1.59,1655.294,M,-20.635,M,,*7C
$GPGSV,3,1,11,11,72,207,21,06,66,049,14,12,50,311,,44,42,197,39,1*6D
$GPGSV,3,2,11,19,41,065,13,24,28,236,20,20,25,166,38,22,21,133,39,1*67
$GPGSV,3,3,11,25,19,313,,17,18,078,,03,01,026,,1*5C
$GPGSV,1,1,02,11,72,207,17,24,28,236,26,8*66
$GLGSV,1,1,04,86,59,270,,75,54,179,32,87,11,242,31,74,04,160,23,1*7E
$GAGSV,2,1,05,26,87,157,,21,45,138,28,33,37,221,30,13,35,045,,7*7C
$GAGSV,2,2,05,31,25,313,,7*42
$GAGSV,1,1,02,21,45,138,26,33,37,221,29,1*75
$GBGSV,2,1,08,11,73,305,,25,53,210,35,43,52,269,12,23,44,295,,1*7A
$GBGSV,2,2,08,12,39,052,,24,13,165,31,21,13,103,19,22,09,054,,1*77
$GBGSV,1,1,01,24,13,165,21,5*46
$GNGGA,205433.000,4000.568254,N,10514.624400,W,2,16,1.59,1655.278,M,-20.635,M,,*76
$GPGSV,3,1,11,11,72,207,22,06,66,049,14,12,50,311,,44,42,197,39,1*6E
$GPGSV,3,2,11,19,41,065,14,24,28,236,21,20,25,166,38,22,21,133,39,1*61
$GPGSV,3,3,11,25,19,313,,17,18,078,,03,01,026,,1*5C
$GPGSV,1,1,02,11,72,207,16,24,28,236,25,8*64
$GLGSV,1,1,03,75,54,179,31,87,11,242,31,74,04,160,23,1*4D
$GAGSV,2,1,05,26,87,157,,21,45,138,28,33,37,221,29,13,35,045,,7*74
$GAGSV,2,2,05,31,25,313,,7*42
$GAGSV,1,1,02,21,45,138,26,33,37,221,29,1*75
$GBGSV,3,1,10,11,73,305,,25,53,210,35,43,52,269,,23,44,295,,1*71
$GBGSV,3,2,10,12,39,052,,21,13,103,18,24,13,165,31,22,09,054,,1*7E
$GBGSV,3,3,10,39,04,336,,37,02,326,,1*7E
$GBGSV,1,1,01,24,13,165,21,5*46
$GNGGA,205438.000,4000.568266,N,10514.624400,W,2,16,1.59,1655.275,M,-20.635,M,,*71
$GPGSV,3,1,11,11,72,207,20,06,66,049,13,12,50,311,,44,42,197,39,1*6B
$GPGSV,3,2,11,19,41,065,14,24,28,236,24,20,25,166,39,22,21,133,39,1*65
$GPGSV,3,3,11,25,19,313,,17,18,078,,03,01,026,,1*5C
$GPGSV,1,1,02,11,72,207,16,24,28,236,25,8*64
$GLGSV,1,1,03,75,54,179,32,87,11,242,32,74,04,160,22,1*4C
$GAGSV,2,1,05,26,87,157,,21,45,138,27,33,37,221,29,13,35,045,,7*7B
$GAGSV,2,2,05,31,25,313,,7*42
$GAGSV,1,1,02,21,45,138,26,33,37,221,29,1*75
$GBGSV,3,1,10,11,73,305,,34,68,029,,25,53,210,36,43,52,269,,1*7F
$GBGSV,3,2,10,23,44,295,,12,39,052,,24,13,165,32,21,13,103,18,1*7A
$GBGSV,3,3,10,22,09,054,,42,01,148,,1*75
$GBGSV,1,1,01,24,13,165,22,5*45
$GNGGA,205443.000,4000.568272,N,10514.624406,W,2,16,1.59,1655.273,M,-20.635,M,,*78
$GPGSV,3,1,11,11,72,207,18,06,66,049,16,12,50,311,,44,42,197,39,1*65
$GPGSV,3,2,11,19,41,065,13,24,28,236,25,20,25,166,39,22,21,133,39,1*63
$GPGSV,3,3,11,25,19,313,,17,18,078,,03,01,026,,1*5C
$GPGSV,1,1,02,11,72,207,17,24,28,236,26,8*66
$GLGSV,1,1,03,75,54,179,32,87,11,242,32,74,04,160,21,1*4F
$GAGSV,2,1,05,26,87,157,,21,45,138,27,33,37,221,29,13,35,045,,7*7B
$GAGSV,2,2,05,31,25,313,,7*42
$GAGSV,1,1,02,21,45,138,26,33,37,221,29,1*75
$GBGSV,2,1,07,11,73,309,,25,53,210,36,23,44,295,,12,38,053,,1*7A
$GBGSV,2,2,07,21,13,103,18,24,13,165,31,22,09,054,,1*47
$GBGSV,1,1,01,24,13,165,23,5*44
$GNGGA,205448.000,4000.568284,N,10514.624400,W,2,16,1.58,1655.272,M,-20.634,M,,*7D
$GPGSV,3,1,11,11,72,207,17,06,66,049,14,12,50,311,,44,42,197,39,1*68
$GPGSV,3,2,11,19,41,065,13,24,28,236,25,20,25,166,39,22,21,133,39,1*63
$GPGSV,3,3,11,25,19,313,,17,18,078,,03,01,026,,1*5C
$GPGSV,1,1,02,11,72,207,16,24,28,236,25,8*64
$GLGSV,2,1,05,86,59,270,,75,54,179,33,87,11,242,32,69,09,042,,1*7F
$GLGSV,2,2,05,74,04,160,21,1*4E
$GAGSV,2,1,05,26,87,157,,21,45,138,27,33,37,221,28,13,35,045,,7*7A
$GAGSV,2,2,05,31,25,313,,7*42
$GAGSV,1,1,02,21,45,138,26,33,37,221,29,1*75
$GBGSV,2,1,07,11,73,309,,25,53,210,36,23,44,295,,12,38,053,,1*7A
$GBGSV,2,2,07,21,13,103,18,24,13,165,30,22,09,054,,1*46
$GBGSV,1,1,01,24,13,165,23,5*44
$GNGGA,205453.000,4000.568320,N,10514.624334,W,2,16,1.58,1655.270,M,-20.634,M,,*7A
$GPGSV,3,1,11,11,72,207,19,06,66,049,14,12,50,311,,44,42,197,39,1*66
$GPGSV,3,2,11,19,41,065,15,24,28,236,24,20,25,166,39,22,21,133,39,1*64
$GPGSV,3,3,11,25,19,313,,17,18,078,,03,01,026,,1*5C
$GPGSV,1,1,02,11,72,207,15,24,28,236,25,8*67
$GLGSV,1,1,03,75,54,179,33,87,11,242,33,74,04,160,20,1*4E
$GAGSV,2,1,05,26,87,157,,21,45,138,26,33,37,221,28,13,35,045,,7*7B
$GAGSV,2,2,05,31,25,313,,7*42
$GAGSV,1,1,02,21,45,138,26,33,37,221,30,1*7D
$GBGSV,3,1,12,11,73,309,,34,68,029,,43,52,269,,25,52,209,36,1*78
$GBGSV,3,2,12,23,45,294,,12,38,053,,21,13,102,17,24,12,165,29,1*7D
$GBGSV,3,3,12,22,10,053,,39,04,336,,37,02,326,,42,01,148,,1*71
$GBGSV,1,1,01,24,12,165,23,5*45
$GNGGA,205458.000,4000.568344,N,10514.624292,W,2,16,1.58,1655.270,M,-20.634,M,,*7E
$GPGSV,3,1,11,11,72,207,20,06,66,049,12,12,50,311,,44,42,197,39,1*6A
$GPGSV,3,2,11,19,41,065,15,24,28,236,24,20,25,166,39,22,21,133,39,1*64
$GPGSV,3,3,11,25,19,313,,17,18,078,,03,01,026,,1*5C
$GPGSV,1,1,02,11,72,207,16,24,28,236,25,8*64
$GLGSV,1,1,04,75,54,179,33,87,11,242,33,70,06,101,,74,04,160,20,1*78
$GAGSV,2,1,05,26,87,157,,21,45,138,26,33,37,221,27,13,35,045,,7*74
$GAGSV,2,2,05,31,25,313,,7*42
$GAGSV,1,1,02,21,45,138,26,33,37,221,30,1*7D
$GBGSV,3,1,10,11,73,309,,34,68,029,,43,52,269,,25,52,209,36,1*7A
$GBGSV,3,2,10,23,45,294,,12,38,053,,21,13,102,16,24,12,165,29,1*7E
$GBGSV,3,3,10,22,10,053,,39,04,336,,1*78
$GBGSV,1,1,01,24,12,165,22,5*44
$GNGGA,205503.000,4000.568368,N,10514.624250,W,2,16,1.58,1655.268,M,-20.635,M,,*79
$GPGSV,3,1,11,11,72,207,20,06,66,049,,12,50,311,,44,42,197,39,1*69
$GPGSV,3,2,11,19,41,065,17,24,28,236,20,20,25,166,39,22,21,133,39,1*62
$GPGSV,3,3,11,25,19,313,,17,18,078,,03,01,026,,1*5C
$GPGSV,1,1,02,11,72,207,15,24,28,236,26,8*64
$GLGSV,2,1,05,86,59,270,,75,54,179,33,87,11,242,32,74,04,160,20,1*7D
$GLGSV,2,2,05,84,02,047,,1*40
$GAGSV,2,1,05,26,87,157,,21,45,138,27,33,37,221,27,13,35,045,,7*75
$GAGSV,2,2,05,31,25,313,,7*42
$GAGSV,1,1,02,21,45,138,26,33,37,221,30,1*7D
$GBGSV,3,1,11,11,73,309,,34,67,031,,25,52,209,36,23,45,294,,1*7F
$GBGSV,3,2,11,12,38,053,,21,13,102,18,24,12,165,29,22,10,053,,1*79
$GBGSV,3,3,11,39,04,336,,37,02,326,,42,01,148,,1*45
$GBGSV,1,1,01,24,12,165,21,5*47
$GNGGA,205508.000,4000.568374,N,10514.624238,W,2,16,1.58,1655.267,M,-20.635,M,,*7E
$GPGSV,3,1,11,11,72,207,18,06,66,049,,12,50,311,,44,42,197,39,1*62
$GPGSV,3,2,11,19,41,065,19,24,28,236,23,20,25,166,39,22,21,133,39,1*6F
$GPGSV,3,3,11,25,19,313,,17,18,078,,03,01,026,,1*5C
$GPGSV,1,1,02,11,72,207,16,24,28,236,26,8*67
$GLGSV,1,1,03,75,54,179,34,87,11,242,31,74,04,160,19,1*41
$GAGSV,2,1,05,26,87,157,,21,45,138,27,33,37,221,25,13,35,045,,7*77
$GAGSV,2,2,05,31,25,313,,7*42
$GAGSV,1,1,02,21,45,138,26,33,37,221,30,1*7D
$GBGSV,3,1,12,11,73,309,,34,67,031,,43,52,269,17,25,52,209,36,1*78
$GBGSV,3,2,12,23,45,294,,12,38,053,,44,17,063,,21,13,102,19,1*7C
$GBGSV,3,3,12,24,12,165,29,22,10,053,,39,04,335,,42,01,148,,1*7F
$GBGSV,1,1,01,24,12,165,22,5*44
$GNGGA,205513.000,4000.568386,N,10514.624238,W,2,16,1.58,1655.270,M,-20.635,M,,*7F
$GPGSV,3,1,11,11,72,207,17,06,66,049,,12,50,311,,44,42,197,39,1*6D
$GPGSV,3,2,11,19,41,065,17,24,28,236,26,20,25,166,39,22,21,133,39,1*64
$GPGSV,3,3,11,25,19,313,,17,18,078,,03,01,026,,1*5C
$GPGSV,1,1,02,11,72,207,16,24,28,236,25,8*64
$GLGSV,1,1,03,75,54,179,34,87,11,242,32,74,04,160,19,1*42
$GAGSV,2,1,05,26,87,157,,21,45,138,27,33,37,221,25,13,35,045,,7*77
$GAGSV,2,2,05,31,25,313,,7*42
$GAGSV,1,1,02,21,45,138,26,33,37,221,31,1*7C
$GBGSV,3,1,09,11,73,309,,34,67,031,,43,53,270,15,25,52,209,36,1*79
$GBGSV,3,2,09,23,45,294,,12,38,053,,21,13,102,17,24,12,165,30,1*7F
$GBGSV,3,3,09,22,10,053,,1*48
$GBGSV,1,1,01,24,12,165,22,5*44
$GNGGA,205518.000,4000.568392,N,10514.624244,W,2,16,1.58,1655.273,M,-20.635,M,,*79
$GPGSV,3,1,11,11,72,207,16,06,66,049,,12,50,311,,44,42,197,39,1*6C
$GPGSV,3,2,11,19,41,065,15,24,28,236,28,20,25,166,39,22,21,133,39,1*68
$GPGSV,3,3,11,25,19,313,,17,18,078,,03,01,026,,1*5C
$GPGSV,1,1,02,11,72,207,15,24,28,236,26,8*64
$GLGSV,1,1,04,86,59,270,,75,54,179,34,87,11,242,31,74,04,160,17,1*7F
$GAGSV,2,1,05,26,87,157,,21,45,138,26,33,37,221,26,13,35,045,,7*75
$GAGSV,2,2,05,31,25,313,,7*42
$GAGSV,1,1,02,21,45,138,26,33,37,221,31,1*7C
$GBGSV,3,1,09,11,73,309,,34,67,031,,43,53,270,16,25,52,209,36,1*7A
$GBGSV,3,2,09,23,45,294,14,12,38,053,,21,13,102,16,24,12,165,30,1*7B
$GBGSV,3,3,09,22,10,053,,1*48
$GBGSV,1,1,01,24,12,165,21,5*47
$GNGGA,205523.000,4000.568404,N,10514.624238,W,2,16,1.58,1655.269,M,-20.634,M,,*78
$GPGSV,3,1,11,11,72,207,18,06,66,049,,12,50,311,,44,42,197,39,1*62
$GPGSV,3,2,11,19,41,065,15,24,28,236,26,20,25,166,39,22,21,133,39,1*66
$GPGSV,3,3,11,25,19,313,,17,18,078,,03,01,026,,1*5C
$GPGSV,1,1,02,11,72,207,14,24,28,236,27,8*64
$GLGSV,1,1,03,75,54,179,34,87,11,242,30,74,04,160,17,1*4E
$GAGSV,2,1,05,26,87,157,,21,45,138,26,33,37,221,25,13,35,045,,7*76
$GAGSV,2,2,05,31,25,313,,7*42
$GAGSV,1,1,02,21,45,138,25,33,37,221,30,1*7E
$GBGSV,3,1,11,11,73,309,,34,67,031,,43,53,270,15,25,52,209,36,1*70
$GBGSV,3,2,11,23,45,294,,12,38,053,,21,13,102,17,24,12,165,29,1*7E
$GBGSV,3,3,11,22,10,053,,39,04,335,,37,03,325,,1*49
$GBGSV,1,1,01,24,12,165,20,5*46
$PAIR010,0,0,2307,248142*34
$PAIR010,0,1,2307,248142*35
$GNGGA,205528.000,4000.568410,N,10514.624214,W,2,17,1.57,1655.260,M,-20.635,M,,*7E
$GPGSV,3,1,11,11,72,207,18,06,66,049,,12,50,311,,44,42,197,39,1*62
$GPGSV,3,2,11,19,41,065,15,24,28,236,27,20,25,166,39,22,21,133,39,1*67
$GPGSV,3,3,11,25,19,313,,17,18,078,,03,01,026,,1*5C
$GPGSV,1,1,02,11,72,207,14,24,28,236,27,8*64
$GLGSV,1,1,03,75,54,179,34,87,11,242,30,74,04,160,17,1*4E
$GAGSV,2,1,05,26,87,157,,21,45,138,24,33,37,221,23,13,35,045,,7*72
$GAGSV,2,2,05,31,25,313,,7*42
$GAGSV,1,1,02,21,45,138,26,33,37,221,30,1*7D
$GBGSV,4,1,13,11,73,309,,34,67,031,,43,53,270,14,25,52,209,37,1*75
$GBGSV,4,2,13,23,45,294,,12,38,053,,44,16,063,,21,13,102,15,1*77
$GBGSV,4,3,13,24,12,165,29,22,10,053,,39,04,335,,37,03,325,,1*70
$GBGSV,4,4,13,42,02,147,,1*42
$GBGSV,1,1,02,25,52,209,22,24,12,165,20,5*7E
$GNGGA,205533.000,4000.568410,N,10514.624202,W,2,17,1.57,1655.248,M,-20.635,M,,*79
$GPGSV,3,1,11,11,72,207,19,06,66,049,,12,50,311,,44,42,197,39,1*63
$GPGSV,3,2,11,19,41,065,13,24,28,236,25,20,25,166,38,22,21,133,39,1*62
$GPGSV,3,3,11,25,19,313,,17,18,078,,03,01,026,,1*5C
$GPGSV,1,1,02,11,72,207,14,24,28,236,27,8*64
$GLGSV,1,1,03,75,54,179,35,87,11,242,30,74,04,160,17,1*4F
$GAGSV,2,1,05,26,87,157,12,21,45,138,23,33,37,221,23,13,35,045,,7*76
$GAGSV,2,2,05,31,25,313,,7*42
$GAGSV,1,1,02,21,45,138,26,33,37,221,30,1*7D
$GBGSV,3,1,10,11,73,309,,34,67,031,,43,53,270,14,25,52,209,37,1*71
$GBGSV,3,2,10,23,45,294,,12,38,053,,21,13,102,17,24,12,165,29,1*7F
$GBGSV,3,3,10,22,10,053,,42,02,147,,1*76
$GBGSV,1,1,02,25,52,209,22,24,12,165,20,5*7E
$GNGGA,205538.000,4000.568416,N,10514.624196,W,2,17,1.57,1655.238,M,-20.635,M,,*7D
$GPGSV,3,1,10,11,72,207,19,06,65,048,,12,50,311,,44,42,197,39,1*60
$GPGSV,3,2,10,19,41,065,14,24,28,236,25,20,25,166,38,22,21,133,39,1*64
$GPGSV,3,3,10,25,19,313,,17,18,078,,1*6B
$GPGSV,1,1,02,11,72,207,14,24,28,236,27,8*64
$GLGSV,2,1,06,86,59,270,,76,55,312,,75,54,179,35,77,12,331,,1*73
$GLGSV,2,2,06,87,11,242,30,74,04,160,16,1*71
$GAGSV,2,1,05,26,87,157,09,21,45,138,23,33,37,221,23,13,35,045,,7*7C
$GAGSV,2,2,05,31,25,313,,7*42
$GAGSV,1,1,02,21,45,138,26,33,37,221,30,1*7D
$GBGSV,3,1,09,11,73,309,,34,67,031,,43,53,270,16,25,52,209,37,1*7B
$GBGSV,3,2,09,23,45,294,,12,38,053,,21,13,102,15,24,12,165,31,1*7C
$GBGSV,3,3,09,22,10,053,,1*48
$GBGSV,1,1,02,25,52,209,20,24,12,165,19,5*76
$GNGGA,205543.000,4000.568422,N,10514.624190,W,2,16,1.57,1655.230,M,-20.635,M,,*79
$GPGSV,3,1,10,11,73,207,21,06,65,048,,12,51,311,,44,42,197,39,1*6B
$GPGSV,3,2,10,19,41,065,14,24,28,236,25,20,25,166,38,22,21,133,39,1*64
$GPGSV,3,3,10,25,19,313,,17,18,078,,1*6B
$GPGSV,1,1,01,24,28,236,27,8*52
$GLGSV,1,1,04,75,54,179,35,87,11,242,30,74,04,160,15,84,02,047,,1*77
$GAGSV,2,1,05,26,87,157,05,21,45,138,23,33,37,221,21,13,35,045,,7*72
$GAGSV,2,2,05,31,25,313,,7*42
$GAGSV,1,1,02,21,45,138,27,33,37,221,30,1*7C
$GBGSV,3,1,11,11,73,309,,34,67,031,,43,53,270,12,25,52,209,37,1*76
$GBGSV,3,2,11,23,45,294,,12,38,053,,21,13,102,15,24,12,165,32,1*76
$GBGSV,3,3,11,22,10,053,,37,03,325,,42,02,147,,1*44
$GBGSV,1,1,02,25,52,209,21,24,12,165,20,5*7D
$GNGGA,205548.000,4000.568434,N,10514.624184,W,2,16,1.57,1655.224,M,-20.635,M,,*75
$GPGSV,3,1,10,11,73,207,21,06,65,048,,12,51,311,,44,42,197,39,1*6B
$GPGSV,3,2,10,19,41,065,14,24,28,236,24,20,25,166,37,22,21,133,39,1*6A
$GPGSV,3,3,10,25,19,313,,17,17,079,,1*65
$GPGSV,1,1,01,24,28,236,27,8*52
$GLGSV,2,1,07,86,59,270,,76,55,312,,75,54,179,35,85,52,022,,1*7A
$GLGSV,2,2,07,87,11,242,30,70,06,101,,74,04,160,16,1*41
$GAGSV,2,1,05,26,87,157,05,21,45,138,23,33,37,221,18,13,35,045,,7*78
$GAGSV,2,2,05,31,25,313,,7*42
$GAGSV,1,1,02,21,45,138,26,33,37,221,31,1*7C
$GBGSV,3,1,10,11,73,309,,34,67,031,,43,53,270,14,25,52,209,37,1*71
$GBGSV,3,2,10,23,45,294,,12,38,053,,21,13,102,13,24,12,165,33,1*70
$GBGSV,3,3,10,22,10,053,,42,02,147,16,1*71
$GBGSV,1,1,02,25,52,209,22,24,12,165,19,5*74
$GNGGA,205553.000,4000.568476,N,10514.624130,W,2,16,1.57,1655.214,M,-20.634,M,,*74
$GPGSV,3,1,10,11,73,207,21,06,65,048,15,12,51,311,,44,42,197,39,1*6F
$GPGSV,3,2,10,19,40,066,14,24,28,236,23,20,26,166,36,22,20,133,39,1*6C
$GPGSV,3,3,10,25,19,313,,17,17,079,,1*65
$GPGSV,1,1,01,24,28,236,28,8*5D
$GLGSV,2,1,05,75,54,179,35,87,11,242,30,69,09,042,,74,04,160,16,1*7B
$GLGSV,2,2,05,84,02,047,,1*40
$GAGSV,2,1,05,26,87,157,,21,45,138,25,33,37,221,15,13,35,045,,7*76
$GAGSV,2,2,05,31,25,313,,7*42
$GAGSV,1,1,02,21,45,138,26,33,37,221,31,1*7C
$GBGSV,3,1,12,11,73,309,,34,67,031,,43,53,270,15,25,52,209,37,1*72
$GBGSV,3,2,12,23,45,294,,12,38,053,,21,13,102,13,24,12,165,34,1*75
$GBGSV,3,3,12,22,10,053,,39,04,335,,37,03,325,,42,02,147,16,1*7B
$GBGSV,1,1,02,25,52,209,22,24,12,165,19,5*74
$GNGGA,205558.000,4000.568530,N,10514.624100,W,2,16,1.57,1655.202,M,-20.635,M,,*79
$GPGSV,3,1,10,11,73,207,20,06,65,048,14,12,51,311,,44,42,197,39,1*6F
$GPGSV,3,2,10,19,40,066,,24,27,235,24,20,26,166,36,22,20,133,39,1*62
$GPGSV,3,3,10,25,20,313,,17,17,079,,1*6F
$GPGSV,1,1,01,24,27,235,29,8*50
$GLGSV,1,1,03,75,54,179,35,87,11,242,30,74,04,160,16,1*4E
$GAGSV,2,1,05,26,87,157,,21,45,138,26,33,37,221,19,13,35,045,,7*79
$GAGSV,2,2,05,31,25,313,,7*42
$GAGSV,1,1,02,21,45,138,27,33,37,221,30,1*7C
$GBGSV,3,1,11,11,73,309,,34,67,031,,43,53,270,16,25,52,209,37,1*72
$GBGSV,3,2,11,23,45,294,,12,38,053,,21,13,102,13,24,12,165,35,1*77
$GBGSV,3,3,11,22,10,053,,37,03,325,,42,02,147,16,1*43
$GBGSV,1,1,02,25,52,209,22,24,12,165,18,5*75
$GNGGA,205603.000,4000.568572,N,10514.624070,W,2,16,1.57,1655.192,M,-20.635,M,,*7E
$GPGSV,3,1,10,11,73,207,21,06,65,048,15,12,51,311,,44,42,197,39,1*6F
$GPGSV,3,2,10,19,40,066,,24,27,235,23,20,26,166,35,22,20,133,39,1*66
$GPGSV,3,3,10,25,20,313,,17,17,079,,1*6F
$GPGSV,1,1,01,24,27,235,29,8*50
$GLGSV,1,1,03,75,54,179,35,87,11,242,29,74,04,160,16,1*46
$GAGSV,2,1,05,26,87,157,,21,45,138,25,33,37,221,19,13,35,045,,7*7A
$GAGSV,2,2,05,31,25,313,,7*42
$GAGSV,1,1,02,21,45,138,27,33,37,221,30,1*7C
$GBGSV,3,1,10,11,73,309,,34,67,031,,43,53,270,19,25,52,209,38,1*73
$GBGSV,3,2,10,23,45,294,,12,38,053,,21,13,102,14,24,12,165,35,1*71
$GBGSV,3,3,10,22,10,053,,42,02,147,16,1*71
$GBGSV,1,1,02,25,52,209,22,24,12,165,18,5*75
$GNGGA,205608.000,4000.568590,N,10514.624028,W,2,16,1.56,1655.185,M,-20.635,M,,*73
$GPGSV,3,1,10,11,73,207,25,06,65,048,15,12,51,311,,44,42,197,39,1*6B
$GPGSV,3,2,10,19,40,066,,24,27,235,23,20,26,166,34,22,20,133,39,1*67
$GPGSV,3,3,10,25,20,313,,17,17,079,,1*6F
$GPGSV,1,1,01,24,27,235,28,8*51
$GLGSV,1,1,04,86,59,270,,75,54,179,35,87,11,242,26,74,04,160,16,1*79
$GAGSV,2,1,05,26,87,157,,21,45,138,24,33,37,221,19,13,35,045,,7*7B
$GAGSV,2,2,05,31,25,313,,7*42
$GAGSV,1,1,02,21,45,138,26,33,37,221,30,1*7D
$GBGSV,3,1,10,11,73,309,,34,67,031,,43,53,270,18,25,52,209,38,1*72
$GBGSV,3,2,10,23,45,294,,12,38,053,,21,13,102,14,24,12,165,35,1*71
$GBGSV,3,3,10,22,10,053,,42,02,147,16,1*71
$GBGSV,1,1,02,25,52,209,22,24,12,165,18,5*75
$GNGGA,205613.000,4000.568620,N,10514.623974,W,2,16,1.56,1655.175,M,-20.635,M,,*79
$GPGSV,3,1,10,11,73,207,23,06,65,048,15,12,51,311,,44,42,197,39,1*6D
$GPGSV,3,2,10,19,40,066,,24,27,235,22,20,26,166,34,22,20,133,39,1*66
$GPGSV,3,3,10,25,20,313,,17,17,079,,1*6F
$GPGSV,1,1,01,24,27,235,28,8*51
$GLGSV,1,1,04,75,54,179,35,87,11,242,26,74,04,160,16,84,02,047,,1*73
$GAGSV,2,1,05,26,87,157,,21,45,138,25,33,37,221,20,13,35,045,,7*70
$GAGSV,2,2,05,31,25,313,,7*42
$GAGSV,1,1,02,21,45,138,27,33,37,221,29,1*74
$GBGSV,3,1,12,11,73,309,,34,67,031,,43,53,270,15,25,52,209,38,1*7D
$GBGSV,3,2,12,23,45,294,,12,38,053,,21,13,102,14,24,12,165,35,1*73
$GBGSV,3,3,12,22,10,053,,39,04,335,,37,03,325,,42,02,147,17,1*7A
$GBGSV,1,1,02,25,52,209,22,24,12,165,18,5*75
$GNGGA,205618.000,4000.568632,N,10514.623902,W,2,16,1.56,1655.148,M,-20.634,M,,*7F
$GPGSV,3,1,10,11,73,207,24,06,65,048,15,12,51,311,,44,42,197,39,1*6A
$GPGSV,3,2,10,19,40,066,,24,27,235,23,20,26,166,33,22,20,133,39,1*60
$GPGSV,3,3,10,25,20,313,,17,17,079,17,1*69
$GPGSV,1,1,01,24,27,235,28,8*51
$GLGSV,1,1,03,75,54,179,34,87,11,242,26,74,04,160,16,1*48
$GAGSV,2,1,05,26,87,157,,21,45,138,25,33,37,221,20,13,35,045,,7*70
$GAGSV,2,2,05,31,25,313,,7*42
$GAGSV,1,1,02,21,45,138,26,33,37,221,29,1*75
$GBGSV,3,1,12,11,73,309,,34,67,031,,43,53,270,15,25,52,209,38,1*7D
$GBGSV,3,2,12,23,45,294,,12,38,053,,21,13,102,14,24,12,165,35,1*73
$GBGSV,3,3,12,22,10,053,,39,04,335,,37,03,325,,42,02,147,19,1*74
$GBGSV,1,1,02,25,52,209,22,24,12,165,18,5*75
$GNGGA,205623.000,4000.568662,N,10514.623806,W,2,16,1.56,1655.110,M,-20.635,M,,*7B
$GPGSV,3,1,10,11,73,207,23,06,65,048,14,12,51,311,,44,42,197,39,1*6C
$GPGSV,3,2,10,19,40,066,,24,27,235,21,20,26,166,33,22,20,133,39,1*62
$GPGSV,3,3,10,25,20,313,,17,17,079,15,1*6B
$GPGSV,1,1,01,24,27,235,29,8*50
$GLGSV,1,1,04,86,59,270,,75,54,179,34,87,11,242,26,74,04,160,16,1*78
$GAGSV,2,1,05,26,87,157,,21,45,138,26,33,37,221,22,13,34,045,,7*70
$GAGSV,2,2,05,31,25,313,,7*42
$GAGSV,1,1,02,21,45,138,26,33,37,221,30,1*7D
$GBGSV,3,1,10,11,73,309,,34,67,031,,43,53,270,16,25,52,209,39,1*7D
$GBGSV,3,2,10,23,45,294,,12,38,053,,21,13,102,17,24,12,165,35,1*72
$GBGSV,3,3,10,22,10,053,,42,02,147,20,1*74
$GBGSV,1,1,02,25,52,209,23,24,12,165,16,5*7A
$PAIR010,0,0,2307,248202*33
$PAIR010,0,1,2307,248202*32
$GNGGA,205628.000,4000.568680,N,10514.623752,W,2,15,1.56,1655.093,M,-20.635,M,,*7B
$GPGSV,3,1,10,11,73,207,23,06,65,048,11,12,51,311,,44,42,197,39,1*69
$GPGSV,3,2,10,19,40,066,,24,27,235,19,20,26,166,33,22,20,133,39,1*69
$GPGSV,3,3,10,25,20,313,,17,17,079,12,1*6C
$GPGSV,1,1,01,24,27,235,29,8*50
$GLGSV,2,1,08,86,59,270,,76,55,312,,75,54,179,34,85,52,022,,1*74
$GLGSV,2,2,08,77,12,331,,87,11,242,25,69,09,042,,74,04,160,16,1*79
$GAGSV,2,1,05,26,87,157,,21,45,138,27,33,37,221,24,13,34,045,,7*77
$GAGSV,2,2,05,31,25,313,,7*42
$GAGSV,1,1,02,21,45,138,26,33,37,221,31,1*7C
$GBGSV,3,1,12,11,73,309,,34,67,031,,43,53,270,16,25,52,209,39,1*7F
$GBGSV,3,2,12,23,45,294,,12,38,053,,21,13,102,16,24,12,165,35,1*71
$GBGSV,3,3,12,22,10,053,,39,04,335,,37,03,325,,42,02,147,20,1*7E
$GBGSV,1,1,01,25,52,209,23,5*49
$GNGGA,205633.000,4000.568692,N,10514.623710,W,2,15,1.56,1655.078,M,-20.634,M,,*70
$GPGSV,3,1,10,11,73,207,22,06,65,048,,12,51,311,,44,42,197,39,1*68
$GPGSV,3,2,10,19,40,066,,24,27,235,19,20,26,166,33,22,20,133,39,1*69
$GPGSV,3,3,10,25,20,313,,17,17,079,,1*6F
$GPGSV,1,1,01,24,27,235,29,8*50
$GLGSV,1,1,03,75,54,179,33,87,11,242,24,74,04,160,16,1*4D
$GAGSV,2,1,05,26,87,157,,21,45,139,27,33,37,221,24,13,34,045,,7*76
$GAGSV,2,2,05,31,25,313,,7*42
$GAGSV,1,1,02,21,45,139,26,33,37,221,30,1*7C
$GBGSV,3,1,11,11,73,309,,34,67,031,,43,53,270,14,25,52,209,39,1*7E
$GBGSV,3,2,11,23,45,294,,12,38,053,,21,13,102,17,24,12,165,34,1*72
$GBGSV,3,3,11,22,10,053,,37,03,325,,42,02,147,21,1*47
$GBGSV,1,1,01,25,52,209,22,5*48
$GNGGA,205638.000,4000.568716,N,10514.623662,W,2,15,1.56,1655.067,M,-20.635,M,,*7D
$GPGSV,3,1,10,11,73,207,21,06,65,048,,12,51,311,,44,42,197,39,1*6B
$GPGSV,3,2,10,19,40,066,,24,27,235,20,20,26,166,34,22,20,133,39,1*64
$GPGSV,3,3,10,25,20,313,,17,17,079,12,1*6C
$GPGSV,1,1,01,24,27,235,31,8*59
$GLGSV,2,1,07,86,59,270,,76,55,312,,75,54,179,33,85,52,022,,1*7C
$GLGSV,2,2,07,87,11,242,24,70,06,101,,74,04,160,17,1*45
$GAGSV,2,1,05,26,88,138,,21,45,139,27,33,37,221,25,13,34,045,,7*71
$GAGSV,2,2,05,31,25,313,,7*42
$GAGSV,1,1,02,21,45,139,27,33,37,221,30,1*7D
$GBGSV,3,1,12,11,73,309,,34,67,031,,43,53,270,15,25,52,209,39,1*7C
$GBGSV,3,2,12,23,45,294,,12,38,053,,21,13,102,20,24,12,165,33,1*72
$GBGSV,3,3,12,22,10,053,,39,04,335,,37,03,325,,42,02,147,21,1*7F
$GBGSV,1,1,01,25,52,209,22,5*48
$GNGGA,205643.000,4000.568740,N,10514.623626,W,2,14,1.56,1655.026,M,-20.634,M,,*77
$GPGSV,3,1,10,11,73,207,21,06,65,048,,12,51,311,,44,42,197,39,1*6B
$GPGSV,3,2,10,19,40,066,,24,27,235,13,20,26,166,33,22,20,133,39,1*63
$GPGSV,3,3,10,25,20,313,,17,17,079,,1*6F
$GPGSV,1,1,01,24,27,235,30,8*58
$GLGSV,1,1,04,75,54,179,33,87,11,242,22,74,04,160,16,84,02,047,,1*71
$GAGSV,2,1,05,26,88,138,,21,45,139,27,33,38,222,25,13,34,045,,7*7D
$GAGSV,2,2,05,31,26,313,,7*41
$GAGSV,1,1,02,21,45,139,25,33,38,222,29,1*7B
$GBGSV,4,1,13,11,73,309,,34,67,031,,43,53,270,17,25,52,209,39,1*78
$GBGSV,4,2,13,23,45,294,,12,38,053,,44,16,063,,21,13,102,19,1*7B
$GBGSV,4,3,13,24,12,165,31,22,10,053,,39,04,335,,37,03,325,,1*79
$GBGSV,4,4,13,42,02,147,21,1*41
$GBGSV,1,1,01,25,52,209,22,5*48
$GNGGA,205648.000,4000.568794,N,10514.623566,W,2,14,1.56,1654.948,M,-20.635,M,,*73
$GPGSV,3,1,10,11,73,207,21,06,65,048,,12,51,311,,44,42,197,39,1*6B
$GPGSV,3,2,10,19,40,066,,24,27,235,10,20,26,166,33,22,20,133,39,1*60
$GPGSV,3,3,10,25,20,313,,17,17,079,,1*6F
$GPGSV,1,1,01,24,27,235,30,8*58
$GLGSV,1,1,03,75,54,179,34,87,11,242,21,74,04,160,16,1*4F
$GAGSV,2,1,05,26,88,138,,21,45,139,26,33,38,222,26,13,34,045,,7*7F
$GAGSV,2,2,05,31,26,313,,7*41
$GAGSV,1,1,02,21,45,139,25,33,38,222,29,1*7B
$GBGSV,3,1,11,11,73,309,,34,67,031,,43,53,270,16,25,52,209,39,1*7C
$GBGSV,3,2,11,23,45,294,,12,38,053,,21,13,102,19,24,12,165,30,1*78
$GBGSV,3,3,11,22,10,053,,37,03,325,,42,02,147,22,1*44
$GBGSV,1,1,01,25,52,209,21,5*4B
$GNGGA,205653.000,4000.568836,N,10514.623536,W,2,14,1.55,1654.866,M,-20.635,M,,*75
$GPGSV,3,1,10,11,73,207,21,06,65,048,,12,51,311,,44,42,197,39,1*6B
$GPGSV,3,2,10,19,40,066,,24,27,235,12,20,26,166,33,22,20,133,39,1*62
$GPGSV,3,3,10,25,20,313,,17,17,079,,1*6F
$GPGSV,1,1,01,24,27,235,30,8*58
$GLGSV,1,1,03,75,54,179,34,87,11,242,22,74,04,160,16,1*4C
$GAGSV,2,1,05,26,88,138,,21,45,139,27,33,38,222,26,13,34,045,,7*7E
$GAGSV,2,2,05,31,26,313,,7*41
$GAGSV,1,1,02,21,45,139,25,33,38,222,29,1*7B
$GBGSV,3,1,11,11,73,309,,34,67,031,,43,53,270,14,25,52,209,39,1*7E
$GBGSV,3,2,11,23,45,294,,12,38,053,,21,13,102,17,24,12,165,30,1*76
$GBGSV,3,3,11,22,10,053,,37,03,325,,42,02,147,22,1*44
$GBGSV,1,1,01,25,52,209,21,5*4B
$GNGGA,205658.000,4000.568836,N,10514.623524,W,2,14,1.55,1654.846,M,-20.635,M,,*7F
$GPGSV,3,1,10,11,73,207,21,06,65,048,,12,51,311,,44,42,197,39,1*6B
$GPGSV,3,2,10,19,40,066,,24,27,235,,20,26,166,34,22,20,133,39,1*66
$GPGSV,3,3,10,25,20,313,,17,17,079,,1*6F
$GPGSV,1,1,01,24,27,235,31,8*59
$GLGSV,1,1,04,86,59,270,,75,52,179,33,87,11,242,21,74,02,160,17,1*79
$GAGSV,2,1,05,26,88,138,,21,45,139,28,33,38,222,26,13,34,045,,7*71
$GAGSV,2,2,05,31,26,313,,7*41
$GAGSV,1,1,02,21,45,139,25,33,38,222,29,1*7B
$GBGSV,3,1,11,11,73,309,,34,67,031,,43,53,270,13,25,52,209,40,1*77
$GBGSV,3,2,11,23,45,294,,12,38,053,,21,13,102,16,24,12,165,31,1*76
$GBGSV,3,3,11,22,10,053,,37,03,325,,42,02,147,22,1*44
$GBGSV,1,1,01,25,52,209,21,5*4B
$GNGGA,205703.000,4000.568830,N,10514.623506,W,2,14,1.55,1654.824,M,-20.635,M,,*72
$GPGSV,3,1,10,11,73,207,22,06,65,048,,12,51,311,,44,42,197,39,1*68
$GPGSV,3,2,10,19,40,066,,24,27,235,,20,26,166,34,22,20,133,39,1*66
$GPGSV,3,3,10,25,20,313,,17,17,079,,1*6F
$GPGSV,1,1,01,24,27,235,31,8*59
$GLGSV,1,1,04,75,52,179,33,87,11,242,17,84,02,047,,74,02,160,18,1*79
$GAGSV,2,1,05,26,88,138,,21,45,139,28,33,38,222,27,13,34,045,,7*70
$GAGSV,2,2,05,31,26,313,,7*41
$GAGSV,1,1,02,21,45,139,25,33,38,222,29,1*7B
$GBGSV,3,1,12,11,73,309,,34,67,031,,43,53,270,13,25,52,209,40,1*74
$GBGSV,3,2,12,23,45,294,,12,38,053,,21,13,102,13,24,12,165,31,1*70
$GBGSV,3,3,12,22,10,053,,39,04,335,,37,03,325,,42,02,147,22,1*7C
$GBGSV,1,1,01,25,52,209,22,5*48
$GNGGA,205708.000,4000.568836,N,10514.623470,W,2,15,1.55,1654.800,M,-20.635,M,,*78
$GPGSV,3,1,10,11,73,207,19,06,65,048,,12,51,311,,44,42,197,39,1*60
$GPGSV,3,2,10,19,40,066,,24,27,235,20,20,26,166,34,22,20,133,39,1*64
$GPGSV,3,3,10,25,20,313,,17,17,079,,1*6F
$GPGSV,1,1,01,24,27,235,31,8*59
$GLGSV,1,1,03,75,52,179,33,87,11,242,18,74,02,160,18,1*4C
$GAGSV,2,1,05,26,88,138,,21,45,139,29,33,38,222,27,13,34,045,,7*71
$GAGSV,2,2,05,31,26,313,,7*41
$GAGSV,1,1,02,21,45,139,25,33,38,222,29,1*7B
$GBGSV,3,1,11,11,73,309,,34,67,031,,43,53,270,14,25,52,209,40,1*70
$GBGSV,3,2,11,23,45,294,,12,38,053,,21,13,102,17,24,12,165,31,1*77
$GBGSV,3,3,11,22,10,053,,37,03,325,,42,02,147,22,1*44
$GBGSV,1,1,01,25,52,209,21,5*4B
$GNGGA,205713.000,4000.568866,N,10514.623434,W,2,15,1.55,1654.749,M,-20.634,M,,*74
$GPGSV,3,1,10,11,73,207,18,06,65,048,11,12,51,311,,44,42,197,39,1*61
$GPGSV,3,2,10,19,40,066,,24,27,235,19,20,26,166,34,22,20,133,39,1*6E
$GPGSV,3,3,10,25,20,313,,17,17,079,,1*6F
$GPGSV,1,1,01,24,27,235,30,8*58
$GLGSV,2,1,05,86,59,273,,76,57,311,,75,52,179,33,87,12,243,21,1*7A
$GLGSV,2,2,05,74,02,160,18,1*42
$GAGSV,2,1,05,26,88,138,,21,45,139,29,33,38,222,29,13,34,045,,7*7F
$GAGSV,2,2,05,31,26,313,,7*41
$GAGSV,1,1,02,21,45,139,25,33,38,222,29,1*7B
$GBGSV,3,1,11,11,73,309,,34,67,031,,43,53,270,14,25,52,209,40,1*70
$GBGSV,3,2,11,23,45,294,,12,38,053,,21,13,102,15,24,12,165,31,1*75
$GBGSV,3,3,11,22,10,053,,37,03,325,,42,02,147,23,1*45
$GBGSV,1,1,01,25,52,209,21,5*4B
$GNGGA,205718.000,4000.568944,N,10514.623380,W,2,15,1.55,1654.756,M,-20.635,M,,*79
