$PAIR001,062,0*3F
$PAIR001,062,0*3F
$PAIR001,062,0*3F
$PAIR001,062,0*3F
$PAIR001,062,0*3F
$PAIR001,062,0*3F
$PAIR001,062,0*3F
$PAIR001,062,0*3F
$PAIR001,062,0*3F
$GNGGA,035637.000,4005.099034,N,10513.209132,W,2,51,0.55,1583.626,M,-20.670,M,,*7B
$GPGSV,3,1,09,23,64,034,40,10,58,304,46,18,48,131,40,32,43,214,48,1*69
$GPGSV,3,2,09,27,38,275,45,46,37,214,47,24,32,082,43,08,20,311,33,1*62
$GPGSV,3,3,09,15,17,049,40,1*56
$GPGSV,2,1,07,23,64,034,30,10,58,304,36,18,48,131,43,32,43,214,45,8*61
$GPGSV,2,2,07,27,38,275,43,24,32,082,43,08,20,311,33,8*50
$GLGSV,3,1,09,81,77,188,43,66,66,006,39,67,46,250,45,82,46,325,38,1*72
$GLGSV,3,2,09,88,23,156,46,65,19,042,33,75,06,052,32,83,05,330,14,1*75
$GLGSV,3,3,09,68,01,233,,1*4C
$GAGSV,2,1,07,13,71,125,43,07,61,204,43,08,59,055,40,26,50,315,30,7*76
$GAGSV,2,2,07,15,17,131,46,03,10,044,35,33,04,313,31,7*44
$GAGSV,2,1,06,13,71,125,38,07,61,204,43,08,59,055,31,26,50,315,32,1*79
$GAGSV,2,2,06,15,17,131,43,03,10,044,37,1*73
$GBGSV,3,1,11,33,67,030,39,28,64,222,47,41,52,260,45,27,41,304,43,1*72
$GBGSV,3,2,11,14,41,050,45,43,17,163,49,42,16,057,39,24,08,099,36,1*79
$GBGSV,3,3,11,26,06,053,35,32,01,245,,31,,,19,1*7D
$GBGSV,2,1,08,33,67,030,31,28,64,222,41,41,52,260,38,27,41,304,37,5*78
$GBGSV,2,2,08,43,17,163,44,42,16,057,36,24,08,099,35,26,06,053,35,5*73
$GNGGA,035642.000,4005.099076,N,10513.209108,W,2,51,0.55,1583.603,M,-20.670,M,,*71
$GPGSV,3,1,09,23,64,034,40,10,58,304,46,18,48,131,40,32,43,214,48,1*69
$GPGSV,3,2,09,27,38,275,45,46,37,214,47,24,32,082,43,08,20,311,33,1*62
$GPGSV,3,3,09,15,17,049,40,1*56
$GPGSV,2,1,07,23,64,034,30,10,58,304,36,18,48,131,43,32,43,214,44,8*60
$GPGSV,2,2,07,27,38,275,43,24,32,082,43,08,20,311,31,8*52
$GLGSV,3,1,09,81,77,188,44,66,66,006,39,82,46,325,37,67,46,250,45,1*7A
$GLGSV,3,2,09,88,23,156,46,65,19,042,33,75,06,052,32,83,05,330,14,1*75
$GLGSV,3,3,09,68,01,233,,1*4C
$GAGSV,2,1,07,13,71,125,43,07,61,204,43,08,59,055,40,26,50,315,30,7*76
$GAGSV,2,2,07,15,17,131,46,03,10,044,35,33,04,313,32,7*47
$GAGSV,2,1,06,13,71,125,39,07,61,204,43,08,59,055,31,26,50,315,32,1*78
$GAGSV,2,2,06,15,17,131,42,03,10,044,37,1*72
$GBGSV,3,1,12,33,67,030,39,28,64,222,47,41,52,260,45,27,41,304,43,1*71
$GBGSV,3,2,12,14,41,050,45,43,17,163,49,42,16,057,39,24,08,099,35,1*79
$GBGSV,3,3,12,26,06,053,36,40,02,339,,32,01,245,,31,,,19,1*42
$GBGSV,2,1,08,33,67,030,32,28,64,222,41,41,52,260,37,27,41,304,37,5*74
$GBGSV,2,2,08,43,17,163,43,42,16,057,36,24,08,099,35,26,06,053,35,5*74
$GNGGA,035647.000,4005.099118,N,10513.209090,W,2,51,0.55,1583.602,M,-20.669,M,,*74
$GPGSV,3,1,09,23,64,034,40,10,58,304,46,18,48,131,41,32,43,214,48,1*68
$GPGSV,3,2,09,27,38,275,45,46,37,214,47,24,32,082,43,08,20,311,36,1*67
$GPGSV,3,3,09,15,17,049,40,1*56
$GPGSV,2,1,07,23,64,034,30,10,58,304,36,18,48,131,43,32,43,214,45,8*61
$GPGSV,2,2,07,27,38,275,43,24,32,082,43,08,20,311,30,8*53
$GLGSV,3,1,09,81,77,188,44,66,66,006,39,82,46,325,38,67,46,250,45,1*75
$GLGSV,3,2,09,88,23,156,46,65,19,042,32,75,06,052,34,83,05,330,15,1*73
$GLGSV,3,3,09,68,01,233,,1*4C
$GAGSV,2,1,07,13,71,125,43,07,61,204,43,08,59,055,40,26,51,315,30,7*77
$GAGSV,2,2,07,15,17,131,45,03,10,044,34,33,04,313,32,7*45
$GAGSV,2,1,06,13,71,125,39,07,61,204,43,08,59,055,32,26,51,315,32,1*7A
$GAGSV,2,2,06,15,17,131,42,03,10,044,37,1*72
$GBGSV,3,1,12,33,67,030,39,28,64,222,47,41,52,260,45,27,41,304,43,1*71
$GBGSV,3,2,12,14,41,050,45,43,17,163,49,42,16,057,40,24,08,099,34,1*76
$GBGSV,3,3,12,26,06,053,36,40,02,339,,32,01,245,,31,,,19,1*42
$GBGSV,2,1,08,33,67,030,32,28,64,222,41,41,52,260,38,27,41,304,37,5*7B
$GBGSV,2,2,08,43,17,163,44,42,16,057,37,24,08,099,36,26,06,053,35,5*71
$GNGGA,035652.000,4005.099154,N,10513.209108,W,2,51,0.55,1583.474,M,-20.670,M,,*73
$GPGSV,3,1,09,23,64,034,40,10,58,304,46,18,48,131,41,32,43,214,48,1*68
$GPGSV,3,2,09,27,38,275,45,46,37,214,47,24,32,082,43,08,20,311,36,1*67
$GPGSV,3,3,09,15,17,049,39,1*58
$GPGSV,2,1,07,23,64,034,30,10,58,304,36,18,48,131,44,32,43,214,45,8*66
$GPGSV,2,2,07,27,38,275,43,24,32,082,43,08,20,311,30,8*53
$GLGSV,3,1,09,81,77,188,44,66,66,006,39,67,46,250,45,82,46,325,38,1*75
$GLGSV,3,2,09,88,23,156,46,65,19,042,32,75,06,052,35,83,05,330,14,1*73
$GLGSV,3,3,09,68,01,233,,1*4C
$GAGSV,2,1,07,13,71,125,43,07,61,204,43,08,59,055,40,26,51,315,30,7*77
$GAGSV,2,2,07,15,17,131,45,03,10,044,34,33,04,313,32,7*45
$GAGSV,2,1,06,13,71,125,39,07,61,204,43,08,59,055,33,26,51,315,33,1*7A
$GAGSV,2,2,06,15,17,131,43,03,10,044,38,1*7C
$GBGSV,3,1,11,33,67,030,39,28,64,222,47,41,52,260,45,27,41,304,43,1*72
$GBGSV,3,2,11,14,41,050,45,43,17,163,49,42,16,057,41,24,08,099,33,1*73
$GBGSV,3,3,11,26,06,053,36,32,01,245,,31,,,19,1*7E
$GBGSV,2,1,08,33,67,030,32,28,64,222,41,41,52,260,38,27,41,304,37,5*7B
$GBGSV,2,2,08,43,17,163,44,42,16,057,38,24,08,099,36,26,06,053,35,5*7E
$GNGGA,035657.000,4005.099148,N,10513.209174,W,2,51,0.55,1583.359,M,-20.670,M,,*78
$GPGSV,3,1,09,23,64,034,40,10,58,304,46,18,48,131,41,32,43,214,48,1*68
$GPGSV,3,2,09,27,38,275,45,46,37,214,47,24,32,082,43,08,20,311,37,1*66
$GPGSV,3,3,09,15,17,049,39,1*58
$GPGSV,2,1,07,23,64,034,30,10,58,304,36,18,48,131,44,32,43,214,45,8*66
$GPGSV,2,2,07,27,38,275,43,24,32,082,44,08,20,311,31,8*55
$GLGSV,3,1,09,81,77,188,44,66,66,006,39,82,46,325,38,67,46,250,45,1*75
$GLGSV,3,2,09,88,23,156,46,65,19,042,33,75,06,052,35,83,05,330,14,1*72
$GLGSV,3,3,09,68,01,233,,1*4C
$GAGSV,2,1,07,13,71,125,43,07,61,204,43,08,59,055,40,26,51,315,30,7*77
$GAGSV,2,2,07,15,17,131,45,03,10,044,33,33,04,313,31,7*41
$GAGSV,2,1,06,13,71,125,40,07,61,204,44,08,59,055,33,26,51,315,33,1*73
$GAGSV,2,2,06,15,17,131,43,03,10,044,38,1*7C
$GBGSV,3,1,12,33,67,030,39,28,64,222,47,41,52,260,45,27,41,304,43,1*71
$GBGSV,3,2,12,14,41,050,45,43,17,163,48,42,16,057,41,24,08,099,33,1*71
$GBGSV,3,3,12,26,06,053,35,40,02,339,,32,01,245,,31,,,18,1*40
$GBGSV,2,1,08,33,67,030,32,28,64,222,41,41,52,260,38,27,41,304,38,5*74
$GBGSV,2,2,08,43,17,163,44,42,16,057,39,24,08,099,37,26,06,053,35,5*7E
$GNGGA,035702.000,4005.099142,N,10513.209180,W,2,51,0.55,1583.271,M,-20.670,M,,*73
$GPGSV,3,1,09,23,64,034,40,10,58,304,46,18,48,131,41,32,43,214,48,1*68
$GPGSV,3,2,09,27,38,275,45,46,37,214,47,24,32,082,43,08,20,311,37,1*66
$GPGSV,3,3,09,15,17,049,39,1*58
$GPGSV,2,1,07,23,64,034,30,10,58,304,36,18,48,131,44,32,43,214,45,8*66
$GPGSV,2,2,07,27,38,275,43,24,32,082,44,08,20,311,31,8*55
$GLGSV,3,1,09,81,77,188,44,66,65,008,38,67,47,252,45,82,46,325,39,1*7B
$GLGSV,3,2,09,88,23,156,46,65,18,043,33,75,06,052,34,83,05,330,,1*76
$GLGSV,3,3,09,68,02,234,,1*48
$GAGSV,2,1,07,13,71,125,43,07,61,204,43,08,59,055,40,26,51,315,29,7*7F
$GAGSV,2,2,07,15,17,131,45,03,10,044,32,33,04,313,31,7*40
$GAGSV,2,1,06,13,71,125,40,07,61,204,44,08,59,055,33,26,51,315,33,1*73
$GAGSV,2,2,06,15,17,131,43,03,10,044,37,1*73
$GBGSV,3,1,11,33,67,030,39,28,64,222,47,41,52,260,45,27,41,304,43,1*72
$GBGSV,3,2,11,14,41,050,45,43,17,163,48,42,16,057,41,24,08,099,33,1*72
$GBGSV,3,3,11,26,06,053,34,32,01,245,,31,,,19,1*7C
$GBGSV,2,1,08,33,67,030,32,28,64,222,41,41,52,260,38,27,41,304,38,5*74
$GBGSV,2,2,08,43,17,163,44,42,16,057,39,24,08,099,36,26,06,053,35,5*7F
$GNGGA,035707.000,4005.099076,N,10513.209168,W,2,51,0.55,1583.370,M,-20.670,M,,*76
$GPGSV,3,1,09,23,64,034,40,10,58,304,46,18,48,131,41,32,43,214,48,1*68
$GPGSV,3,2,09,27,38,275,45,46,37,214,47,24,32,082,43,08,20,311,36,1*67
$GPGSV,3,3,09,15,17,049,39,1*58
$GPGSV,2,1,07,23,64,034,30,10,58,304,36,18,48,131,45,32,43,214,45,8*67
$GPGSV,2,2,07,27,38,275,43,24,32,082,44,08,20,311,32,8*56
$GLGSV,3,1,09,81,77,188,44,66,65,008,38,67,47,252,45,82,46,325,40,1*75
$GLGSV,3,2,09,88,23,156,46,65,18,043,34,75,06,052,33,83,05,330,,1*76
$GLGSV,3,3,09,68,02,234,,1*48
$GAGSV,2,1,07,13,71,125,43,07,61,204,43,08,59,055,40,26,51,315,29,7*7F
$GAGSV,2,2,07,15,17,131,45,03,10,044,32,33,04,313,31,7*40
$GAGSV,2,1,06,13,71,125,40,07,61,204,44,08,59,055,33,26,51,315,32,1*72
$GAGSV,2,2,06,15,17,131,43,03,10,044,37,1*73
$GBGSV,3,1,12,33,67,030,39,28,64,222,47,41,52,260,46,27,41,304,43,1*72
$GBGSV,3,2,12,14,41,050,45,43,17,163,48,42,16,057,41,24,08,099,33,1*71
$GBGSV,3,3,12,26,06,053,32,40,02,339,,32,01,245,,31,,,19,1*46
$GBGSV,2,1,08,33,67,030,32,28,64,222,41,41,52,260,38,27,41,304,38,5*74
$GBGSV,2,2,08,43,17,163,44,42,16,057,39,24,08,099,37,26,06,053,35,5*7E
$GNGGA,035712.000,4005.099022,N,10513.209114,W,2,51,0.55,1583.465,M,-20.670,M,,*7B
$GPGSV,3,1,09,23,64,034,40,10,58,304,46,18,48,131,41,32,43,214,49,1*69
$GPGSV,3,2,09,27,38,275,45,46,37,214,47,24,32,082,43,08,20,311,34,1*65
$GPGSV,3,3,09,15,17,049,39,1*58
$GPGSV,2,1,07,23,64,034,29,10,58,304,37,18,48,131,45,32,43,214,45,8*6E
$GPGSV,2,2,07,27,38,275,43,24,32,082,44,08,20,311,33,8*57
$GLGSV,3,1,09,81,77,188,44,66,65,008,37,67,47,252,45,82,46,325,40,1*7A
$GLGSV,3,2,09,88,23,156,45,65,18,043,34,75,06,051,33,83,05,330,,1*76
$GLGSV,3,3,09,68,02,234,,1*48
$GAGSV,2,1,07,13,71,125,43,07,61,204,43,08,59,055,40,26,51,315,29,7*7F
$GAGSV,2,2,07,15,17,131,45,03,10,044,32,33,04,313,31,7*40
$GAGSV,2,1,06,13,71,125,40,07,61,204,44,08,59,055,33,26,51,315,32,1*72
$GAGSV,2,2,06,15,17,131,43,03,10,044,37,1*73
$GBGSV,3,1,12,33,67,030,39,28,64,222,47,41,52,260,46,27,41,304,43,1*72
$GBGSV,3,2,12,14,41,050,45,43,17,163,48,42,16,057,41,24,08,099,33,1*71
$GBGSV,3,3,12,26,06,053,31,40,02,339,,32,01,245,,31,,,18,1*44
$GBGSV,2,1,08,33,67,030,32,28,64,222,42,41,52,260,38,27,41,304,39,5*76
$GBGSV,2,2,08,43,17,163,44,42,16,057,39,24,08,099,37,26,06,053,35,5*7E
$GNGGA,035717.000,4005.099010,N,10513.209042,W,2,51,0.55,1583.641,M,-20.670,M,,*79
$GPGSV,3,1,09,23,64,034,40,10,58,304,46,18,48,131,41,32,43,214,49,1*69
$GPGSV,3,2,09,27,38,275,45,46,37,214,47,24,32,082,43,08,20,311,34,1*65
$GPGSV,3,3,09,15,17,049,39,1*58
$GPGSV,2,1,07,23,64,034,29,10,58,304,37,18,48,131,45,32,43,214,46,8*6D
$GPGSV,2,2,07,27,38,275,43,24,32,082,44,08,20,311,33,8*57
$GLGSV,3,1,09,81,76,187,43,66,65,008,38,82,48,324,39,67,47,252,45,1*7D
$GLGSV,3,2,09,88,23,156,45,65,18,043,34,83,06,330,,75,06,051,32,1*74
$GLGSV,3,3,09,68,02,234,,1*48
$GAGSV,2,1,07,13,71,125,43,07,61,204,43,08,59,055,40,26,51,315,29,7*7F
$GAGSV,2,2,07,15,17,131,45,03,10,044,31,33,04,313,31,7*43
$GAGSV,2,1,06,13,71,125,40,07,61,204,44,08,59,055,33,26,51,315,32,1*72
$GAGSV,2,2,06,15,17,131,43,03,10,044,37,1*73
$GBGSV,3,1,12,33,67,030,40,28,64,222,47,41,52,260,46,27,41,304,43,1*7C
$GBGSV,3,2,12,14,41,050,45,43,17,163,48,42,16,057,40,24,08,099,33,1*70
$GBGSV,3,3,12,26,06,053,30,40,02,339,,32,01,245,,31,,,18,1*45
$GBGSV,2,1,08,33,67,030,32,28,64,222,42,41,52,260,38,27,41,304,39,5*76
$GBGSV,2,2,08,43,17,163,45,42,16,057,39,24,08,099,37,26,06,053,35,5*7F
$GNGGA,035722.000,4005.099034,N,10513.208982,W,2,51,0.55,1583.810,M,-20.669,M,,*7F
$GPGSV,3,1,09,23,64,034,40,10,58,304,46,18,48,131,41,32,43,214,49,1*69
$GPGSV,3,2,09,27,38,275,45,46,37,214,47,24,32,082,43,08,20,311,33,1*62
$GPGSV,3,3,09,15,17,049,39,1*58
$GPGSV,2,1,07,23,64,034,28,10,58,304,37,18,48,131,45,32,43,214,46,8*6C
$GPGSV,2,2,07,27,38,275,43,24,32,082,44,08,20,311,31,8*55
$GLGSV,3,1,09,81,76,187,43,66,65,008,40,82,48,324,39,67,47,252,45,1*72
$GLGSV,3,2,09,88,22,157,45,65,18,043,34,83,06,330,,75,06,051,33,1*75
$GLGSV,3,3,09,68,02,234,,1*48
$GAGSV,2,1,07,13,71,125,43,07,61,204,43,08,59,055,40,26,51,315,29,7*7F
$GAGSV,2,2,07,15,17,131,45,03,10,044,31,33,04,313,31,7*43
$GAGSV,2,1,06,13,71,125,40,07,61,204,44,08,59,055,33,26,51,315,32,1*72
$GAGSV,2,2,06,15,17,131,43,03,10,044,37,1*73
$GBGSV,3,1,12,33,67,030,40,28,64,222,47,41,52,260,46,27,41,304,43,1*7C
$GBGSV,3,2,12,14,41,050,45,43,17,163,47,42,16,057,40,24,08,099,32,1*7E
$GBGSV,3,3,12,26,06,053,31,40,02,339,,32,01,245,,31,,,18,1*44
$GBGSV,2,1,08,33,67,030,31,28,64,222,42,41,52,260,38,27,41,304,39,5*75
$GBGSV,2,2,08,43,17,163,45,42,16,057,39,24,08,099,37,26,06,053,34,5*7E
$GNGGA,035727.000,4005.099028,N,10513.208940,W,2,51,0.55,1583.864,M,-20.670,M,,*72
$GPGSV,3,1,09,23,64,034,40,10,58,304,46,18,48,131,40,32,43,214,49,1*68
$GPGSV,3,2,09,27,38,275,44,46,37,214,47,24,32,082,43,08,20,311,34,1*64
$GPGSV,3,3,09,15,17,049,39,1*58
$GPGSV,2,1,07,23,64,034,28,10,58,304,37,18,48,131,45,32,43,214,46,8*6C
$GPGSV,2,2,07,27,38,275,43,24,32,082,44,08,20,311,31,8*55
$GLGSV,3,1,09,81,76,187,43,66,65,008,40,82,48,324,40,67,47,252,45,1*7C
$GLGSV,3,2,09,88,22,157,45,65,18,043,34,83,06,330,,75,06,051,33,1*75
$GLGSV,3,3,09,68,02,234,25,1*4F
$GAGSV,2,1,07,13,71,125,43,07,61,204,43,08,59,055,40,26,51,315,28,7*7E
$GAGSV,2,2,07,15,17,131,45,03,10,044,30,33,04,313,31,7*42
$GAGSV,2,1,06,13,71,125,40,07,61,204,44,08,59,055,33,26,51,315,31,1*71
$GAGSV,2,2,06,15,17,131,43,03,10,044,37,1*73
$GBGSV,3,1,11,33,67,030,41,28,64,222,47,41,52,260,46,27,41,304,43,1*7E
$GBGSV,3,2,11,14,41,050,45,43,17,163,47,42,16,057,40,24,08,099,31,1*7E
$GBGSV,3,3,11,26,06,053,32,32,01,245,,31,,,18,1*7B
$GBGSV,2,1,08,33,67,030,31,28,64,222,42,41,52,260,38,27,41,304,39,5*75
$GBGSV,2,2,08,43,17,163,45,42,16,057,39,24,08,099,37,26,06,053,34,5*7E
$PAIR010,0,1,2308,359868*3A
$GNGGA,035732.000,4005.099028,N,10513.208904,W,2,51,0.55,1583.849,M,-20.670,M,,*79
$GPGSV,3,1,09,23,64,034,40,10,58,304,46,18,48,131,40,32,43,214,49,1*68
$GPGSV,3,2,09,27,38,275,44,46,37,214,47,24,32,082,43,08,20,311,35,1*65
$GPGSV,3,3,09,15,17,049,39,1*58
$GPGSV,2,1,07,23,64,034,28,10,58,304,37,18,48,131,45,32,43,214,46,8*6C
$GPGSV,2,2,07,27,38,275,43,24,32,082,44,08,20,311,30,8*54
$GLGSV,3,1,09,81,76,187,43,66,65,008,40,82,48,324,41,67,47,252,45,1*7D
$GLGSV,3,2,09,88,22,157,45,65,18,043,35,83,06,330,,75,06,051,34,1*73
$GLGSV,3,3,09,68,02,234,23,1*49
$GAGSV,2,1,07,13,71,125,43,07,61,204,43,08,59,055,41,26,51,315,27,7*70
$GAGSV,2,2,07,15,17,131,44,03,10,044,30,33,04,313,32,7*40
$GAGSV,2,1,06,13,71,125,40,07,61,204,44,08,59,055,33,26,51,315,31,1*71
$GAGSV,2,2,06,15,17,131,43,03,10,044,36,1*72
$GBGSV,3,1,12,33,67,030,41,28,64,222,47,41,52,260,46,27,41,304,43,1*7D
$GBGSV,3,2,12,14,41,050,45,43,17,163,47,42,16,057,41,24,08,099,28,1*74
$GBGSV,3,3,12,26,06,053,32,40,02,339,,32,01,245,,31,,,18,1*47
$GBGSV,2,1,08,33,67,030,31,28,64,222,42,41,52,260,38,27,41,304,39,5*75
$GBGSV,2,2,08,43,17,163,45,42,16,057,39,24,08,099,37,26,06,053,34,5*7E
$GNGGA,035737.000,4005.098992,N,10513.208844,W,2,51,0.55,1583.860,M,-20.670,M,,*7B
$GPGSV,3,1,09,23,64,034,40,10,58,304,45,18,48,131,39,32,43,214,49,1*65
$GPGSV,3,2,09,27,38,275,44,46,37,214,47,24,32,082,43,08,20,311,36,1*66
$GPGSV,3,3,09,15,17,049,39,1*58
$GPGSV,2,1,07,23,64,034,28,10,58,304,37,18,48,131,45,32,43,214,46,8*6C
$GPGSV,2,2,07,27,38,275,43,24,32,082,44,08,20,311,28,8*5D
$GLGSV,3,1,09,81,76,187,43,66,65,008,39,82,48,324,41,67,47,252,45,1*73
$GLGSV,3,2,09,88,22,157,45,65,18,043,35,83,06,330,,75,06,051,33,1*74
$GLGSV,3,3,09,68,02,234,26,1*4C
$GAGSV,2,1,07,13,71,125,43,07,61,204,43,08,59,055,41,26,51,315,28,7*7F
$GAGSV,2,2,07,15,17,131,44,03,10,044,30,33,04,313,32,7*40
$GAGSV,2,1,06,13,71,125,40,07,61,204,44,08,59,055,33,26,51,315,31,1*71
$GAGSV,2,2,06,15,17,131,43,03,10,044,36,1*72
$GBGSV,3,1,12,33,67,030,41,28,64,222,47,41,52,260,46,27,41,304,43,1*7D
$GBGSV,3,2,12,14,40,051,45,43,17,163,47,42,16,057,42,24,08,099,26,1*79
$GBGSV,3,3,12,26,06,053,32,40,02,339,,32,01,245,,31,,,18,1*47
$GBGSV,2,1,08,33,67,030,31,28,64,222,42,41,52,260,38,27,41,304,39,5*75
$GBGSV,2,2,08,43,17,163,45,42,16,057,39,24,08,099,38,26,06,053,34,5*71
$GNGGA,035742.000,4005.098932,N,10513.208808,W,2,51,0.55,1583.844,M,-20.670,M,,*7D
$GPGSV,3,1,09,23,64,034,40,10,58,304,45,18,48,131,40,32,43,214,49,1*6B
$GPGSV,3,2,09,27,38,275,44,46,37,214,47,24,32,082,43,08,20,311,36,1*66
$GPGSV,3,3,09,15,17,049,39,1*58
$GPGSV,2,1,07,23,64,034,27,10,58,304,37,18,48,131,45,32,43,214,46,8*63
$GPGSV,2,2,07,27,38,275,43,24,32,082,44,08,20,311,27,8*52
$GLGSV,3,1,09,81,76,187,43,66,65,008,39,82,48,324,41,67,47,252,45,1*73
$GLGSV,3,2,09,88,22,157,45,65,18,043,35,83,06,330,,75,06,051,33,1*74
$GLGSV,3,3,09,68,02,234,28,1*42
$GAGSV,2,1,07,13,71,125,43,07,61,204,43,08,59,055,41,26,51,315,28,7*7F
$GAGSV,2,2,07,15,17,131,44,03,10,044,30,33,04,313,32,7*40
$GAGSV,2,1,06,13,71,125,40,07,61,204,44,08,59,055,33,26,51,315,31,1*71
$GAGSV,2,2,06,15,17,131,43,03,10,044,36,1*72
$GBGSV,3,1,12,33,67,030,41,28,64,222,47,41,52,260,46,27,41,304,43,1*7D
$GBGSV,3,2,12,14,40,051,45,43,17,163,47,42,16,057,42,24,08,099,29,1*76
$GBGSV,3,3,12,26,06,053,32,40,02,339,,32,01,245,,31,,,17,1*48
$GBGSV,2,1,08,33,67,030,31,28,64,222,42,41,52,260,38,27,41,304,39,5*75
$GBGSV,2,2,08,43,17,163,45,42,16,057,38,24,08,099,38,26,06,053,34,5*70
$GNGGA,035747.000,4005.098854,N,10513.208760,W,2,51,0.55,1583.835,M,-20.670,M,,*7E
$GPGSV,3,1,09,23,64,034,40,10,58,304,45,18,48,131,40,32,43,214,49,1*6B
$GPGSV,3,2,09,27,38,275,44,46,37,214,47,24,32,082,43,08,20,311,36,1*66
$GPGSV,3,3,09,15,17,049,39,1*58
$GPGSV,2,1,07,23,64,034,27,10,58,304,37,18,48,131,45,32,43,214,46,8*63
$GPGSV,2,2,07,27,38,275,43,24,32,082,44,08,20,311,27,8*52
$GLGSV,3,1,09,81,76,187,43,66,65,008,39,82,48,324,41,67,47,252,45,1*73
$GLGSV,3,2,09,88,22,157,45,65,18,043,35,83,06,330,17,75,06,051,31,1*70
$GLGSV,3,3,09,68,02,234,28,1*42
$GAGSV,2,1,07,13,71,125,43,07,61,204,43,08,59,055,41,26,51,315,28,7*7F
$GAGSV,2,2,07,15,17,131,44,03,10,044,29,33,04,313,32,7*48
$GAGSV,2,1,06,13,71,125,40,07,61,204,44,08,59,055,33,26,51,315,30,1*70
$GAGSV,2,2,06,15,17,131,43,03,10,044,36,1*72
$GBGSV,3,1,12,33,67,030,41,28,64,222,47,41,52,260,46,27,41,304,43,1*7D
$GBGSV,3,2,12,14,40,051,45,43,17,163,47,42,16,057,42,24,09,098,29,1*76
$GBGSV,3,3,12,26,06,052,31,40,02,339,,32,01,245,,31,,,18,1*45
$GBGSV,2,1,08,33,67,030,31,28,64,222,42,41,52,260,38,27,41,304,39,5*75
$GBGSV,2,2,08,43,17,163,45,42,16,057,38,24,09,098,38,26,06,052,33,5*76
$GNGGA,035752.000,4005.098758,N,10513.208754,W,2,51,0.55,1583.724,M,-20.670,M,,*71
$GPGSV,3,1,09,23,64,034,40,10,58,304,45,18,48,131,41,32,43,214,49,1*6A
$GPGSV,3,2,09,27,38,275,44,46,37,214,47,24,32,082,43,08,20,311,36,1*66
$GPGSV,3,3,09,15,17,049,39,1*58
$GPGSV,2,1,07,23,64,034,26,10,58,304,37,18,48,131,45,32,43,214,46,8*62
$GPGSV,2,2,07,27,38,275,43,24,32,082,44,08,20,311,27,8*52
$GLGSV,3,1,09,81,76,187,43,66,65,008,39,82,48,324,41,67,47,252,45,1*73
$GLGSV,3,2,09,88,22,157,45,65,18,043,35,83,06,330,18,75,06,051,32,1*7C
$GLGSV,3,3,09,68,02,234,27,1*4D
$GAGSV,2,1,07,13,71,125,43,07,61,204,43,08,59,055,41,26,51,315,28,7*7F
$GAGSV,2,2,07,15,17,131,44,03,10,044,29,33,04,313,32,7*48
$GAGSV,2,1,06,13,71,125,40,07,61,204,44,08,59,055,33,26,51,315,30,1*70
$GAGSV,2,2,06,15,17,131,43,03,10,044,36,1*72
$GBGSV,3,1,12,33,67,030,41,28,63,221,47,41,52,260,46,27,42,303,43,1*7D
$GBGSV,3,2,12,14,40,051,44,43,17,163,47,42,16,057,42,24,09,098,32,1*7D
$GBGSV,3,3,12,26,06,052,30,40,02,339,,32,01,245,,31,,,18,1*44
$GBGSV,2,1,08,33,67,030,31,28,63,221,42,41,52,260,38,27,42,303,39,5*75
$GBGSV,2,2,08,43,17,163,45,42,16,057,38,24,09,098,38,26,06,052,33,5*76
$GNGGA,035757.000,4005.098680,N,10513.208778,W,2,51,0.55,1583.592,M,-20.670,M,,*71
$GPGSV,3,1,09,23,64,034,40,10,58,304,45,18,48,131,41,32,43,214,49,1*6A
$GPGSV,3,2,09,27,38,275,44,46,37,214,47,24,32,082,43,08,20,311,36,1*66
$GPGSV,3,3,09,15,17,049,39,1*58
$GPGSV,2,1,07,23,64,034,26,10,58,304,37,18,48,131,45,32,43,214,46,8*62
$GPGSV,2,2,07,27,38,275,43,24,32,082,44,08,20,311,27,8*52
$GLGSV,3,1,09,81,76,187,44,66,65,008,39,82,48,324,39,67,47,252,45,1*7B
$GLGSV,3,2,09,88,22,157,45,65,18,043,35,83,06,330,19,75,06,051,34,1*7B
$GLGSV,3,3,09,68,02,234,28,1*42
$GAGSV,2,1,07,13,71,125,43,07,61,204,43,08,59,055,41,26,51,315,29,7*7E
$GAGSV,2,2,07,15,17,131,44,03,10,044,29,33,04,313,31,7*4B
$GAGSV,2,1,06,13,71,125,40,07,61,204,44,08,59,055,33,26,51,315,29,1*78
$GAGSV,2,2,06,15,17,131,43,03,10,044,36,1*72
$GBGSV,3,1,12,33,66,031,41,28,63,221,47,41,52,260,46,27,42,303,43,1*7D
$GBGSV,3,2,12,14,40,051,44,43,17,163,47,42,16,057,42,24,09,098,34,1*7B
$GBGSV,3,3,12,26,06,052,29,40,02,339,,32,02,246,,31,,,19,1*4D
$GBGSV,2,1,08,33,66,031,31,28,63,221,42,41,52,260,38,27,42,303,39,5*75
$GBGSV,2,2,08,43,17,163,45,42,16,057,39,24,09,098,38,26,06,052,33,5*77
$GNGGA,035802.000,4005.098686,N,10513.208742,W,2,51,0.55,1583.533,M,-20.670,M,,*7A
$GPGSV,3,1,09,23,64,034,40,10,58,304,45,18,48,131,41,32,43,214,49,1*6A
$GPGSV,3,2,09,27,38,275,44,46,37,214,47,24,32,082,43,08,20,311,35,1*65
$GPGSV,3,3,09,15,17,049,39,1*58
$GPGSV,2,1,07,23,64,034,27,10,58,304,37,18,48,131,46,32,43,214,46,8*60
$GPGSV,2,2,07,27,38,275,43,24,32,082,44,08,20,311,27,8*52
$GLGSV,3,1,09,81,76,187,44,66,65,008,39,82,48,324,39,67,47,252,45,1*7B
$GLGSV,3,2,09,88,22,157,45,65,18,043,34,83,06,330,18,75,06,051,34,1*7B
$GLGSV,3,3,09,68,02,234,,1*48
$GAGSV,2,1,07,13,71,125,43,07,61,204,43,08,59,055,41,26,51,315,29,7*7E
$GAGSV,2,2,07,15,17,131,44,03,10,044,29,33,04,313,31,7*4B
$GAGSV,2,1,07,13,71,125,40,07,61,204,44,08,59,055,33,26,51,315,28,1*78
$GAGSV,2,2,07,15,17,131,43,03,10,044,36,33,04,313,20,1*44
$GBGSV,3,1,12,33,66,031,41,28,63,221,47,41,53,262,46,27,42,303,42,1*7F
$GBGSV,3,2,12,14,40,051,44,43,17,163,47,42,16,057,42,24,09,098,34,1*7B
$GBGSV,3,3,12,26,06,052,30,40,02,339,,32,02,246,,31,,,18,1*44
$GBGSV,2,1,08,33,66,031,31,28,63,221,42,41,53,262,38,27,42,303,39,5*76
$GBGSV,2,2,08,43,17,163,45,42,16,057,39,24,09,098,38,26,06,052,33,5*77
$GNGGA,035807.000,4005.098704,N,10513.208706,W,2,51,0.55,1583.447,M,-20.670,M,,*76
$GPGSV,3,1,09,23,64,034,40,10,58,304,44,18,48,131,42,32,43,214,49,1*68
$GPGSV,3,2,09,27,38,275,44,46,37,214,47,24,32,082,43,08,20,311,37,1*67
$GPGSV,3,3,09,15,17,049,39,1*58
$GPGSV,2,1,07,23,64,034,28,10,58,304,37,18,48,131,46,32,43,214,46,8*6F
$GPGSV,2,2,07,27,38,275,43,24,32,082,44,08,20,311,28,8*5D
$GLGSV,3,1,09,81,76,187,44,66,65,008,39,82,48,324,39,67,47,252,45,1*7B
$GLGSV,3,2,09,88,22,157,45,65,18,043,34,83,06,330,19,75,06,051,34,1*7A
$GLGSV,3,3,09,68,02,234,,1*48
$GAGSV,2,1,07,13,71,125,43,07,61,204,43,08,59,055,41,26,51,315,30,7*76
$GAGSV,2,2,07,15,17,131,44,03,10,044,29,33,04,313,31,7*4B
$GAGSV,2,1,07,13,71,125,41,07,61,204,44,08,59,055,33,26,51,315,28,1*79
$GAGSV,2,2,07,15,17,131,43,03,10,044,36,33,04,313,21,1*45
$GBGSV,3,1,12,33,66,031,42,28,63,221,47,41,53,262,46,27,42,303,42,1*7C
$GBGSV,3,2,12,14,40,051,43,43,16,163,47,42,15,058,42,24,09,098,34,1*71
$GBGSV,3,3,12,26,06,052,31,40,02,339,,32,02,246,,31,,,18,1*45
$GBGSV,2,1,08,33,66,031,32,28,63,221,42,41,53,262,38,27,42,303,39,5*75
$GBGSV,2,2,08,43,16,163,45,42,15,058,40,24,09,098,39,26,06,052,34,5*72
$GNGGA,035812.000,4005.098686,N,10513.208634,W,2,51,0.55,1583.518,M,-20.670,M,,*72
$GPGSV,3,1,09,23,64,034,40,10,58,304,44,18,48,131,42,32,43,214,50,1*60
$GPGSV,3,2,09,27,38,275,44,46,37,214,47,24,32,082,43,08,20,311,38,1*68
$GPGSV,3,3,09,15,17,049,38,1*59
$GPGSV,2,1,07,23,64,034,27,10,58,304,37,18,48,131,46,32,43,214,46,8*60
$GPGSV,2,2,07,27,38,275,43,24,32,082,44,08,20,311,28,8*5D
$GLGSV,3,1,09,81,76,187,44,66,65,008,40,82,48,324,41,67,47,252,45,1*7A
$GLGSV,3,2,09,88,22,157,45,65,18,043,35,83,06,330,18,75,06,051,36,1*78
$GLGSV,3,3,09,68,02,234,,1*48
$GAGSV,2,1,07,13,71,125,43,07,61,204,43,08,59,055,41,26,51,315,31,7*77
$GAGSV,2,2,07,15,17,131,43,03,10,044,29,33,04,313,31,7*4C
$GAGSV,2,1,07,13,71,125,41,07,61,204,44,08,59,055,32,26,51,315,26,1*76
$GAGSV,2,2,07,15,17,131,43,03,10,044,36,33,04,313,20,1*44
$GBGSV,3,1,12,33,66,031,43,28,63,221,47,41,53,262,46,27,42,303,42,1*7D
$GBGSV,3,2,12,14,40,051,43,43,16,163,47,42,15,058,42,24,09,098,33,1*76
$GBGSV,3,3,12,26,06,052,32,40,02,339,,32,02,246,,31,,,18,1*46
$GBGSV,2,1,08,33,66,031,31,28,63,221,42,41,53,262,38,27,42,303,39,5*76
$GBGSV,2,2,08,43,16,163,45,42,15,058,40,24,09,098,39,26,06,052,34,5*72
$GNGGA,035817.000,4005.098662,N,10513.208628,W,2,51,0.55,1583.548,M,-20.670,M,,*75
$GPGSV,3,1,09,23,64,034,40,10,58,304,44,18,48,131,42,32,43,214,50,1*60
$GPGSV,3,2,09,27,38,275,44,46,37,214,47,24,32,082,44,08,20,311,38,1*6F
$GPGSV,3,3,09,15,17,049,38,1*59
$GPGSV,2,1,07,23,64,034,28,10,58,304,37,18,48,131,46,32,43,214,46,8*6F
$GPGSV,2,2,07,27,38,275,43,24,32,082,44,08,20,311,28,8*5D
$GLGSV,3,1,09,81,76,187,44,66,65,008,41,82,48,324,41,67,47,252,45,1*7B
$GLGSV,3,2,09,88,22,157,45,65,18,043,36,83,06,330,18,75,06,051,36,1*7B
$GLGSV,3,3,09,68,02,234,,1*48
$GAGSV,2,1,07,13,71,125,43,07,61,204,43,08,59,055,41,26,51,315,32,7*74
$GAGSV,2,2,07,15,17,131,43,03,10,044,30,33,04,313,31,7*44
$GAGSV,2,1,07,13,71,125,41,07,61,204,44,08,59,055,32,26,51,315,25,1*75
$GAGSV,2,2,07,15,17,131,43,03,10,044,36,33,04,313,20,1*44
$GBGSV,3,1,12,33,66,031,43,28,63,221,47,41,53,262,46,27,42,303,42,1*7D
$GBGSV,3,2,12,14,40,051,43,43,16,163,47,42,15,058,42,24,09,098,33,1*76
$GBGSV,3,3,12,26,06,052,32,40,02,339,,32,02,246,,31,,,18,1*46
$GBGSV,2,1,08,33,66,031,31,28,63,221,42,41,53,262,39,27,42,303,39,5*77
$GBGSV,2,2,08,43,16,163,45,42,15,058,40,24,09,098,40,26,06,052,34,5*7C
$GNGGA,035822.000,4005.098626,N,10513.208604,W,2,51,0.55,1583.513,M,-20.670,M,,*73
$GPGSV,3,1,09,23,64,034,40,10,58,304,44,18,48,131,42,32,43,214,50,1*60
$GPGSV,3,2,09,27,38,275,44,46,37,214,47,24,32,082,44,08,20,311,38,1*6F
$GPGSV,3,3,09,15,17,049,38,1*59
$GPGSV,2,1,07,23,64,034,28,10,58,304,37,18,48,131,46,32,43,214,46,8*6F
$GPGSV,2,2,07,27,38,275,43,24,32,082,44,08,20,311,27,8*52
$GLGSV,3,1,09,81,76,187,44,66,65,008,41,82,48,324,41,67,47,252,45,1*7B
$GLGSV,3,2,09,88,22,157,45,65,18,043,36,83,06,330,16,75,06,051,32,1*71
$GLGSV,3,3,09,68,02,234,,1*48
$GAGSV,2,1,07,13,71,125,43,07,61,204,44,08,59,055,41,26,51,315,32,7*73
$GAGSV,2,2,07,15,17,131,43,03,10,044,31,33,04,313,32,7*46
$GAGSV,2,1,07,13,71,125,41,07,61,204,44,08,59,055,32,26,51,315,22,1*72
$GAGSV,2,2,07,15,17,131,43,03,10,044,36,33,04,313,21,1*45
$GBGSV,3,1,11,33,66,031,43,28,63,221,47,41,53,262,46,27,42,303,42,1*7E
$GBGSV,3,2,11,14,40,051,43,43,16,163,47,42,15,058,42,24,09,098,33,1*75
$GBGSV,3,3,11,26,06,052,31,40,02,339,,31,,,18,1*75
$GBGSV,2,1,08,33,66,031,31,28,63,221,42,41,53,262,39,27,42,303,39,5*77
$GBGSV,2,2,08,43,16,163,45,42,15,058,40,24,09,098,40,26,06,052,34,5*7C
$GNGGA,035827.000,4005.098620,N,10513.208610,W,2,51,0.55,1583.453,M,-20.670,M,,*70
$GPGSV,3,1,09,23,64,034,40,10,58,304,44,18,48,131,42,32,43,214,50,1*60
$GPGSV,3,2,09,27,38,275,44,46,37,214,47,24,32,082,44,08,20,311,37,1*60
$GPGSV,3,3,09,15,17,049,38,1*59
$GPGSV,2,1,07,23,64,034,28,10,58,304,37,18,48,131,46,32,43,214,46,8*6F
$GPGSV,2,2,07,27,38,275,43,24,32,082,44,08,20,311,26,8*53
$GLGSV,3,1,09,81,76,187,44,66,65,008,41,82,48,324,40,67,47,252,45,1*7A
$GLGSV,3,2,09,88,22,157,45,65,18,043,36,83,06,330,18,75,06,051,31,1*7C
$GLGSV,3,3,09,68,02,234,,1*48
$GAGSV,2,1,07,13,71,125,43,07,61,204,44,08,59,055,41,26,51,315,32,7*73
$GAGSV,2,2,07,15,17,131,43,03,10,044,31,33,04,313,32,7*46
$GAGSV,2,1,07,13,71,125,41,07,61,204,44,08,59,055,32,26,51,315,21,1*71
$GAGSV,2,2,07,15,17,131,43,03,10,044,36,33,04,313,21,1*45
$GBGSV,3,1,10,33,66,031,43,28,63,221,47,41,53,262,46,27,42,303,42,1*7F
$GBGSV,3,2,10,14,40,051,42,43,16,163,47,42,15,058,42,24,09,098,34,1*72
$GBGSV,3,3,10,26,06,052,32,31,,,18,1*48
$GBGSV,2,1,08,33,66,031,31,28,63,221,42,41,53,262,39,27,42,303,39,5*77
$GBGSV,2,2,08,43,16,163,45,42,15,058,40,24,09,098,39,26,06,052,34,5*72
$PAIR010,0,1,2308,359928*3F
$GNGGA,035832.000,4005.098644,N,10513.208640,W,2,51,0.55,1583.517,M,-20.670,M,,*72
$GPGSV,3,1,09,23,64,034,40,10,58,304,44,18,48,131,42,32,43,214,50,1*60
$GPGSV,3,2,09,27,38,275,44,46,37,214,47,24,32,082,44,08,20,310,35,1*63
$GPGSV,3,3,09,15,17,049,39,1*58
$GPGSV,2,1,07,23,64,034,27,10,58,304,37,18,48,131,46,32,43,214,45,8*63
$GPGSV,2,2,07,27,38,275,43,24,32,082,44,08,20,310,25,8*51
$GLGSV,3,1,09,81,76,187,44,66,65,008,41,82,48,324,40,67,47,252,45,1*7A
$GLGSV,3,2,09,88,22,157,46,65,18,043,36,83,06,330,19,75,06,051,31,1*7E
$GLGSV,3,3,09,68,02,234,,1*48
$GAGSV,2,1,07,13,71,125,43,07,61,204,44,08,59,055,41,26,51,315,32,7*73
$GAGSV,2,2,07,15,17,131,43,03,10,044,31,33,04,313,32,7*46
$GAGSV,2,1,07,13,71,125,41,07,61,204,44,08,59,055,32,26,51,315,19,1*7A
$GAGSV,2,2,07,15,17,131,43,03,10,044,36,33,04,313,20,1*44
$GBGSV,3,1,12,33,66,031,42,28,63,221,47,41,53,262,46,27,42,303,42,1*7C
$GBGSV,3,2,12,14,40,051,42,43,16,163,47,42,15,058,43,24,09,098,34,1*71
$GBGSV,3,3,12,26,06,052,33,40,02,339,,32,02,246,,31,,,18,1*47
$GBGSV,2,1,08,33,66,031,31,28,63,221,42,41,53,262,39,27,42,303,39,5*77
$GBGSV,2,2,08,43,16,163,45,42,15,058,39,24,09,098,39,26,06,052,34,5*7C
$GNGGA,035837.000,4005.098704,N,10513.208622,W,2,51,0.55,1583.696,M,-20.670,M,,*7C
$GPGSV,3,1,09,23,64,034,40,10,59,306,44,18,48,131,42,32,43,214,50,1*63
$GPGSV,3,2,09,27,38,275,44,46,37,214,47,24,32,082,44,08,20,310,35,1*63
$GPGSV,3,3,09,15,17,049,39,1*58
$GPGSV,2,1,07,23,64,034,28,10,59,306,37,18,48,131,46,32,43,214,45,8*6F
$GPGSV,2,2,07,27,38,275,43,24,32,082,44,08,20,310,25,8*51
$GLGSV,3,1,09,81,76,187,44,66,65,008,41,82,48,324,39,67,47,252,46,1*77
$GLGSV,3,2,09,88,22,157,46,65,18,043,37,83,06,330,18,75,06,051,32,1*7D
$GLGSV,3,3,09,68,02,234,32,1*49
$GAGSV,2,1,07,13,71,125,43,07,61,204,44,08,59,055,41,26,51,315,32,7*73
$GAGSV,2,2,07,15,17,131,42,03,10,044,31,33,04,313,32,7*47
$GAGSV,2,1,07,13,71,125,41,07,61,204,44,08,59,055,32,26,51,315,19,1*7A
$GAGSV,2,2,07,15,17,131,43,03,10,044,36,33,04,313,19,1*4E
$GBGSV,3,1,12,33,66,031,42,28,63,221,47,41,53,262,46,27,42,303,42,1*7C
$GBGSV,3,2,12,14,40,051,42,43,16,163,47,42,15,058,43,24,09,098,32,1*77
$GBGSV,3,3,12,26,06,052,33,40,02,339,,32,02,246,,31,,,19,1*46
$GBGSV,2,1,08,33,66,031,31,28,63,221,42,41,53,262,39,27,42,303,39,5*77
$GBGSV,2,2,08,43,16,163,45,42,15,058,39,24,09,098,39,26,06,052,34,5*7C
$GNGGA,035842.000,4005.098782,N,10513.208598,W,2,51,0.55,1583.902,M,-20.670,M,,*70
$GPGSV,3,1,09,23,64,034,40,10,59,306,45,18,47,132,42,32,43,214,51,1*6F
$GPGSV,3,2,09,27,38,275,44,46,37,214,47,24,32,082,44,08,20,310,34,1*62
$GPGSV,3,3,09,15,16,049,39,1*59
$GPGSV,2,1,07,23,64,034,29,10,59,306,37,18,47,132,46,32,43,214,45,8*62
$GPGSV,2,2,07,27,38,275,43,24,32,082,44,08,20,310,25,8*51
$GLGSV,3,1,09,81,76,187,44,66,65,008,41,82,48,324,39,67,47,252,46,1*77
$GLGSV,3,2,09,88,22,157,46,65,18,043,38,83,06,330,18,75,06,051,34,1*74
$GLGSV,3,3,09,68,02,234,33,1*48
$GAGSV,2,1,07,13,71,125,43,07,61,204,44,08,59,055,41,26,51,315,31,7*70
$GAGSV,2,2,07,15,17,131,42,03,10,044,31,33,04,313,32,7*47
$GAGSV,2,1,07,13,71,125,41,07,61,204,44,08,59,055,33,26,51,315,18,1*7A
$GAGSV,2,2,07,15,17,131,43,03,10,044,36,33,04,313,19,1*4E
$GBGSV,3,1,12,33,66,031,42,28,63,221,47,41,53,262,46,27,42,303,42,1*7C
$GBGSV,3,2,12,14,40,051,42,43,16,163,47,42,15,058,43,24,09,098,35,1*70
$GBGSV,3,3,12,26,06,052,34,40,02,339,,32,02,246,,31,,,18,1*40
$GBGSV,2,1,08,33,66,031,31,28,63,221,42,41,53,262,39,27,42,303,39,5*77
$GBGSV,2,2,08,43,16,163,44,42,15,058,39,24,09,098,39,26,06,052,33,5*7A
$GNGGA,035847.000,4005.098812,N,10513.208592,W,2,51,0.55,1584.008,M,-20.670,M,,*7D
$GPGSV,3,1,09,23,64,036,40,10,59,306,46,18,47,132,42,32,43,214,51,1*6E
$GPGSV,3,2,09,27,38,275,44,46,37,214,47,24,32,082,44,08,20,310,34,1*62
$GPGSV,3,3,09,15,16,049,39,1*59
$GPGSV,2,1,07,23,64,036,29,10,59,306,37,18,47,132,47,32,43,214,45,8*61
$GPGSV,2,2,07,27,38,275,43,24,32,082,44,08,20,310,26,8*52
$GLGSV,3,1,09,81,76,187,43,66,65,008,40,82,48,324,40,67,47,252,45,1*7C
$GLGSV,3,2,09,88,22,157,46,65,18,043,38,83,06,330,19,75,06,051,34,1*75
$GLGSV,3,3,09,68,02,234,37,1*4C
$GAGSV,2,1,07,13,71,125,43,07,61,204,44,08,59,055,41,26,51,315,31,7*70
$GAGSV,2,2,07,15,17,131,42,03,10,044,31,33,04,313,32,7*47
$GAGSV,2,1,07,13,71,125,41,07,61,204,44,08,59,055,33,26,51,315,18,1*7A
$GAGSV,2,2,07,15,17,131,43,03,10,044,35,33,04,313,18,1*4C
$GBGSV,3,1,12,33,66,031,42,28,63,221,47,41,53,262,45,27,42,303,42,1*7F
$GBGSV,3,2,12,14,40,051,42,43,16,163,47,42,15,058,43,24,09,098,34,1*71
$GBGSV,3,3,12,26,06,052,33,40,02,339,,32,02,246,,31,,,18,1*47
$GBGSV,2,1,08,33,66,031,31,28,63,221,42,41,53,262,39,27,42,303,39,5*77
$GBGSV,2,2,08,43,16,163,44,42,15,058,39,24,09,098,39,26,06,052,33,5*7A
$GNGGA,035852.000,4005.098770,N,10513.208592,W,2,51,0.55,1584.192,M,-20.670,M,,*70
$GPGSV,3,1,09,23,64,036,40,10,59,306,46,18,47,132,42,32,43,214,51,1*6E
$GPGSV,3,2,09,27,38,273,44,46,37,214,47,24,32,081,44,08,20,310,34,1*67
$GPGSV,3,3,09,15,16,049,39,1*59
$GPGSV,2,1,07,23,64,036,29,10,59,306,37,18,47,132,47,32,43,214,45,8*61
$GPGSV,2,2,07,27,38,273,43,24,32,081,44,08,20,310,27,8*56
$GLGSV,3,1,09,81,76,187,43,66,65,008,40,82,48,324,40,67,47,252,45,1*7C
$GLGSV,3,2,09,88,22,157,46,65,18,043,38,83,06,330,19,75,06,051,34,1*75
$GLGSV,3,3,09,68,02,234,37,1*4C
$GAGSV,2,1,07,13,71,125,43,07,61,204,44,08,59,055,41,26,51,315,31,7*70
$GAGSV,2,2,07,15,17,131,41,03,10,044,32,33,04,313,32,7*47
$GAGSV,2,1,07,13,71,125,41,07,61,204,44,08,59,055,33,26,51,315,18,1*7A
$GAGSV,2,2,07,15,17,131,43,03,10,044,35,33,04,313,17,1*43
$GBGSV,3,1,12,33,66,031,42,28,63,221,47,41,53,262,45,27,42,303,42,1*7F
$GBGSV,3,2,12,14,40,051,42,43,16,163,47,42,15,058,43,24,09,098,35,1*70
$GBGSV,3,3,12,26,06,052,32,40,02,339,,32,02,246,,31,,,19,1*47
$GBGSV,2,1,08,33,66,031,30,28,63,221,42,41,53,262,38,27,42,303,39,5*77
$GBGSV,2,2,08,43,16,163,44,42,15,058,39,24,09,098,39,26,06,052,33,5*7A
$GNGGA,035857.000,4005.098734,N,10513.208598,W,2,51,0.55,1584.270,M,-20.670,M,,*70
$GPGSV,3,1,09,23,64,036,40,10,59,306,46,18,47,132,42,32,44,215,51,1*68
$GPGSV,3,2,09,27,38,273,44,46,37,214,47,24,32,081,44,08,20,310,34,1*67
$GPGSV,3,3,09,15,16,049,39,1*59
$GPGSV,2,1,07,23,64,036,29,10,59,306,37,18,47,132,47,32,44,215,45,8*67
$GPGSV,2,2,07,27,38,273,44,24,32,081,44,08,20,310,28,8*5E
$GLGSV,3,1,09,81,76,187,44,66,65,008,41,82,48,324,40,67,47,252,45,1*7A
$GLGSV,3,2,09,88,22,157,46,65,18,043,38,83,06,330,19,75,06,051,33,1*72
$GLGSV,3,3,09,68,02,234,40,1*4C
$GAGSV,2,1,07,13,71,125,43,07,61,204,44,08,59,055,41,26,51,315,31,7*70
$GAGSV,2,2,07,15,17,131,41,03,10,044,32,33,04,313,31,7*44
$GAGSV,2,1,07,13,71,125,41,07,61,204,44,08,59,055,33,26,51,315,17,1*75
$GAGSV,2,2,07,15,17,131,43,03,10,044,35,33,04,313,17,1*43
$GBGSV,3,1,12,33,66,031,42,28,63,221,47,41,53,262,45,27,42,303,42,1*7F
$GBGSV,3,2,12,14,40,051,42,43,16,163,48,42,15,058,43,24,09,098,36,1*7C
$GBGSV,3,3,12,26,06,052,32,40,02,339,,32,02,246,,31,,,19,1*47
$GBGSV,2,1,08,33,66,031,30,28,63,221,42,41,53,262,38,27,42,303,40,5*79
$GBGSV,2,2,08,43,16,163,44,42,15,058,39,24,09,098,40,26,06,052,33,5*74
$GNGGA,035902.000,4005.098734,N,10513.208592,W,2,50,0.55,1584.190,M,-20.670,M,,*77
$GPGSV,3,1,09,23,64,036,40,10,59,306,46,18,47,132,43,32,44,215,51,1*69
$GPGSV,3,2,09,27,38,273,44,46,37,214,47,24,32,081,44,08,20,310,34,1*67
$GPGSV,3,3,09,15,16,049,39,1*59
$GPGSV,2,1,07,23,64,036,29,10,59,306,37,18,47,132,47,32,44,215,45,8*67
$GPGSV,2,2,07,27,38,273,44,24,32,081,44,08,20,310,28,8*5E
$GLGSV,3,1,09,81,76,187,44,66,65,008,41,82,48,324,40,67,47,252,45,1*7A
$GLGSV,3,2,09,88,22,157,46,65,18,043,38,83,06,330,20,75,06,051,33,1*78
$GLGSV,3,3,09,68,02,234,41,1*4D
$GAGSV,2,1,07,13,71,125,43,07,61,204,44,08,59,055,41,26,51,315,31,7*70
$GAGSV,2,2,07,15,17,131,41,03,10,044,32,33,04,313,29,7*4D
$GAGSV,2,1,06,13,71,125,41,07,61,204,44,08,59,055,34,15,17,131,43,1*74
$GAGSV,2,2,06,03,10,044,35,33,04,313,17,1*74
$GBGSV,3,1,12,33,66,031,42,28,63,221,47,41,53,262,45,27,42,303,42,1*7F
$GBGSV,3,2,12,14,40,051,42,43,16,163,48,42,15,058,43,24,09,098,37,1*7D
$GBGSV,3,3,12,26,06,052,31,40,02,339,,32,02,246,,31,,,19,1*44
$GBGSV,2,1,08,33,66,031,30,28,63,221,41,41,53,262,38,27,42,303,40,5*7A
$GBGSV,2,2,08,43,16,163,44,42,15,058,39,24,09,098,40,26,06,052,32,5*75
$GNGGA,035907.000,4005.098710,N,10513.208574,W,2,50,0.55,1584.147,M,-20.669,M,,*7E
$GPGSV,3,1,09,23,64,036,40,10,59,306,46,18,47,132,43,32,44,215,51,1*69
$GPGSV,3,2,09,27,38,273,44,46,37,214,47,24,32,081,44,08,20,310,34,1*67
$GPGSV,3,3,09,15,16,049,39,1*59
$GPGSV,2,1,07,23,64,036,29,10,59,306,37,18,47,132,47,32,44,215,45,8*67
$GPGSV,2,2,07,27,38,273,44,24,32,081,44,08,20,310,28,8*5E
$GLGSV,3,1,09,81,76,187,44,66,65,008,41,82,48,324,38,67,47,252,45,1*75
$GLGSV,3,2,09,88,22,157,46,65,18,043,38,83,06,330,20,75,06,051,34,1*7F
$GLGSV,3,3,09,68,02,234,42,1*4E
$GAGSV,2,1,07,13,71,125,43,07,61,204,44,08,59,055,41,26,51,315,31,7*70
$GAGSV,2,2,07,15,17,131,41,03,09,044,32,33,04,313,29,7*45
$GAGSV,2,1,06,13,71,125,41,07,61,204,44,08,59,055,34,15,17,131,43,1*74
$GAGSV,2,2,06,03,09,044,35,33,04,313,17,1*7C
$GBGSV,3,1,11,33,66,031,42,28,63,221,47,41,53,262,45,27,42,303,42,1*7C
$GBGSV,3,2,11,14,40,051,42,43,16,163,48,42,15,058,43,24,09,098,39,1*70
$GBGSV,3,3,11,26,06,052,31,40,02,339,,31,,,19,1*74
$GBGSV,2,1,08,33,66,031,30,28,63,221,41,41,53,262,38,27,42,303,40,5*7A
$GBGSV,2,2,08,43,16,163,44,42,15,058,40,24,09,098,40,26,06,052,32,5*7B
$GNGGA,035912.000,4005.098686,N,10513.208586,W,2,50,0.55,1584.151,M,-20.670,M,,*76
$GPGSV,3,1,09,23,64,036,40,10,59,306,46,18,47,132,43,32,44,215,51,1*69
$GPGSV,3,2,09,27,38,273,44,46,37,214,47,24,32,081,44,08,20,310,34,1*67
$GPGSV,3,3,09,15,16,049,39,1*59
$GPGSV,2,1,07,23,64,036,29,10,59,306,37,18,47,132,47,32,44,215,45,8*67
$GPGSV,2,2,07,27,38,273,44,24,32,081,44,08,20,310,26,8*50
$GLGSV,3,1,09,81,76,187,43,66,65,008,41,82,48,324,38,67,47,252,46,1*71
$GLGSV,3,2,09,88,22,157,46,65,18,043,38,83,06,330,22,75,06,051,35,1*7C
$GLGSV,3,3,09,68,02,234,44,1*48
$GAGSV,2,1,07,13,71,125,43,07,62,205,44,08,58,054,41,26,51,315,31,7*72
$GAGSV,2,2,07,15,17,131,41,03,09,044,32,33,04,313,29,7*45
$GAGSV,2,1,06,13,71,125,41,07,62,205,44,08,58,054,34,15,17,131,43,1*76
$GAGSV,2,2,06,03,09,044,35,33,04,313,17,1*7C
$GBGSV,3,1,12,33,66,031,42,28,63,221,47,41,53,262,45,27,42,303,42,1*7F
$GBGSV,3,2,12,14,40,051,42,43,16,163,48,42,15,058,43,24,09,098,39,1*73
$GBGSV,3,3,12,26,06,052,30,40,02,339,,32,02,246,,31,,,19,1*45
$GBGSV,2,1,08,33,66,031,30,28,63,221,41,41,53,262,38,27,42,303,40,5*7A
$GBGSV,2,2,08,43,16,163,44,42,15,058,40,24,09,098,40,26,06,052,32,5*7B
$GNGGA,035917.000,4005.098668,N,10513.208640,W,2,50,0.55,1584.008,M,-20.670,M,,*77
$GPGSV,3,1,09,23,64,036,40,10,59,306,46,18,47,132,44,32,44,215,51,1*6E
$GPGSV,3,2,09,27,38,273,44,46,37,214,47,24,32,081,44,08,20,310,31,1*62
$GPGSV,3,3,09,15,16,049,39,1*59
$GPGSV,2,1,07,23,64,036,29,10,59,306,37,18,47,132,47,32,44,215,45,8*67
$GPGSV,2,2,07,27,38,273,44,24,32,081,44,08,20,310,25,8*53
$GLGSV,3,1,09,81,76,187,43,66,65,008,41,82,48,324,38,67,47,252,45,1*72
$GLGSV,3,2,09,88,22,157,47,65,18,043,38,83,06,330,22,75,06,051,34,1*7C
$GLGSV,3,3,09,68,02,234,46,1*4A
$GAGSV,2,1,07,13,70,127,43,07,62,205,44,08,58,054,41,26,51,315,31,7*71
$GAGSV,2,2,07,15,17,131,41,03,09,044,32,33,04,313,29,7*45
$GAGSV,2,1,06,13,70,127,41,07,62,205,44,08,58,054,34,15,17,131,42,1*74
$GAGSV,2,2,06,03,09,044,34,33,04,313,19,1*73
$GBGSV,3,1,12,33,66,031,42,28,63,221,47,41,53,262,45,27,42,303,41,1*7C
$GBGSV,3,2,12,14,40,051,42,43,16,163,48,42,15,058,43,24,09,098,39,1*73
$GBGSV,3,3,12,26,06,052,31,40,02,339,,32,02,246,20,31,,,20,1*4C
$GBGSV,2,1,08,33,66,031,29,28,63,221,41,41,53,262,38,27,42,303,40,5*72
$GBGSV,2,2,08,43,16,163,44,42,15,058,40,24,09,098,40,26,06,052,33,5*7A
$GNGGA,035922.000,4005.098662,N,10513.208730,W,2,50,0.55,1583.832,M,-20.670,M,,*7B
$GPGSV,3,1,09,23,64,036,40,10,59,306,46,18,47,132,44,32,44,215,51,1*6E
$GPGSV,3,2,09,27,38,273,44,46,37,214,47,24,32,081,44,08,20,310,28,1*6A
$GPGSV,3,3,09,15,16,049,39,1*59
$GPGSV,2,1,07,23,64,036,29,10,59,306,37,18,47,132,47,32,44,215,45,8*67
$GPGSV,2,2,07,27,38,273,44,24,32,081,44,08,20,310,23,8*55
$GLGSV,3,1,09,81,76,187,43,66,65,008,41,82,48,324,39,67,47,252,45,1*73
$GLGSV,3,2,09,88,22,157,47,65,18,043,37,83,06,330,22,75,06,051,33,1*74
$GLGSV,3,3,09,68,02,234,47,1*4B
$GAGSV,2,1,07,13,70,127,43,07,62,205,44,08,58,054,41,26,51,315,33,7*73
$GAGSV,2,2,07,15,17,132,41,03,09,044,33,33,04,313,29,7*47
$GAGSV,2,1,06,13,70,127,41,07,62,205,44,08,58,054,34,15,17,132,42,1*77
$GAGSV,2,2,06,03,09,044,34,33,04,313,19,1*73
$GBGSV,3,1,12,33,66,031,42,28,63,221,47,41,53,262,45,27,42,303,41,1*7C
$GBGSV,3,2,12,14,40,051,41,43,16,163,48,42,15,058,43,24,09,098,38,1*71
$GBGSV,3,3,12,26,06,052,33,40,02,339,,32,02,246,19,31,,,20,1*44
$GBGSV,2,1,08,33,66,031,29,28,63,221,41,41,53,262,38,27,42,303,40,5*72
$GBGSV,2,2,08,43,16,163,44,42,15,058,40,24,09,098,40,26,06,052,33,5*7A
$GNGGA,035927.000,4005.098686,N,10513.208820,W,2,50,0.55,1583.696,M,-20.670,M,,*7A
$GPGSV,3,1,09,23,64,036,40,10,59,306,46,18,47,132,44,32,44,215,51,1*6E
$GPGSV,3,2,09,27,38,273,44,46,37,214,47,24,32,081,44,08,20,310,27,1*65
$GPGSV,3,3,09,15,16,049,38,1*58
$GPGSV,2,1,07,23,64,036,30,10,59,306,37,18,47,132,48,32,44,215,45,8*60
$GPGSV,2,2,07,27,38,273,44,24,32,081,44,08,20,310,22,8*54
$GLGSV,3,1,09,81,76,187,43,66,65,008,41,82,48,324,40,67,47,252,44,1*7C
$GLGSV,3,2,09,88,22,157,47,65,18,043,37,83,06,330,22,75,06,051,32,1*75
$GLGSV,3,3,09,68,02,234,48,1*44
$GAGSV,2,1,07,13,70,127,43,07,62,205,44,08,58,054,41,26,51,315,33,7*73
$GAGSV,2,2,07,15,17,132,40,03,09,044,33,33,04,313,29,7*46
$GAGSV,2,1,06,13,70,127,41,07,62,205,45,08,58,054,34,15,17,132,43,1*77
$GAGSV,2,2,06,03,09,044,34,33,04,313,20,1*79
$GBGSV,3,1,12,33,66,031,42,28,63,221,47,41,53,262,45,27,42,303,41,1*7C
$GBGSV,3,2,12,14,40,051,41,43,16,163,48,42,15,058,43,24,09,098,37,1*7E
$GBGSV,3,3,12,26,06,052,33,40,02,339,,32,02,246,22,31,,,20,1*4C
$GBGSV,2,1,08,33,66,031,29,28,63,221,42,41,53,262,39,27,42,303,41,5*71
$GBGSV,2,2,08,43,16,163,44,42,15,058,40,24,09,098,41,26,06,052,34,5*7C
$GNGGA,035932.000,4005.098656,N,10513.208790,W,2,50,0.55,1583.656,M,-20.670,M,,*7B
$GPGSV,3,1,09,23,64,036,40,10,59,306,46,18,47,132,44,32,44,215,51,1*6E
$GPGSV,3,2,09,27,38,273,44,46,37,214,47,24,32,081,44,08,20,310,30,1*63
$GPGSV,3,3,09,15,16,049,38,1*58
$GPGSV,2,1,07,23,64,036,29,10,59,306,37,18,47,132,48,32,44,215,45,8*68
$GPGSV,2,2,07,27,38,273,44,24,32,081,44,08,20,310,21,8*57
$GLGSV,3,1,09,81,76,187,43,66,65,008,41,82,48,324,40,67,47,252,44,1*7C
$GLGSV,3,2,09,88,22,157,47,65,18,043,37,83,06,330,22,75,06,051,34,1*73
$GLGSV,3,3,09,68,02,234,49,1*45
$GAGSV,2,1,07,13,70,127,43,07,62,205,44,08,58,054,41,26,52,315,34,7*77
$GAGSV,2,2,07,15,17,132,40,03,09,044,33,33,04,313,30,7*4E
$GAGSV,2,1,06,13,70,127,41,07,62,205,45,08,58,054,34,15,17,132,42,1*76
$GAGSV,2,2,06,03,09,044,33,33,04,313,21,1*7F
$GBGSV,3,1,12,33,66,031,42,28,63,221,47,41,53,262,45,27,42,303,41,1*7C
$GBGSV,3,2,12,14,40,051,40,43,16,163,49,42,15,058,43,24,09,098,37,1*7E
$GBGSV,3,3,12,26,06,052,32,40,02,339,,32,02,246,13,31,,,20,1*4F
$GBGSV,2,1,08,33,66,031,28,28,63,221,42,41,53,262,39,27,42,303,41,5*70
$GBGSV,2,2,08,43,16,163,43,42,15,058,40,24,09,098,41,26,06,052,34,5*7B
$GNGGA,035937.000,4005.098644,N,10513.208688,W,2,52,0.52,1583.581,M,-20.670,M,,*79
$GPGSV,3,1,09,23,64,036,40,10,59,306,46,18,47,132,44,32,44,215,51,1*6E
$GPGSV,3,2,09,27,38,273,44,46,37,214,47,24,32,081,44,08,20,310,31,1*62
$GPGSV,3,3,09,15,16,049,38,1*58
$GPGSV,2,1,07,23,64,036,29,10,59,306,37,18,47,132,48,32,44,215,45,8*68
$GPGSV,2,2,07,27,38,273,44,24,32,081,44,08,20,310,22,8*54
$GLGSV,3,1,09,81,76,187,43,66,65,008,40,82,48,324,40,67,47,252,45,1*7C
$GLGSV,3,2,09,88,22,157,47,65,18,043,37,83,06,330,23,75,06,051,34,1*72
$GLGSV,3,3,09,68,02,234,51,1*4C
$GAGSV,2,1,07,13,70,127,43,07,62,205,44,08,58,054,41,26,52,315,35,7*76
$GAGSV,2,2,07,15,17,132,40,03,09,044,33,33,05,314,32,7*4A
$GAGSV,2,1,06,13,70,127,41,07,62,205,45,08,58,054,34,15,17,132,42,1*76
$GAGSV,2,2,06,03,09,044,33,33,05,314,23,1*7B
$GBGSV,3,1,12,33,66,031,42,28,63,221,47,41,53,262,45,27,42,303,41,1*7C
$GBGSV,3,2,12,14,40,051,40,43,16,163,49,42,15,058,43,24,09,098,37,1*7E
$GBGSV,3,3,12,26,06,052,33,40,02,339,,32,02,246,21,31,,,20,1*4F
$GBGSV,2,1,08,33,66,031,28,28,63,221,42,41,53,262,39,27,42,303,41,5*70
$GBGSV,2,2,08,43,16,163,43,42,15,058,39,24,09,098,41,26,06,052,34,5*75
$GNGGA,035942.000,4005.098608,N,10513.208592,W,2,52,0.52,1583.491,M,-20.670,M,,*7B
$GPGSV,3,1,09,23,64,036,40,10,59,306,46,18,47,132,45,32,44,215,51,1*6F
$GPGSV,3,2,09,27,38,273,44,46,37,214,47,24,32,081,44,08,20,310,31,1*62
$GPGSV,3,3,09,15,16,049,38,1*58
$GPGSV,2,1,07,23,64,036,29,10,59,306,37,18,47,132,48,32,44,215,45,8*68
$GPGSV,2,2,07,27,38,273,44,24,32,081,44,08,20,310,24,8*52
$GLGSV,3,1,09,81,76,187,43,66,63,010,40,82,48,324,40,67,48,254,45,1*7A
$GLGSV,3,2,09,88,22,157,47,65,17,044,37,83,06,330,24,75,06,051,35,1*7C
$GLGSV,3,3,09,68,02,234,51,1*4C
$GAGSV,2,1,07,13,70,127,43,07,62,205,44,08,58,054,41,26,52,315,35,7*76
$GAGSV,2,2,07,15,17,132,40,03,09,044,34,33,05,314,32,7*4D
$GAGSV,2,1,06,13,70,127,41,07,62,205,45,08,58,054,34,15,17,132,42,1*76
$GAGSV,2,2,06,03,09,044,33,33,05,314,23,1*7B
$GBGSV,3,1,12,33,66,031,42,28,63,221,47,41,53,262,45,27,42,303,41,1*7C
$GBGSV,3,2,12,14,40,051,40,43,16,163,49,42,15,058,43,24,09,098,39,1*70
$GBGSV,3,3,12,26,06,052,33,40,02,339,,32,02,246,23,31,,,20,1*4D
$GBGSV,2,1,08,33,66,031,28,28,63,221,42,41,53,262,39,27,42,303,41,5*70
$GBGSV,2,2,08,43,16,163,43,42,15,058,39,24,09,098,41,26,06,052,34,5*75
$GNGGA,035947.000,4005.098566,N,10513.208520,W,2,53,0.52,1583.495,M,-20.670,M,,*79
$GPGSV,3,1,09,23,64,036,40,10,59,306,46,18,47,132,45,32,44,215,51,1*6F
$GPGSV,3,2,09,27,38,273,44,46,37,214,47,24,32,081,44,08,20,310,32,1*61
$GPGSV,3,3,09,15,16,049,38,1*58
$GPGSV,2,1,07,23,64,036,27,10,59,306,37,18,47,132,48,32,44,215,45,8*66
$GPGSV,2,2,07,27,38,273,44,24,32,081,44,08,20,310,25,8*53
$GLGSV,3,1,09,81,76,187,42,66,63,010,41,82,48,324,39,67,48,254,45,1*74
$GLGSV,3,2,09,88,22,157,47,65,17,044,37,83,06,330,24,75,06,051,36,1*7F
$GLGSV,3,3,09,68,03,235,51,1*4C
$GAGSV,2,1,07,13,70,127,43,07,62,205,44,08,58,054,41,26,52,315,35,7*76
$GAGSV,2,2,07,15,17,132,40,03,09,044,34,33,05,314,31,7*4E
$GAGSV,2,1,07,13,70,127,41,07,62,205,45,08,58,054,33,26,52,315,23,1*71
$GAGSV,2,2,07,15,17,132,41,03,09,044,32,33,05,314,24,1*4B
$GBGSV,3,1,12,33,66,031,42,28,63,221,47,41,53,262,45,27,42,303,39,1*73
$GBGSV,3,2,12,14,40,051,40,43,16,163,49,42,15,058,43,24,09,098,39,1*70
$GBGSV,3,3,12,26,06,052,33,40,02,339,,32,02,246,19,31,,,20,1*44
$GBGSV,2,1,08,33,66,031,27,28,63,221,41,41,53,262,39,27,42,303,40,5*7D
$GBGSV,2,2,08,43,16,163,42,42,15,058,38,24,09,098,40,26,06,052,34,5*74
$GNGGA,035952.000,4005.098542,N,10513.208466,W,2,53,0.52,1583.569,M,-20.670,M,,*7A
$GPGSV,3,1,09,23,64,036,40,10,59,306,46,18,47,132,45,32,44,215,51,1*6F
$GPGSV,3,2,09,27,38,273,44,46,37,214,47,24,32,081,44,08,20,310,32,1*61
$GPGSV,3,3,09,15,16,049,38,1*58
$GPGSV,2,1,07,23,64,036,28,10,59,306,37,18,47,132,48,32,44,215,45,8*69
$GPGSV,2,2,07,27,38,273,44,24,32,081,44,08,20,310,27,8*51
$GLGSV,3,1,11,81,76,187,42,66,63,010,41,82,48,324,39,67,48,254,45,1*7D
$GLGSV,3,2,11,88,22,157,47,65,17,044,37,75,07,049,36,83,06,330,25,1*7F
$GLGSV,3,3,11,74,06,050,,68,03,235,,73,01,010,,1*45
$GAGSV,2,1,07,13,70,127,43,07,62,205,44,08,58,054,41,26,52,315,35,7*76
$GAGSV,2,2,07,15,17,132,40,03,09,044,34,33,05,314,31,7*4E
$GAGSV,2,1,07,13,70,127,41,07,62,205,45,08,58,054,34,26,52,315,24,1*71
$GAGSV,2,2,07,15,17,132,41,03,09,044,32,33,05,314,26,1*49
$GBGSV,3,1,12,33,66,031,42,28,63,221,47,41,53,262,45,27,42,303,38,1*72
$GBGSV,3,2,12,14,40,051,40,43,16,163,49,42,15,058,43,24,09,098,40,1*7E
$GBGSV,3,3,12,26,06,052,31,40,02,339,,32,02,246,18,31,,,21,1*46
$GBGSV,2,1,08,33,66,031,28,28,63,221,41,41,53,262,39,27,42,303,40,5*72
$GBGSV,2,2,08,43,16,163,42,42,15,058,37,24,09,098,40,26,06,052,34,5*7B
$GNGGA,035957.000,4005.098554,N,10513.208430,W,2,52,0.52,1583.618,M,-20.670,M,,*7F
$GPGSV,3,1,09,23,64,036,39,10,59,306,46,18,47,132,45,32,44,215,51,1*61
$GPGSV,3,2,09,27,38,273,44,46,37,214,47,24,32,081,44,08,20,310,31,1*62
$GPGSV,3,3,09,15,16,049,38,1*58
$GPGSV,2,1,07,23,64,036,27,10,59,306,37,18,47,132,48,32,44,215,45,8*66
$GPGSV,2,2,07,27,38,273,44,24,32,081,44,08,20,310,28,8*5E
$GLGSV,3,1,11,81,74,186,42,66,63,010,40,82,49,323,39,67,48,254,45,1*79
$GLGSV,3,2,11,88,22,157,47,65,17,044,37,75,07,049,36,83,06,330,25,1*7F
$GLGSV,3,3,11,74,06,050,,68,03,235,,73,01,010,,1*45
$GAGSV,2,1,07,13,70,127,43,07,62,205,44,08,58,054,41,26,52,315,35,7*76
$GAGSV,2,2,07,15,17,132,40,03,09,044,35,33,05,314,30,7*4E
$GAGSV,2,1,07,13,70,127,41,07,62,205,45,08,58,054,34,26,52,315,24,1*71
$GAGSV,2,2,07,15,17,132,41,03,09,044,33,33,05,314,27,1*49
$GBGSV,3,1,12,33,66,031,41,28,63,221,47,41,53,262,45,27,42,303,38,1*71
$GBGSV,3,2,12,14,40,051,40,43,16,163,49,42,15,058,43,24,09,098,39,1*70
$GBGSV,3,3,12,26,06,052,31,40,02,339,,32,02,246,22,31,,,21,1*4F
$GBGSV,2,1,08,33,66,031,27,28,63,221,41,41,53,262,39,27,42,303,40,5*7D
$GBGSV,2,2,08,43,16,163,42,42,15,058,37,24,09,098,40,26,06,052,34,5*7B
$GNGGA,040002.000,4005.098548,N,10513.208406,W,2,52,0.52,1583.671,M,-20.670,M,,*73
$GPGSV,3,1,09,23,64,036,39,10,59,306,46,18,47,132,46,32,44,215,51,1*62
$GPGSV,3,2,09,27,38,273,44,46,37,214,46,24,32,081,43,08,20,310,30,1*65
$GPGSV,3,3,09,15,16,049,38,1*58
$GPGSV,2,1,07,23,64,036,27,10,59,306,37,18,47,132,48,32,44,215,45,8*66
$GPGSV,2,2,07,27,38,273,44,24,32,081,44,08,20,310,26,8*50
$GLGSV,3,1,11,81,74,186,42,66,63,010,40,82,49,323,39,67,48,254,45,1*79
$GLGSV,3,2,11,88,22,157,47,65,17,044,37,83,07,330,25,75,07,049,34,1*7C
$GLGSV,3,3,11,74,06,050,,68,03,235,,73,01,010,,1*45
$GAGSV,2,1,07,13,70,127,43,07,62,205,44,08,58,054,41,26,52,315,33,7*70
$GAGSV,2,2,07,15,17,132,40,03,09,044,35,33,05,314,30,7*4E
$GAGSV,2,1,07,13,70,127,41,07,62,205,45,08,58,054,33,26,52,315,24,1*76
$GAGSV,2,2,07,15,17,132,41,03,09,044,33,33,05,314,28,1*46
$GBGSV,3,1,12,33,66,031,41,28,63,221,47,41,53,262,45,27,42,303,38,1*71
$GBGSV,3,2,12,14,40,051,40,43,16,163,49,42,15,058,43,24,09,098,39,1*70
$GBGSV,3,3,12,26,06,052,30,40,02,339,,32,02,246,22,31,,,21,1*4E
$GBGSV,2,1,08,33,66,031,27,28,63,221,41,41,53,262,39,27,42,303,40,5*7D
$GBGSV,2,2,08,43,16,163,42,42,15,058,37,24,09,098,40,26,06,052,34,5*7B
$GNGGA,040007.000,4005.098518,N,10513.208394,W,2,53,0.52,1583.703,M,-20.670,M,,*7A
$GPGSV,3,1,09,23,64,036,39,10,59,306,46,18,47,132,46,32,44,215,50,1*63
$GPGSV,3,2,09,27,38,273,44,46,37,214,46,24,32,081,43,08,20,310,28,1*6C
$GPGSV,3,3,09,15,16,049,38,1*58
$GPGSV,2,1,07,23,64,036,27,10,59,306,37,18,47,132,48,32,44,215,45,8*66
$GPGSV,2,2,07,27,38,273,44,24,32,081,44,08,20,310,23,8*55
$GLGSV,3,1,11,81,74,186,42,66,63,010,40,82,49,323,39,67,48,254,44,1*78
$GLGSV,3,2,11,88,20,157,47,65,17,044,36,83,07,330,25,75,07,049,33,1*78
$GLGSV,3,3,11,74,06,050,,68,03,235,,73,01,010,,1*45
$GAGSV,2,1,07,13,70,127,43,07,62,205,44,08,58,054,41,26,52,315,33,7*70
$GAGSV,2,2,07,15,17,132,40,03,09,044,35,33,05,314,30,7*4E
$GAGSV,2,1,07,13,70,127,41,07,62,205,45,08,58,054,33,26,52,315,24,1*76
$GAGSV,2,2,07,15,17,132,41,03,09,044,33,33,05,314,29,1*47
$GBGSV,3,1,12,33,66,031,41,28,63,221,47,41,53,262,45,27,42,303,40,1*7E
$GBGSV,3,2,12,14,40,051,39,43,16,163,50,42,15,058,44,24,09,098,39,1*71
$GBGSV,3,3,12,26,06,052,30,40,02,339,,32,02,246,18,31,,,20,1*46
$GBGSV,2,1,08,33,66,031,27,28,63,221,41,41,53,262,39,27,42,303,40,5*7D
$GBGSV,2,2,08,43,16,163,42,42,15,058,37,24,09,098,40,26,06,052,34,5*7B
$GNGGA,040012.000,4005.098512,N,10513.208382,W,2,52,0.52,1583.618,M,-20.670,M,,*79
$GPGSV,3,1,09,23,64,036,39,10,59,306,46,18,47,132,46,32,44,215,50,1*63
$GPGSV,3,2,09,27,38,273,44,46,37,214,46,24,32,081,43,08,20,310,24,1*60
$GPGSV,3,3,09,15,16,049,38,1*58
$GPGSV,2,1,07,23,64,036,27,10,59,306,37,18,47,132,48,32,44,215,44,8*67
$GPGSV,2,2,07,27,38,273,44,24,32,081,44,08,20,310,21,8*57
$GLGSV,3,1,11,81,74,186,43,66,63,010,40,82,49,323,39,67,48,254,44,1*79
$GLGSV,3,2,11,88,20,157,47,65,17,044,35,83,07,330,25,75,07,049,32,1*7A
$GLGSV,3,3,11,74,06,050,,68,03,235,,73,01,010,,1*45
$GAGSV,2,1,07,13,70,127,43,07,62,205,44,08,58,054,41,26,52,315,33,7*70
$GAGSV,2,2,07,15,17,132,40,03,09,044,35,33,05,314,29,7*46
$GAGSV,2,1,07,13,70,127,41,07,62,205,45,08,58,054,33,26,52,315,24,1*76
$GAGSV,2,2,07,15,17,132,41,03,09,044,33,33,05,314,30,1*4F
$GBGSV,3,1,12,33,66,031,41,28,63,221,47,41,53,262,45,27,42,303,40,1*7E
$GBGSV,3,2,12,14,40,051,39,43,16,163,50,42,15,058,44,24,09,098,39,1*71
$GBGSV,3,3,12,26,06,052,31,40,02,339,,32,02,246,19,31,,,21,1*47
$GBGSV,2,1,08,33,66,031,27,28,63,221,41,41,53,262,39,27,42,303,40,5*7D
$GBGSV,2,2,08,43,16,163,41,42,15,058,37,24,09,098,40,26,06,052,33,5*7F
$GNGGA,040017.000,4005.098470,N,10513.208382,W,2,52,0.52,1583.418,M,-20.670,M,,*7B
$GPGSV,3,1,09,23,64,036,39,10,59,306,45,18,47,132,46,32,44,215,50,1*60
$GPGSV,3,2,09,27,38,273,44,46,37,214,46,24,32,081,43,08,20,310,24,1*60
$GPGSV,3,3,09,15,16,049,39,1*59
$GPGSV,2,1,07,23,64,036,28,10,59,306,37,18,47,132,48,32,44,215,44,8*68
$GPGSV,2,2,07,27,38,273,44,24,32,081,44,08,20,310,21,8*57
$GLGSV,3,1,11,81,74,186,44,66,63,010,40,82,49,323,39,67,48,254,44,1*7E
$GLGSV,3,2,11,88,20,157,46,65,17,044,35,83,07,330,25,75,07,049,34,1*7D
$GLGSV,3,3,11,74,06,050,,68,03,235,,73,01,010,,1*45
$GAGSV,2,1,07,13,70,127,43,07,62,205,44,08,58,054,41,26,52,315,33,7*70
$GAGSV,2,2,07,15,17,132,40,03,09,044,35,33,05,314,29,7*46
$GAGSV,2,1,07,13,70,127,41,07,62,205,45,08,58,054,33,26,52,315,26,1*74
$GAGSV,2,2,07,15,17,132,41,03,09,044,33,33,05,314,31,1*4E
$GBGSV,3,1,12,33,66,031,41,28,63,221,47,41,53,262,45,27,42,303,40,1*7E
$GBGSV,3,2,12,14,39,052,39,43,16,163,50,42,15,058,44,24,09,098,39,1*7C
$GBGSV,3,3,12,26,06,052,32,40,02,339,,32,02,246,26,31,,,21,1*48
$GBGSV,2,1,08,33,66,031,27,28,63,221,41,41,53,262,39,27,42,303,40,5*7D
$GBGSV,2,2,08,43,16,163,41,42,15,058,38,24,09,098,40,26,06,052,34,5*77
$GNGGA,040022.000,4005.098434,N,10513.208442,W,2,52,0.52,1583.303,M,-20.670,M,,*7B
$GPGSV,3,1,09,23,64,036,39,10,59,306,45,18,47,132,46,32,44,215,50,1*60
$GPGSV,3,2,09,27,38,273,44,46,37,214,46,24,32,081,43,08,20,310,27,1*63
$GPGSV,3,3,09,15,16,049,39,1*59
$GPGSV,2,1,07,23,64,036,28,10,59,306,37,18,47,132,48,32,44,215,44,8*68
$GPGSV,2,2,07,27,38,273,44,24,32,081,44,08,20,310,24,8*52
$GLGSV,3,1,10,81,74,186,44,66,63,010,39,82,49,323,39,67,48,254,44,1*71
$GLGSV,3,2,10,88,20,157,47,65,17,044,35,83,07,330,26,75,07,049,35,1*7F
$GLGSV,3,3,10,74,06,050,,68,03,235,,1*70
$GAGSV,2,1,07,13,70,127,43,07,62,205,44,08,58,054,41,26,52,315,33,7*70
$GAGSV,2,2,07,15,17,132,40,03,09,044,35,33,05,314,29,7*46
$GAGSV,2,1,07,13,70,127,41,07,62,205,45,08,58,054,33,26,52,315,26,1*74
$GAGSV,2,2,07,15,17,132,41,03,09,044,33,33,05,314,32,1*4D
$GBGSV,3,1,12,33,66,031,42,28,63,221,47,41,53,262,45,27,42,303,40,1*7D
$GBGSV,3,2,12,14,39,052,39,43,16,163,50,42,15,058,44,24,09,098,41,1*73
$GBGSV,3,3,12,26,06,052,32,40,02,339,,32,02,246,22,31,,,21,1*4C
$GBGSV,2,1,08,33,66,031,27,28,63,221,41,41,53,262,39,27,42,303,40,5*7D
$GBGSV,2,2,08,43,16,163,41,42,15,058,38,24,09,098,41,26,06,052,34,5*76
$GNGGA,040027.000,4005.098374,N,10513.208472,W,2,52,0.52,1583.366,M,-20.669,M,,*75
$GPGSV,3,1,09,23,64,036,38,10,59,306,45,18,47,132,46,32,44,215,50,1*61
$GPGSV,3,2,09,27,38,273,44,46,37,214,46,24,32,081,43,08,20,310,29,1*6D
$GPGSV,3,3,09,15,16,049,39,1*59
$GPGSV,2,1,07,23,64,036,28,10,59,306,37,18,47,132,48,32,44,215,44,8*68
$GPGSV,2,2,07,27,38,273,44,24,32,081,44,08,20,310,28,8*5E
$GLGSV,3,1,11,81,74,186,43,66,63,010,38,82,49,323,38,67,48,254,45,1*76
$GLGSV,3,2,11,88,20,157,47,65,17,044,35,83,07,330,26,75,07,049,36,1*7D
$GLGSV,3,3,11,74,06,050,,68,03,235,,73,01,010,,1*45
$GAGSV,2,1,07,13,70,127,43,07,62,205,44,08,58,054,41,26,52,315,34,7*77
$GAGSV,2,2,07,15,17,132,40,03,09,044,35,33,05,314,29,7*46
$GAGSV,2,1,07,13,70,127,40,07,62,205,45,08,58,054,33,26,52,315,26,1*75
$GAGSV,2,2,07,15,17,132,41,03,09,044,33,33,05,314,32,1*4D
$GBGSV,3,1,12,33,66,031,42,28,63,221,47,41,53,262,45,27,42,303,39,1*73
$GBGSV,3,2,12,14,39,052,38,43,16,163,50,42,15,058,44,24,09,097,41,1*7D
$GBGSV,3,3,12,26,06,052,33,40,02,339,,32,02,246,22,31,,,21,1*4D
$GBGSV,2,1,08,33,66,031,27,28,63,221,41,41,53,262,39,27,42,303,40,5*7D
$GBGSV,2,2,08,43,16,163,40,42,15,058,38,24,09,097,41,26,06,052,32,5*7E
$PAIR010,0,1,2308,360048*3A
$GNGGA,040032.000,4005.098332,N,10513.208484,W,2,53,0.52,1583.524,M,-20.670,M,,*73
$GPGSV,3,1,09,23,64,036,38,10,59,306,45,18,47,132,46,32,44,215,50,1*61
$GPGSV,3,2,09,27,38,273,44,46,37,214,46,24,32,081,43,08,20,310,32,1*67
$GPGSV,3,3,09,15,16,049,39,1*59
$GPGSV,2,1,07,23,64,036,27,10,59,306,37,18,47,132,48,32,44,215,44,8*67
$GPGSV,2,2,07,27,38,273,44,24,32,081,44,08,20,310,30,8*57
$GLGSV,3,1,11,81,74,186,43,66,63,010,39,82,49,323,38,67,48,254,45,1*77
$GLGSV,3,2,11,88,20,157,47,65,17,044,35,83,07,330,26,75,07,049,35,1*7E
$GLGSV,3,3,11,74,06,050,,68,03,235,,73,01,010,,1*45
$GAGSV,2,1,07,13,70,127,43,07,62,205,44,08,58,054,41,26,52,315,34,7*77
$GAGSV,2,2,07,15,17,132,40,03,09,044,35,33,05,314,29,7*46
$GAGSV,2,1,07,13,70,127,40,07,62,205,45,08,58,054,32,26,52,315,27,1*75
$GAGSV,2,2,07,15,17,132,41,03,09,044,34,33,05,314,32,1*4A
$GBGSV,3,1,12,33,66,031,42,28,62,219,47,41,53,262,45,27,43,302,39,1*79
$GBGSV,3,2,12,14,39,052,38,43,16,163,50,42,15,058,43,24,09,097,41,1*7A
$GBGSV,3,3,12,26,06,051,34,40,02,339,,32,02,246,18,31,,,21,1*40
$GBGSV,2,1,08,33,66,031,26,28,62,219,40,41,53,262,39,27,43,302,40,5*77
$GBGSV,2,2,08,43,16,163,40,42,15,058,38,24,09,097,41,26,06,051,32,5*7D
$GNGGA,040037.000,4005.098266,N,10513.208502,W,2,52,0.52,1583.533,M,-20.669,M,,*76
$GPGSV,3,1,09,23,64,036,37,10,59,306,45,18,47,132,46,32,44,215,50,1*6E
$GPGSV,3,2,09,27,38,273,43,46,37,214,46,24,32,081,43,08,20,310,31,1*63
$GPGSV,3,3,09,15,16,049,39,1*59
$GPGSV,2,1,07,23,64,036,28,10,59,306,37,18,47,132,49,32,44,215,44,8*69
$GPGSV,2,2,07,27,38,273,44,24,32,081,44,08,20,310,31,8*56
$GLGSV,3,1,11,81,74,186,43,66,63,010,39,82,49,323,37,67,48,254,44,1*79
$GLGSV,3,2,11,88,20,157,47,65,17,044,35,83,07,330,26,75,07,049,35,1*7E
$GLGSV,3,3,11,74,06,050,,68,03,235,,73,01,010,,1*45
$GAGSV,2,1,07,13,70,127,43,07,62,205,44,08,58,054,41,26,52,315,34,7*77
$GAGSV,2,2,07,15,17,132,40,03,09,044,35,33,05,314,28,7*47
$GAGSV,2,1,07,13,70,127,41,07,62,205,45,08,58,054,32,26,52,315,28,1*7B
$GAGSV,2,2,07,15,17,132,41,03,09,044,34,33,05,314,33,1*4B
$GBGSV,3,1,12,33,65,032,42,28,62,219,47,41,53,262,45,27,43,302,39,1*79
$GBGSV,3,2,12,14,39,052,38,43,16,163,50,42,15,058,43,24,09,097,41,1*7A
$GBGSV,3,3,12,26,06,051,34,32,03,247,22,40,02,339,,31,,,21,1*49
$GBGSV,2,1,08,33,65,032,26,28,62,219,40,41,53,262,39,27,43,302,40,5*77
$GBGSV,2,2,08,43,16,163,40,42,15,058,38,24,09,097,41,26,06,051,32,5*7D
$GNGGA,040042.000,4005.098200,N,10513.208538,W,2,54,0.50,1583.451,M,-20.670,M,,*74
$GPGSV,3,1,09,23,64,036,37,10,59,306,45,18,47,132,46,32,44,215,50,1*6E
$GPGSV,3,2,09,27,38,273,43,46,37,214,46,24,32,081,43,08,20,310,28,1*6B
$GPGSV,3,3,09,15,16,049,39,1*59
$GPGSV,2,1,07,23,64,036,28,10,59,306,37,18,47,132,49,32,44,215,44,8*69
$GPGSV,2,2,07,27,38,273,44,24,32,081,44,08,20,310,33,8*54
$GLGSV,3,1,11,81,74,186,43,66,63,010,39,82,49,323,37,67,48,254,44,1*79
$GLGSV,3,2,11,88,20,157,47,65,17,044,33,83,07,330,25,75,07,049,33,1*7D
$GLGSV,3,3,11,74,06,050,,68,03,235,,73,01,010,,1*45
$GAGSV,2,1,07,13,70,127,43,07,62,205,44,08,58,054,41,26,52,315,34,7*77
$GAGSV,2,2,07,15,17,132,40,03,09,044,35,33,05,314,28,7*47
$GAGSV,2,1,07,13,70,127,41,07,62,205,45,08,58,054,33,26,52,315,28,1*7A
$GAGSV,2,2,07,15,17,132,41,03,09,044,34,33,05,314,34,1*4C
$GBGSV,4,1,13,33,65,032,42,28,62,219,47,41,53,262,45,27,43,302,39,1*7F
$GBGSV,4,2,13,14,39,052,37,43,16,163,50,42,15,058,43,24,09,097,41,1*73
$GBGSV,4,3,13,26,06,051,34,32,03,247,26,40,02,339,,31,,,20,1*4A
$GBGSV,4,4,13,63,,,27,1*74
$GBGSV,2,1,08,33,65,032,26,28,62,219,40,41,53,262,39,27,43,302,40,5*77
$GBGSV,2,2,08,43,16,163,40,42,15,058,38,24,09,097,41,26,06,051,33,5*7C
$GNGGA,040047.000,4005.098182,N,10513.208598,W,2,54,0.50,1583.411,M,-20.670,M,,*76
$GPGSV,3,1,09,23,64,036,37,10,59,306,45,18,47,132,46,32,44,215,50,1*6E
$GPGSV,3,2,09,27,38,273,43,46,37,214,46,24,32,081,43,08,20,310,24,1*67
$GPGSV,3,3,09,15,16,049,39,1*59
$GPGSV,2,1,07,23,64,036,28,10,59,306,37,18,47,132,49,32,44,215,44,8*69
$GPGSV,2,2,07,27,38,273,44,24,32,081,44,08,20,310,33,8*54
$GLGSV,3,1,11,81,74,186,43,66,63,010,39,82,49,323,36,67,48,254,44,1*78
$GLGSV,3,2,11,88,20,157,47,65,17,044,33,83,07,330,25,75,07,049,30,1*7E
$GLGSV,3,3,11,74,06,050,,68,03,235,,73,01,010,,1*45
$GAGSV,2,1,07,13,70,127,43,07,62,205,44,08,58,054,41,26,52,315,34,7*77
$GAGSV,2,2,07,15,17,132,40,03,09,044,35,33,05,314,28,7*47
$GAGSV,2,1,07,13,70,127,41,07,62,205,45,08,58,054,33,26,52,315,29,1*7B
