$PAIR001,062,0*3F
$PAIR001,062,0*3F
$PAIR001,062,0*3F
$PAIR001,062,0*3F
$PAIR001,062,0*3F
$PAIR001,062,0*3F
$PAIR001,062,0*3F
$PAIR001,062,0*3F
$PAIR001,062,0*3F
$GNGGA,052637.000,4005.098710,N,10513.207986,W,2,54,0.44,1586.049,M,-20.669,M,,*74
$GPGSV,3,1,12,32,80,280,47,10,69,042,36,23,38,089,40,46,37,214,46,1*64
$GPGSV,3,2,12,21,30,313,35,28,27,176,46,08,19,271,43,27,17,235,44,1*68
$GPGSV,3,3,12,24,17,044,37,02,15,319,25,18,10,150,48,31,02,191,50,1*65
$GPGSV,2,1,08,32,80,280,41,10,69,042,33,23,38,089,44,28,27,176,44,8*6C
$GPGSV,2,2,08,08,19,271,24,27,17,235,44,24,17,044,35,18,10,150,47,8*69
$GLGSV,3,1,10,67,61,343,37,82,60,233,42,83,46,313,11,68,32,273,40,1*70
$GLGSV,3,2,10,65,31,048,,66,27,049,37,81,23,183,48,76,21,062,34,1*76
$GLGSV,3,3,10,77,19,110,36,75,01,011,,1*77
$GAGSV,2,1,06,07,83,002,37,26,75,256,38,13,37,158,45,33,32,316,17,7*78
$GAGSV,2,2,06,08,30,051,41,02,01,068,20,7*70
$GAGSV,2,1,05,07,83,002,37,26,75,256,36,13,37,158,40,33,32,316,24,1*76
$GAGSV,2,2,05,08,30,051,32,1*4E
$GBGSV,3,1,12,41,70,336,34,27,46,252,48,33,38,063,46,28,28,196,50,1*7D
$GBGSV,3,2,12,32,26,273,39,25,26,123,44,30,24,310,36,24,21,065,44,1*7A
$GBGSV,3,3,12,14,13,073,29,40,06,330,36,23,04,167,48,31,04,167,23,1*74
$GBGSV,3,1,09,41,70,336,37,27,46,252,40,33,38,063,42,28,28,196,40,5*7D
$GBGSV,3,2,09,32,26,273,34,25,26,123,40,24,21,065,31,40,06,330,20,5*7D
$GBGSV,3,3,09,23,04,167,48,5*42
$GNGGA,052642.000,4005.098752,N,10513.208016,W,2,53,0.45,1586.003,M,-20.670,M,,*7F
$GPGSV,3,1,12,32,80,280,47,10,69,042,37,23,38,089,40,46,37,214,46,1*65
$GPGSV,3,2,12,21,30,313,35,28,27,176,46,08,19,271,43,27,17,235,44,1*68
$GPGSV,3,3,12,24,17,044,37,02,15,319,26,18,10,150,48,31,02,191,50,1*66
$GPGSV,2,1,08,32,80,280,41,10,69,042,34,23,38,089,44,28,27,176,44,8*6B
$GPGSV,2,2,08,08,19,271,25,27,17,235,45,24,17,044,35,18,10,150,48,8*66
$GLGSV,3,1,10,67,61,343,37,82,60,233,42,83,46,313,,68,32,273,41,1*71
$GLGSV,3,2,10,65,31,048,,66,27,049,38,81,23,183,48,76,21,062,33,1*7E
$GLGSV,3,3,10,77,19,110,36,75,01,011,,1*77
$GAGSV,2,1,06,07,83,002,37,26,75,256,38,13,37,158,45,33,32,316,19,7*76
$GAGSV,2,2,06,08,30,051,41,02,01,068,20,7*70
$GAGSV,2,1,05,07,83,002,37,26,75,256,37,13,37,158,40,33,32,316,26,1*75
$GAGSV,2,2,05,08,30,051,32,1*4E
$GBGSV,3,1,12,41,70,336,35,27,46,252,48,33,38,063,46,28,28,196,50,1*7C
$GBGSV,3,2,12,32,26,273,39,25,26,123,44,30,24,310,35,24,21,065,44,1*79
$GBGSV,3,3,12,14,13,074,22,40,06,330,36,23,04,167,49,31,04,167,23,1*79
$GBGSV,3,1,09,41,70,336,37,27,46,252,40,33,38,063,42,28,28,196,40,5*7D
$GBGSV,3,2,09,32,26,273,34,25,26,123,40,24,21,065,31,40,06,330,20,5*7D
$GBGSV,3,3,09,23,04,167,48,5*42
$GNGGA,052647.000,4005.098818,N,10513.208040,W,2,52,0.45,1585.847,M,-20.670,M,,*72
$GPGSV,3,1,12,32,80,280,47,10,69,042,38,23,38,089,40,46,37,214,46,1*6A
$GPGSV,3,2,12,21,30,313,35,28,27,176,46,08,19,271,43,27,17,235,44,1*68
$GPGSV,3,3,12,24,17,044,37,02,15,319,26,18,10,150,49,31,02,191,50,1*67
$GPGSV,2,1,08,32,80,280,41,10,69,042,33,23,38,089,44,28,27,176,44,8*6C
$GPGSV,2,2,08,08,19,271,26,27,17,235,45,24,17,044,35,18,10,150,48,8*65
$GLGSV,3,1,10,67,61,343,38,82,60,233,42,83,46,313,,68,32,273,41,1*7E
$GLGSV,3,2,10,65,31,048,,66,27,049,38,81,23,183,48,76,21,062,32,1*7F
$GLGSV,3,3,10,77,19,110,36,75,01,011,,1*77
$GAGSV,2,1,06,07,83,002,37,26,75,256,38,13,37,158,45,33,32,316,21,7*7D
$GAGSV,2,2,06,08,30,051,41,02,01,068,20,7*70
$GAGSV,2,1,06,07,83,002,38,26,75,256,37,13,37,158,40,33,32,316,27,1*78
$GAGSV,2,2,06,08,30,051,32,02,01,068,24,1*76
$GBGSV,3,1,12,41,70,336,35,27,46,252,48,33,38,063,46,28,28,196,50,1*7C
$GBGSV,3,2,12,32,26,273,39,25,26,123,44,30,24,310,33,24,21,065,44,1*7F
$GBGSV,3,3,12,14,13,074,14,40,06,330,36,23,04,167,49,31,04,167,23,1*7C
$GBGSV,3,1,09,41,70,336,37,27,46,252,40,33,38,063,43,28,28,196,40,5*7C
$GBGSV,3,2,09,32,26,273,35,25,26,123,40,24,21,065,31,40,06,330,20,5*7C
$GBGSV,3,3,09,23,04,167,48,5*42
$GNGGA,052652.000,4005.098830,N,10513.208046,W,2,54,0.43,1585.662,M,-20.669,M,,*7B
$GPGSV,3,1,12,32,80,280,47,10,69,042,38,23,38,089,40,46,37,214,46,1*6A
$GPGSV,3,2,12,21,30,313,35,28,27,176,45,08,19,271,43,27,17,235,44,1*6B
$GPGSV,3,3,12,24,17,044,37,02,15,319,25,18,10,150,49,31,02,191,51,1*65
$GPGSV,2,1,08,32,80,280,41,10,69,042,33,23,38,089,44,28,27,176,44,8*6C
$GPGSV,2,2,08,08,19,271,26,27,17,235,45,24,17,044,35,18,10,150,48,8*65
$GLGSV,3,1,10,67,61,343,39,82,60,233,42,83,46,313,,68,32,273,41,1*7F
$GLGSV,3,2,10,65,31,048,,66,27,049,38,81,23,183,48,76,21,062,31,1*7C
$GLGSV,3,3,10,77,19,110,36,75,01,011,,1*77
$GAGSV,2,1,06,07,83,002,37,26,75,256,38,13,37,158,45,33,32,316,20,7*7C
$GAGSV,2,2,06,08,30,051,41,02,01,068,19,7*7A
$GAGSV,2,1,05,07,83,002,38,26,75,256,37,13,37,158,40,33,32,316,27,1*7B
$GAGSV,2,2,05,08,30,051,32,1*4E
$GBGSV,3,1,12,41,70,336,35,27,46,252,48,33,38,063,46,28,28,196,50,1*7C
$GBGSV,3,2,12,32,26,273,39,25,26,122,44,30,24,310,33,24,21,064,44,1*7F
$GBGSV,3,3,12,14,13,074,17,40,06,330,36,23,05,166,49,31,04,167,23,1*7F
$GBGSV,3,1,09,41,70,336,37,27,46,252,40,33,38,063,43,28,28,196,40,5*7C
$GBGSV,3,2,09,32,26,273,35,25,26,122,40,24,21,064,31,40,06,330,19,5*76
$GBGSV,3,3,09,23,05,166,48,5*42
$GNGGA,052657.000,4005.098776,N,10513.208058,W,2,55,0.43,1585.547,M,-20.670,M,,*71
$GPGSV,3,1,12,32,80,280,47,10,69,042,39,23,38,089,40,46,37,214,46,1*6B
$GPGSV,3,2,12,21,30,313,34,28,27,176,45,08,19,271,43,27,17,235,44,1*6A
$GPGSV,3,3,12,24,17,044,35,02,15,319,24,18,10,150,49,31,02,191,51,1*66
$GPGSV,2,1,08,32,80,280,41,10,69,042,32,23,38,089,44,28,27,176,44,8*6D
$GPGSV,2,2,08,08,19,271,27,27,17,235,45,24,17,044,36,18,10,150,48,8*67
$GLGSV,3,1,10,67,61,343,39,82,60,233,42,83,46,313,17,68,32,273,41,1*79
$GLGSV,3,2,10,65,31,048,,66,27,049,38,81,23,183,48,76,21,062,31,1*7C
$GLGSV,3,3,10,77,19,110,36,75,01,011,17,1*71
$GAGSV,2,1,06,07,83,002,37,26,75,256,38,13,37,158,45,33,32,316,20,7*7C
$GAGSV,2,2,06,08,30,051,41,02,01,068,21,7*71
$GAGSV,2,1,06,07,83,002,38,26,75,256,37,13,37,158,40,33,32,316,27,1*78
$GAGSV,2,2,06,08,30,051,31,02,01,068,29,1*78
$GBGSV,3,1,12,41,70,336,36,27,46,251,48,33,38,063,46,28,27,195,50,1*70
$GBGSV,3,2,12,32,26,273,39,25,26,122,44,30,24,309,34,24,21,064,44,1*70
$GBGSV,3,3,12,14,13,074,26,40,06,330,36,23,05,166,49,31,04,167,24,1*7A
$GBGSV,3,1,09,41,70,336,37,27,46,251,40,33,38,063,43,28,27,195,40,5*73
$GBGSV,3,2,09,32,26,273,35,25,26,122,40,24,21,064,30,40,06,330,19,5*77
$GBGSV,3,3,09,23,05,166,48,5*42
$GNGGA,052702.000,4005.098758,N,10513.208064,W,2,55,0.43,1585.417,M,-20.670,M,,*77
$GPGSV,3,1,12,32,80,280,46,10,69,042,39,23,38,089,40,46,37,214,46,1*6A
$GPGSV,3,2,12,21,30,313,34,28,27,176,45,08,19,271,43,27,17,235,44,1*6A
$GPGSV,3,3,12,24,17,044,34,02,15,319,25,18,10,150,49,31,02,191,51,1*66
$GPGSV,2,1,08,32,80,280,41,10,69,042,32,23,38,089,44,28,27,176,45,8*6C
$GPGSV,2,2,08,08,19,271,28,27,17,235,45,24,17,044,38,18,10,150,48,8*66
$GLGSV,3,1,10,67,61,343,39,82,60,233,42,83,46,313,12,68,32,273,41,1*7C
$GLGSV,3,2,10,65,31,048,,66,27,049,39,81,23,183,48,76,21,062,32,1*7E
$GLGSV,3,3,10,77,19,110,36,75,01,011,16,1*70
$GAGSV,2,1,06,07,83,002,37,26,75,256,38,13,37,158,45,33,32,316,20,7*7C
$GAGSV,2,2,06,08,30,051,41,02,01,068,20,7*70
$GAGSV,2,1,06,07,83,002,38,26,75,256,37,13,37,158,40,33,32,316,28,1*77
$GAGSV,2,2,06,08,30,051,31,02,01,068,26,1*77
$GBGSV,3,1,12,41,70,336,36,27,46,251,48,33,37,064,46,32,27,274,39,1*70
$GBGSV,3,2,12,28,27,195,50,25,26,122,44,30,24,309,36,24,21,064,44,1*7C
$GBGSV,3,3,12,14,13,074,29,40,06,330,35,23,05,166,50,31,05,166,24,1*7E
$GBGSV,3,1,09,41,70,336,37,27,46,251,40,33,37,064,43,28,27,195,40,5*7B
$GBGSV,3,2,09,32,27,274,35,25,26,122,40,24,21,064,30,40,06,330,19,5*71
$GBGSV,3,3,09,23,05,166,48,5*42
$GNGGA,052707.000,4005.098740,N,10513.208100,W,2,56,0.43,1585.467,M,-20.669,M,,*74
$GPGSV,3,1,12,32,80,280,46,10,69,042,39,23,38,089,41,46,37,214,46,1*6B
$GPGSV,3,2,12,21,30,313,36,28,27,176,44,08,19,271,43,27,17,235,44,1*69
$GPGSV,3,3,12,24,17,044,31,02,15,319,25,18,10,150,49,31,02,191,51,1*63
$GPGSV,2,1,08,32,80,280,41,10,69,042,32,23,38,089,44,28,27,176,45,8*6C
$GPGSV,2,2,08,08,19,271,28,27,17,235,45,24,17,044,39,18,10,150,49,8*66
$GLGSV,3,1,10,67,61,343,38,82,60,233,42,83,46,313,13,68,32,273,41,1*7C
$GLGSV,3,2,10,65,31,048,,66,27,049,40,81,23,183,48,76,21,062,32,1*70
$GLGSV,3,3,10,77,19,110,36,75,01,011,16,1*70
$GAGSV,2,1,06,07,83,002,37,26,75,256,38,13,37,158,45,33,32,316,19,7*76
$GAGSV,2,2,06,08,30,051,41,02,01,068,22,7*72
$GAGSV,2,1,06,07,83,002,38,26,75,256,37,13,37,158,41,33,32,316,29,1*77
$GAGSV,2,2,06,08,30,051,31,02,01,068,26,1*77
$GBGSV,3,1,12,41,70,336,36,27,46,251,48,33,37,064,46,32,27,274,39,1*70
$GBGSV,3,2,12,28,27,195,50,25,26,122,44,30,24,309,36,24,21,064,43,1*7B
$GBGSV,3,3,12,14,13,074,29,40,06,330,35,23,05,166,50,31,05,166,24,1*7E
$GBGSV,3,1,10,41,70,336,38,27,46,251,40,33,37,064,43,28,27,195,40,5*7C
$GBGSV,3,2,10,32,27,274,34,25,26,122,41,30,24,309,24,24,21,064,30,5*7A
$GBGSV,3,3,10,40,06,330,20,23,05,166,48,5*7A
$GNGGA,052712.000,4005.098686,N,10513.208052,W,2,55,0.43,1585.535,M,-20.669,M,,*78
$GPGSV,3,1,12,32,80,280,46,10,69,042,39,23,38,089,41,46,37,214,46,1*6B
$GPGSV,3,2,12,21,30,313,37,28,27,176,44,08,19,271,43,27,17,235,44,1*68
$GPGSV,3,3,12,24,17,044,31,02,15,319,25,18,10,150,49,31,02,191,51,1*63
$GPGSV,2,1,08,32,80,280,41,10,69,042,32,23,38,089,45,28,27,176,46,8*6E
$GPGSV,2,2,08,08,19,271,28,27,17,235,45,24,17,044,40,18,10,150,49,8*68
$GLGSV,3,1,10,67,61,343,39,82,60,233,42,83,46,313,,68,32,273,41,1*7F
$GLGSV,3,2,10,65,31,048,,66,27,049,40,81,23,183,48,76,21,062,30,1*72
$GLGSV,3,3,10,77,19,110,36,75,01,011,14,1*72
$GAGSV,2,1,06,07,83,002,37,26,75,256,38,13,37,158,45,33,32,316,19,7*76
$GAGSV,2,2,06,08,30,051,41,02,01,068,21,7*71
$GAGSV,2,1,06,07,83,002,38,26,75,256,37,13,37,158,41,33,32,316,29,1*77
$GAGSV,2,2,06,08,30,051,30,02,01,068,25,1*75
$GBGSV,3,1,12,41,70,340,36,27,46,251,48,33,37,064,46,32,27,274,39,1*71
$GBGSV,3,2,12,28,27,195,50,25,26,122,44,30,24,309,36,24,21,064,43,1*7B
$GBGSV,3,3,12,14,13,074,29,40,06,330,35,23,05,166,50,31,05,166,24,1*7E
$GBGSV,3,1,10,41,70,340,38,27,46,251,40,33,37,064,43,28,27,195,40,5*7D
$GBGSV,3,2,10,32,27,274,35,25,26,122,41,30,24,309,25,24,21,064,31,5*7B
$GBGSV,3,3,10,40,06,330,20,23,05,166,48,5*7A
$GNGGA,052717.000,4005.098680,N,10513.208004,W,2,55,0.43,1585.367,M,-20.670,M,,*71
$GPGSV,3,1,12,32,80,280,46,10,69,042,38,23,38,089,41,46,37,214,46,1*6A
$GPGSV,3,2,12,21,30,313,37,28,27,176,44,08,19,271,43,27,17,235,43,1*6F
$GPGSV,3,3,12,24,17,044,32,02,15,319,26,18,10,150,49,31,02,191,51,1*63
$GPGSV,2,1,08,32,80,280,40,10,69,042,32,23,38,089,44,28,27,176,45,8*6D
$GPGSV,2,2,08,08,19,271,28,27,17,235,44,24,17,044,39,18,10,150,48,8*66
$GLGSV,3,1,10,67,61,343,40,82,60,233,42,83,46,313,,68,32,273,41,1*71
$GLGSV,3,2,10,65,31,048,,66,27,049,39,81,23,183,48,76,21,062,30,1*7C
$GLGSV,3,3,10,77,19,110,35,75,01,011,17,1*72
$GAGSV,2,1,06,07,83,002,37,26,75,256,38,13,37,158,45,33,32,316,18,7*77
$GAGSV,2,2,06,08,30,051,41,02,01,068,22,7*72
$GAGSV,2,1,06,07,83,002,37,26,75,256,37,13,37,158,40,33,32,316,28,1*78
$GAGSV,2,2,06,08,30,051,29,02,01,068,23,1*7B
$GBGSV,3,1,12,41,70,340,36,27,46,251,48,33,37,064,46,32,27,274,39,1*71
$GBGSV,3,2,12,28,27,195,50,25,26,122,44,30,24,309,36,24,21,064,43,1*7B
$GBGSV,3,3,12,14,13,074,23,40,06,330,34,23,05,166,50,31,05,166,25,1*74
$GBGSV,3,1,10,41,70,340,37,27,46,251,39,33,37,064,42,28,27,195,38,5*72
$GBGSV,3,2,10,32,27,274,34,25,26,122,40,30,24,309,25,24,21,064,31,5*7B
$GBGSV,3,3,10,40,06,330,19,23,05,166,46,5*7E
$GNGGA,052722.000,4005.098722,N,10513.208022,W,2,54,0.43,1585.131,M,-20.669,M,,*72
$GPGSV,3,1,12,32,80,280,46,10,69,042,37,23,38,089,40,46,37,214,46,1*64
$GPGSV,3,2,12,21,30,313,37,28,27,176,44,08,19,271,43,27,17,235,42,1*6E
$GPGSV,3,3,12,24,17,044,32,02,15,319,22,18,10,150,49,31,02,191,51,1*67
$GPGSV,2,1,08,32,80,280,41,10,69,042,33,23,38,089,44,28,27,176,46,8*6E
$GPGSV,2,2,08,08,19,271,29,27,17,235,45,24,17,044,39,18,10,150,49,8*67
$GLGSV,3,1,09,67,61,343,40,82,60,233,42,83,46,313,,68,32,273,42,1*7A
$GLGSV,3,2,09,66,27,049,39,81,23,183,48,76,21,062,31,77,19,110,35,1*76
$GLGSV,3,3,09,75,01,011,18,1*4B
$GAGSV,2,1,06,07,83,002,37,26,75,256,38,13,37,158,45,33,32,316,14,7*7B
$GAGSV,2,2,06,08,30,051,41,02,01,068,19,7*7A
$GAGSV,2,1,06,07,83,002,38,26,75,256,37,13,37,158,40,33,32,316,28,1*77
$GAGSV,2,2,06,08,30,051,29,02,01,068,24,1*7C
$GBGSV,3,1,12,41,70,340,36,27,46,251,48,33,37,064,46,32,27,274,39,1*71
$GBGSV,3,2,12,28,27,195,50,25,26,122,44,30,24,309,35,24,21,064,43,1*78
$GBGSV,3,3,12,14,13,074,17,40,06,330,33,23,05,166,50,31,05,166,25,1*74
$GBGSV,3,1,10,41,70,340,37,27,46,251,40,33,37,064,43,28,27,195,38,5*7D
$GBGSV,3,2,10,32,27,274,34,25,26,122,40,30,24,309,25,24,21,064,32,5*78
$GBGSV,3,3,10,40,06,330,20,23,05,166,46,5*74
$GNGGA,052727.000,4005.098794,N,10513.208106,W,2,55,0.43,1584.926,M,-20.670,M,,*7B
$GPGSV,3,1,12,32,80,280,46,10,69,042,35,23,38,089,40,46,37,214,46,1*66
$GPGSV,3,2,12,21,30,313,37,28,27,176,44,08,19,271,43,27,17,235,42,1*6E
$GPGSV,3,3,12,24,17,044,33,02,15,319,21,18,10,150,49,31,02,191,51,1*65
$GPGSV,2,1,08,32,80,280,41,10,69,042,33,23,38,089,44,28,27,176,46,8*6E
$GPGSV,2,2,08,08,19,271,29,27,17,235,45,24,17,044,39,18,10,150,49,8*67
$GLGSV,3,1,10,67,61,343,40,82,60,233,42,83,46,313,,68,32,273,42,1*72
$GLGSV,3,2,10,65,31,048,,66,27,049,39,81,23,183,48,76,21,062,30,1*7C
$GLGSV,3,3,10,77,19,110,35,75,01,011,17,1*72
$GAGSV,2,1,06,07,83,002,37,26,75,256,38,13,37,158,45,33,32,316,12,7*7D
$GAGSV,2,2,06,08,30,051,41,02,01,068,19,7*7A
$GAGSV,2,1,06,07,83,002,38,26,75,256,37,13,37,158,41,33,32,316,28,1*76
$GAGSV,2,2,06,08,30,051,29,02,01,068,25,1*7D
$GBGSV,3,1,12,41,70,340,36,27,46,251,48,33,37,064,46,32,27,274,39,1*71
$GBGSV,3,2,12,28,27,195,50,25,26,122,44,30,24,309,35,24,21,064,44,1*7F
$GBGSV,3,3,12,14,13,074,17,40,06,330,32,23,05,166,51,31,05,166,25,1*74
$GBGSV,3,1,10,41,70,340,37,27,46,251,40,33,37,064,43,28,27,195,38,5*7D
$GBGSV,3,2,10,32,27,274,34,25,26,122,40,30,24,309,25,24,21,064,33,5*79
$GBGSV,3,3,10,40,06,330,20,23,05,166,46,5*74
$GNGGA,052732.000,4005.098854,N,10513.208088,W,2,55,0.45,1584.691,M,-20.670,M,,*7E
$GPGSV,3,1,12,32,80,280,46,10,69,042,35,23,38,089,40,46,37,214,46,1*66
$GPGSV,3,2,12,21,30,313,37,28,27,176,44,08,19,271,43,27,17,235,42,1*6E
$GPGSV,3,3,12,24,17,044,31,02,16,319,24,18,10,150,49,31,02,191,51,1*61
$GPGSV,2,1,08,32,80,280,41,10,69,042,33,23,38,089,45,28,27,176,46,8*6F
$GPGSV,2,2,08,08,19,271,29,27,17,235,45,24,17,044,39,18,10,150,49,8*67
$GLGSV,3,1,10,67,61,343,40,82,60,233,42,83,46,313,,68,32,273,42,1*72
$GLGSV,3,2,10,65,31,048,,66,27,049,39,81,23,183,48,76,21,062,28,1*75
$GLGSV,3,3,10,77,19,110,34,75,01,011,17,1*73
$GAGSV,2,1,06,07,83,002,37,26,75,256,39,13,37,158,45,33,32,316,11,7*7F
$GAGSV,2,2,06,08,30,051,41,02,01,068,19,7*7A
$GAGSV,2,1,06,07,83,002,38,26,75,256,37,13,37,158,41,33,32,316,28,1*76
$GAGSV,2,2,06,08,30,051,29,02,01,068,25,1*7D
$GBGSV,3,1,12,41,70,340,36,27,46,251,48,33,37,064,46,32,27,274,39,1*71
$GBGSV,3,2,12,28,27,195,50,25,26,122,44,30,24,309,37,24,21,064,44,1*7D
$GBGSV,3,3,12,14,13,074,23,40,06,330,32,23,05,166,51,31,05,166,25,1*73
$GBGSV,3,1,10,41,70,340,37,27,46,251,40,33,37,064,43,28,27,195,38,5*7D
$GBGSV,3,2,10,32,27,274,34,25,26,122,40,30,24,309,26,24,21,064,33,5*7A
$GBGSV,3,3,10,40,06,330,21,23,05,166,46,5*75
$GNGGA,052737.000,4005.098920,N,10513.208028,W,2,56,0.43,1584.473,M,-20.670,M,,*78
$GPGSV,3,1,12,32,80,280,46,10,69,042,36,23,38,089,41,46,37,214,46,1*64
$GPGSV,3,2,12,21,30,313,37,28,27,176,44,08,19,271,43,27,17,235,43,1*6F
$GPGSV,3,3,12,24,17,044,33,02,16,319,26,18,10,150,49,31,02,191,51,1*61
$GPGSV,2,1,08,32,80,280,41,10,69,042,33,23,38,089,45,28,27,176,46,8*6F
$GPGSV,2,2,08,08,19,271,29,27,17,235,45,24,17,044,38,18,10,150,49,8*66
$GLGSV,3,1,10,67,61,343,39,82,60,233,43,83,46,313,,68,32,273,42,1*7D
$GLGSV,3,2,10,65,31,048,,66,27,049,40,81,23,183,48,76,21,062,29,1*7A
$GLGSV,3,3,10,77,19,110,33,75,01,011,17,1*74
$GAGSV,2,1,06,07,83,002,37,26,75,256,39,13,37,158,45,33,32,316,13,7*7D
$GAGSV,2,2,06,08,30,051,41,02,01,068,20,7*70
$GAGSV,2,1,06,07,83,002,38,26,75,256,37,13,37,158,41,33,32,316,28,1*76
$GAGSV,2,2,06,08,30,051,28,02,01,068,26,1*7F
$GBGSV,3,1,12,41,70,340,37,27,46,251,48,33,37,064,46,32,27,274,39,1*70
$GBGSV,3,2,12,28,27,195,50,25,26,122,43,30,24,309,37,24,21,064,44,1*7A
$GBGSV,3,3,12,14,13,074,27,40,06,330,33,23,05,166,51,31,05,166,25,1*76
$GBGSV,3,1,10,41,70,340,37,27,46,251,40,33,37,064,43,28,27,195,38,5*7D
$GBGSV,3,2,10,32,27,274,34,25,26,122,40,30,24,309,26,24,21,064,33,5*7A
$GBGSV,3,3,10,40,06,330,21,23,05,166,46,5*75
$GNGGA,052742.000,4005.098932,N,10513.207974,W,2,56,0.43,1584.333,M,-20.670,M,,*75
$GPGSV,3,1,12,32,80,280,46,10,68,045,36,23,38,089,41,46,37,214,46,1*62
$GPGSV,3,2,12,21,30,313,37,28,27,176,43,08,19,270,43,27,17,235,42,1*68
$GPGSV,3,3,12,24,17,044,33,02,16,319,28,18,10,150,49,31,02,191,51,1*6F
$GPGSV,2,1,08,32,80,280,41,10,68,045,33,23,38,089,45,28,27,176,46,8*69
$GPGSV,2,2,08,08,19,270,30,27,17,235,45,24,17,044,38,18,10,150,49,8*6F
$GLGSV,3,1,10,67,61,343,38,82,60,233,43,83,46,313,,68,32,273,42,1*7C
$GLGSV,3,2,10,65,31,048,,66,27,049,40,81,23,183,48,76,21,062,31,1*73
$GLGSV,3,3,10,77,19,110,33,75,01,011,17,1*74
$GAGSV,2,1,06,07,83,002,37,26,75,256,39,13,37,158,45,33,32,316,11,7*7F
$GAGSV,2,2,06,08,30,051,41,02,01,068,21,7*71
$GAGSV,2,1,06,07,83,002,38,26,75,256,37,13,37,158,41,33,32,316,29,1*77
$GAGSV,2,2,06,08,30,051,28,02,01,068,27,1*7E
$GBGSV,3,1,12,41,70,340,37,27,46,251,48,33,37,064,46,32,27,274,39,1*70
$GBGSV,3,2,12,28,27,195,50,25,26,122,43,30,24,309,39,24,21,064,44,1*74
$GBGSV,3,3,12,14,13,074,32,40,06,330,33,23,05,166,51,31,05,166,26,1*71
$GBGSV,3,1,10,41,70,340,38,27,46,251,40,33,37,064,43,28,27,195,38,5*72
$GBGSV,3,2,10,32,27,274,34,25,26,122,40,30,24,309,26,24,21,064,31,5*78
$GBGSV,3,3,10,40,06,330,22,23,05,166,46,5*76
$GNGGA,052747.000,4005.098854,N,10513.207968,W,2,56,0.43,1584.238,M,-20.670,M,,*76
$GPGSV,3,1,12,32,80,280,46,10,68,045,35,23,38,089,41,46,37,214,46,1*61
$GPGSV,3,2,12,21,30,313,38,28,27,176,43,08,19,270,43,27,17,235,43,1*66
$GPGSV,3,3,12,24,17,044,33,02,16,319,30,18,10,150,49,31,02,191,51,1*66
$GPGSV,2,1,08,32,80,280,41,10,68,045,33,23,38,089,45,28,27,176,46,8*69
$GPGSV,2,2,08,08,19,270,30,27,17,235,45,24,17,044,39,18,10,150,49,8*6E
$GLGSV,3,1,10,67,61,343,37,82,60,233,43,83,46,313,,68,32,273,41,1*70
$GLGSV,3,2,10,65,31,048,,66,27,049,40,81,23,183,48,76,21,062,29,1*7A
$GLGSV,3,3,10,77,19,110,33,75,01,011,17,1*74
$GAGSV,2,1,06,07,83,002,37,26,75,256,39,13,37,158,45,33,32,316,15,7*7B
$GAGSV,2,2,06,08,30,051,41,02,01,068,22,7*72
$GAGSV,2,1,06,07,83,002,38,26,75,256,37,13,37,158,41,33,32,316,29,1*77
$GAGSV,2,2,06,08,30,051,27,02,01,068,27,1*71
$GBGSV,3,1,12,41,70,340,37,27,46,251,48,33,37,064,46,32,27,274,39,1*70
$GBGSV,3,2,12,28,27,195,50,25,26,122,43,30,24,309,39,24,21,064,43,1*73
$GBGSV,3,3,12,14,13,074,33,40,06,330,33,23,05,166,51,31,05,166,26,1*70
$GBGSV,3,1,10,41,70,340,38,27,46,251,40,33,37,064,43,28,27,195,38,5*72
$GBGSV,3,2,10,32,27,274,34,25,26,122,40,30,24,309,26,24,21,064,31,5*78
$GBGSV,3,3,10,40,06,330,22,23,05,166,46,5*76
$GNGGA,052752.000,4005.098782,N,10513.207980,W,2,56,0.43,1584.205,M,-20.670,M,,*7E
$GPGSV,3,1,12,32,80,280,46,10,68,045,34,23,38,089,41,46,37,214,46,1*60
$GPGSV,3,2,12,21,31,312,39,28,27,176,43,08,19,270,43,27,17,235,43,1*67
$GPGSV,3,3,12,24,17,044,33,02,16,319,32,18,08,151,49,31,02,191,51,1*6C
$GPGSV,2,1,08,32,80,280,42,10,68,045,34,23,38,089,45,28,27,176,47,8*6C
$GPGSV,2,2,08,08,19,270,31,27,17,235,45,24,17,044,40,18,08,151,49,8*69
$GLGSV,3,1,10,67,61,343,37,82,60,233,43,83,46,313,,68,32,273,42,1*73
$GLGSV,3,2,10,65,31,048,,66,27,049,40,81,23,183,48,76,21,062,29,1*7A
$GLGSV,3,3,10,77,19,110,34,75,01,011,18,1*7C
$GAGSV,2,1,06,07,83,002,37,26,75,256,39,13,37,158,45,33,32,316,19,7*77
$GAGSV,2,2,06,08,30,051,41,02,01,068,24,7*74
$GAGSV,2,1,06,07,83,002,38,26,75,256,37,13,37,158,41,33,32,316,30,1*7F
$GAGSV,2,2,06,08,30,051,25,02,01,068,27,1*73
$GBGSV,3,1,12,41,70,340,36,27,46,251,48,33,37,064,46,32,27,274,39,1*71
$GBGSV,3,2,12,28,27,195,50,25,26,122,43,30,24,309,39,24,21,064,43,1*73
$GBGSV,3,3,12,14,13,074,34,40,06,330,33,23,05,166,51,31,05,166,26,1*77
$GBGSV,3,1,10,41,70,340,38,27,46,251,40,33,37,064,44,28,27,195,38,5*75
$GBGSV,3,2,10,32,27,274,34,25,26,122,41,30,24,309,25,24,21,064,30,5*7B
$GBGSV,3,3,10,40,06,330,23,23,05,166,46,5*77
$GNGGA,052757.000,4005.098716,N,10513.208004,W,2,56,0.43,1584.240,M,-20.669,M,,*75
$GPGSV,3,1,12,32,80,280,46,10,68,045,33,46,37,214,46,23,37,090,41,1*60
$GPGSV,3,2,12,21,31,312,39,28,27,176,43,08,19,270,43,27,16,234,43,1*67
$GPGSV,3,3,12,24,16,043,33,02,16,319,32,18,08,151,49,31,02,191,51,1*6A
$GPGSV,2,1,08,32,80,280,42,10,68,045,34,23,37,090,46,28,27,176,47,8*68
$GPGSV,2,2,08,08,19,270,31,27,16,234,45,24,16,043,41,18,08,151,49,8*6E
$GLGSV,3,1,10,67,61,343,37,82,60,233,43,83,46,313,,68,32,273,42,1*73
$GLGSV,3,2,10,65,31,048,,66,27,049,40,81,23,183,48,76,21,062,28,1*7B
$GLGSV,3,3,10,77,19,110,34,75,01,011,18,1*7C
$GAGSV,2,1,06,07,83,002,37,26,75,256,39,13,37,158,45,33,32,316,22,7*7F
$GAGSV,2,2,06,08,30,051,41,02,01,068,21,7*71
$GAGSV,2,1,06,07,83,002,38,26,75,256,38,13,37,158,42,33,32,316,31,1*72
$GAGSV,2,2,06,08,30,051,24,02,01,068,28,1*7D
$GBGSV,3,1,12,41,70,340,36,27,46,251,48,33,37,064,45,32,27,274,39,1*72
$GBGSV,3,2,12,28,27,195,50,25,26,122,43,30,24,309,38,24,21,064,43,1*72
$GBGSV,3,3,12,14,13,074,31,40,06,330,33,23,05,166,51,31,05,166,26,1*72
$GBGSV,3,1,10,41,70,340,38,27,46,251,40,33,37,064,44,28,27,195,38,5*75
$GBGSV,3,2,10,32,27,274,34,25,26,122,41,30,24,309,25,24,21,064,28,5*72
$GBGSV,3,3,10,40,06,330,24,23,05,166,46,5*70
$GNGGA,052802.000,4005.098620,N,10513.207932,W,2,56,0.43,1584.268,M,-20.670,M,,*7F
$GPGSV,3,1,12,32,80,287,46,10,68,045,34,46,37,214,46,23,37,090,41,1*60
$GPGSV,3,2,12,21,31,312,40,28,28,175,43,08,19,270,44,27,16,234,43,1*62
$GPGSV,3,3,12,24,16,043,34,02,16,319,32,18,08,151,49,31,03,191,51,1*6C
$GPGSV,2,1,08,32,80,287,42,10,68,045,34,23,37,090,46,28,28,175,47,8*63
$GPGSV,2,2,08,08,19,270,32,27,16,234,45,24,16,043,41,18,08,151,49,8*6D
$GLGSV,3,1,10,67,61,343,37,82,60,233,43,83,46,313,,68,32,273,43,1*72
$GLGSV,3,2,10,65,31,048,,66,27,049,40,81,23,183,48,76,21,062,28,1*7B
$GLGSV,3,3,10,77,19,110,34,75,01,011,17,1*73
$GAGSV,2,1,06,07,83,002,37,26,75,256,39,13,37,158,45,33,32,316,25,7*78
$GAGSV,2,2,06,08,30,051,41,02,01,068,22,7*72
$GAGSV,2,1,06,07,83,002,38,26,75,256,38,13,37,158,42,33,32,316,32,1*71
$GAGSV,2,2,06,08,30,051,22,02,01,068,28,1*7B
$GBGSV,3,1,12,41,70,340,36,27,46,251,48,33,37,064,45,32,27,274,39,1*72
$GBGSV,3,2,12,28,27,195,50,25,26,122,43,30,24,309,37,24,21,064,43,1*7D
$GBGSV,3,3,12,14,13,074,28,40,06,330,34,23,05,166,51,31,05,166,26,1*7D
$GBGSV,3,1,10,41,70,340,38,27,46,251,40,33,37,064,44,28,27,195,38,5*75
$GBGSV,3,2,10,32,27,274,34,25,26,122,41,30,24,309,24,24,21,064,28,5*73
$GBGSV,3,3,10,40,06,330,23,23,05,166,46,5*77
$GNGGA,052807.000,4005.098554,N,10513.207878,W,2,56,0.43,1584.262,M,-20.670,M,,*7F
$GPGSV,3,1,12,32,80,287,46,10,68,045,36,46,37,214,46,23,37,090,41,1*62
$GPGSV,3,2,12,21,31,312,40,28,28,175,43,08,19,270,44,27,16,234,43,1*62
$GPGSV,3,3,12,24,16,043,34,02,16,319,32,18,08,151,49,31,03,191,51,1*6C
$GPGSV,2,1,08,32,80,287,42,10,68,045,34,23,37,090,46,28,28,175,47,8*63
$GPGSV,2,2,08,08,19,270,32,27,16,234,45,24,16,043,41,18,08,151,49,8*6D
$GLGSV,3,1,10,67,61,343,37,82,60,233,43,83,46,313,,68,32,273,43,1*72
$GLGSV,3,2,10,65,31,048,,66,27,049,40,81,23,183,48,76,21,062,30,1*72
$GLGSV,3,3,10,77,19,110,33,75,01,011,17,1*74
$GAGSV,2,1,06,07,83,002,37,26,75,256,39,13,37,158,45,33,32,316,26,7*7B
$GAGSV,2,2,06,08,30,051,41,02,01,068,21,7*71
$GAGSV,2,1,06,07,83,002,38,26,75,256,38,13,37,158,42,33,32,316,32,1*71
$GAGSV,2,2,06,08,30,051,22,02,01,068,28,1*7B
$GBGSV,3,1,12,41,70,340,36,27,46,251,48,33,37,064,45,32,27,274,39,1*72
$GBGSV,3,2,12,28,27,195,50,25,26,122,43,30,24,309,36,24,21,064,43,1*7C
$GBGSV,3,3,12,14,13,074,25,40,06,330,34,23,05,166,51,31,05,166,26,1*70
$GBGSV,3,1,10,41,70,340,38,27,46,251,40,33,37,064,44,28,27,195,38,5*75
$GBGSV,3,2,10,32,27,274,34,25,26,122,40,30,24,309,24,24,21,064,29,5*73
$GBGSV,3,3,10,40,06,330,23,23,05,166,45,5*74
$GNGGA,052812.000,4005.098530,N,10513.207890,W,2,57,0.43,1584.243,M,-20.670,M,,*7D
$GPGSV,3,1,12,32,80,287,46,10,68,045,37,46,37,214,46,23,37,090,41,1*63
$GPGSV,3,2,12,21,31,312,40,28,28,175,44,08,19,270,44,27,16,234,43,1*65
$GPGSV,3,3,12,24,16,043,34,02,16,319,32,18,08,151,49,31,03,191,51,1*6C
$GPGSV,2,1,08,32,80,287,42,10,68,045,34,23,37,090,46,28,28,175,47,8*63
$GPGSV,2,2,08,08,19,270,32,27,16,234,45,24,16,043,41,18,08,151,49,8*6D
$GLGSV,3,1,10,67,61,343,38,82,60,233,43,83,46,313,17,68,32,273,43,1*7B
$GLGSV,3,2,10,65,31,048,,66,27,049,41,81,23,183,48,76,21,062,31,1*72
$GLGSV,3,3,10,77,19,110,33,75,01,011,17,1*74
$GAGSV,2,1,06,07,83,002,37,26,75,256,39,13,37,158,45,33,32,316,27,7*7A
$GAGSV,2,2,06,08,30,051,41,02,01,067,22,7*7D
$GAGSV,2,1,06,07,83,002,38,26,75,256,38,13,37,158,42,33,32,316,32,1*71
$GAGSV,2,2,06,08,30,051,19,02,01,067,28,1*7C
$GBGSV,3,1,12,41,70,340,36,27,46,251,48,33,37,064,45,32,27,274,40,1*7C
$GBGSV,3,2,12,28,27,195,50,25,26,122,43,30,24,309,36,24,21,064,43,1*7C
$GBGSV,3,3,12,14,13,074,29,40,06,330,34,23,05,166,51,31,05,166,27,1*7D
$GBGSV,3,1,10,41,70,340,38,27,46,251,40,33,37,064,44,28,27,195,38,5*75
$GBGSV,3,2,10,32,27,274,34,25,26,122,40,30,24,309,24,24,21,064,29,5*73
$GBGSV,3,3,10,40,06,330,23,23,05,166,45,5*74
$GNGGA,052817.000,4005.098524,N,10513.207938,W,2,57,0.43,1584.228,M,-20.670,M,,*73
$GPGSV,3,1,12,32,80,287,46,10,68,045,37,46,37,214,46,23,37,090,41,1*63
$GPGSV,3,2,12,21,31,312,39,28,28,175,44,08,19,270,44,27,16,234,43,1*6B
$GPGSV,3,3,12,24,16,043,34,02,16,319,32,18,08,151,49,31,03,191,51,1*6C
$GPGSV,2,1,08,32,80,287,42,10,68,045,34,23,37,090,46,28,28,175,47,8*63
$GPGSV,2,2,08,08,19,270,32,27,16,234,45,24,16,043,40,18,08,151,49,8*6C
$GLGSV,3,1,10,67,61,343,38,82,60,233,43,83,46,313,16,68,32,273,42,1*7B
$GLGSV,3,2,10,65,31,048,,66,27,049,41,81,23,183,48,76,21,062,29,1*7B
$GLGSV,3,3,10,77,19,110,32,75,01,011,17,1*75
$GAGSV,2,1,06,07,82,006,36,26,75,256,39,13,37,158,45,33,32,316,27,7*7E
$GAGSV,2,2,06,08,29,051,41,02,01,067,22,7*75
$GAGSV,2,1,06,07,82,006,38,26,75,256,38,13,37,158,42,33,32,316,33,1*75
$GAGSV,2,2,06,08,29,051,18,02,01,067,28,1*75
$GBGSV,3,1,12,41,70,340,36,27,46,251,48,33,37,064,45,32,27,274,40,1*7C
$GBGSV,3,2,12,28,27,195,50,25,26,122,43,30,24,309,38,24,21,064,43,1*72
$GBGSV,3,3,12,14,13,074,32,40,06,330,34,23,05,166,51,31,05,166,27,1*77
$GBGSV,3,1,10,41,70,340,38,27,46,251,40,33,37,064,44,28,27,195,38,5*75
$GBGSV,3,2,10,32,27,274,34,25,26,122,40,30,24,309,26,24,21,064,30,5*79
$GBGSV,3,3,10,40,06,330,24,23,05,166,45,5*73
$GNGGA,052822.000,4005.098512,N,10513.207914,W,2,57,0.43,1584.213,M,-20.670,M,,*76
$GPGSV,3,1,12,32,80,287,46,10,68,045,37,46,37,214,46,23,37,090,41,1*63
$GPGSV,3,2,12,21,31,312,39,28,28,175,45,08,19,270,44,27,16,234,42,1*6B
$GPGSV,3,3,12,24,16,043,34,02,16,319,33,18,08,151,49,31,03,191,51,1*6D
$GPGSV,2,1,08,32,80,287,41,10,68,045,33,23,37,090,46,28,28,175,47,8*67
$GPGSV,2,2,08,08,19,270,33,27,16,234,45,24,16,043,39,18,08,151,50,8*6B
$GLGSV,3,1,10,67,61,343,39,82,60,233,43,83,46,313,15,68,32,273,42,1*79
$GLGSV,3,2,10,65,31,048,,66,27,049,41,81,23,183,48,76,21,062,27,1*75
$GLGSV,3,3,10,77,19,110,32,75,01,011,18,1*7A
$GAGSV,2,1,06,07,82,006,36,26,75,256,39,13,36,159,45,33,32,316,27,7*7E
$GAGSV,2,2,06,08,29,051,41,02,01,067,25,7*72
$GAGSV,2,1,06,07,82,006,38,26,75,256,38,13,36,159,42,33,32,316,33,1*75
$GAGSV,2,2,06,08,29,051,16,02,01,067,27,1*74
$GBGSV,3,1,12,41,70,340,36,27,46,251,48,33,37,064,45,32,27,274,41,1*7D
$GBGSV,3,2,12,28,27,195,50,25,26,122,43,30,24,309,38,24,21,064,43,1*72
$GBGSV,3,3,12,14,13,074,34,40,06,330,34,23,05,166,51,31,05,166,27,1*71
$GBGSV,3,1,10,41,70,340,38,27,46,251,40,33,37,064,44,28,27,195,38,5*75
$GBGSV,3,2,10,32,27,274,34,25,26,122,40,30,24,309,27,24,21,064,30,5*78
$GBGSV,3,3,10,40,06,330,24,23,05,166,44,5*72
$GNGGA,052827.000,4005.098530,N,10513.207878,W,2,57,0.43,1584.274,M,-20.669,M,,*71
$GPGSV,3,1,12,32,80,287,46,10,68,045,39,46,37,214,46,23,37,090,41,1*6D
$GPGSV,3,2,12,21,31,312,38,28,28,175,45,08,19,270,44,27,16,234,42,1*6A
$GPGSV,3,3,12,24,16,043,34,02,16,319,35,18,08,151,49,31,03,191,51,1*6B
$GPGSV,2,1,08,32,80,287,41,10,68,045,33,23,37,090,46,28,28,175,47,8*67
$GPGSV,2,2,08,08,19,270,33,27,16,234,45,24,16,043,39,18,08,151,50,8*6B
$GLGSV,3,1,10,67,61,343,38,82,60,233,44,83,46,313,17,68,32,273,43,1*7C
$GLGSV,3,2,10,65,31,048,,66,27,049,41,81,23,183,48,76,21,062,27,1*75
$GLGSV,3,3,10,77,19,110,31,75,01,011,17,1*76
$GAGSV,2,1,06,07,82,006,36,26,75,256,39,13,36,159,45,33,32,316,25,7*7C
$GAGSV,2,2,06,08,29,051,40,02,01,067,22,7*74
$GAGSV,2,1,06,07,82,006,38,26,75,256,38,13,36,159,42,33,32,316,34,1*72
$GAGSV,2,2,06,08,29,051,12,02,01,067,28,1*7F
$GBGSV,3,1,12,41,70,340,36,27,46,251,48,33,37,064,45,32,27,274,41,1*7D
$GBGSV,3,2,12,28,27,195,50,25,26,122,43,30,24,309,39,24,21,064,43,1*73
$GBGSV,3,3,12,14,13,074,35,40,06,330,35,23,05,166,51,31,05,166,27,1*71
$GBGSV,3,1,10,41,70,340,38,27,46,251,40,33,37,064,44,28,27,195,38,5*75
$GBGSV,3,2,10,32,27,274,34,25,26,122,40,30,24,309,27,24,21,064,30,5*78
$GBGSV,3,3,10,40,06,330,24,23,05,166,44,5*72
$GNGGA,052832.000,4005.098566,N,10513.207902,W,2,56,0.43,1584.347,M,-20.670,M,,*72
$GPGSV,3,1,12,32,80,287,46,10,68,045,38,46,37,214,46,23,37,090,41,1*6C
$GPGSV,3,2,12,21,31,312,37,28,28,175,46,08,19,270,44,27,16,234,43,1*67
$GPGSV,3,3,12,24,16,043,34,02,16,319,37,18,08,151,49,31,03,191,51,1*69
$GPGSV,2,1,08,32,80,287,41,10,68,045,33,23,37,090,46,28,28,175,47,8*67
$GPGSV,2,2,08,08,19,270,33,27,16,234,45,24,16,043,39,18,08,151,50,8*6B
$GLGSV,3,1,10,67,61,343,38,82,60,233,44,83,46,313,16,68,32,273,43,1*7D
$GLGSV,3,2,10,65,31,048,,66,27,049,41,81,23,183,48,76,21,062,29,1*7B
$GLGSV,3,3,10,77,19,110,31,75,01,011,16,1*77
$GAGSV,2,1,06,07,82,006,36,26,75,256,38,13,36,159,45,33,32,316,25,7*7D
$GAGSV,2,2,06,08,29,051,40,02,01,067,21,7*77
$GAGSV,2,1,05,07,82,006,38,26,75,256,38,13,36,159,42,33,32,316,34,1*71
$GAGSV,2,2,05,02,01,067,28,1*48
$GBGSV,3,1,12,41,70,340,36,27,46,251,48,33,37,064,45,32,27,274,41,1*7D
$GBGSV,3,2,12,28,27,195,50,25,26,122,43,30,24,309,39,24,21,064,43,1*73
$GBGSV,3,3,12,14,13,074,35,40,06,330,35,23,05,166,51,31,05,166,27,1*71
$GBGSV,3,1,10,41,70,340,38,27,46,251,40,33,37,064,44,28,27,195,38,5*75
$GBGSV,3,2,10,32,27,274,34,25,26,122,40,30,24,309,28,24,21,064,30,5*77
$GBGSV,3,3,10,40,06,330,24,23,05,166,43,5*75
$GNGGA,052837.000,4005.098566,N,10513.207890,W,2,56,0.43,1584.428,M,-20.670,M,,*73
$GPGSV,3,1,12,32,80,287,46,10,68,045,38,46,37,214,46,23,37,090,41,1*6C
$GPGSV,3,2,12,21,31,312,37,28,28,175,46,08,19,270,44,27,16,234,43,1*67
$GPGSV,3,3,12,24,16,043,34,02,16,319,38,18,08,151,49,31,03,191,51,1*66
$GPGSV,2,1,08,32,80,287,41,10,68,045,33,23,37,090,46,28,28,175,47,8*67
$GPGSV,2,2,08,08,19,270,33,27,16,234,45,24,16,043,39,18,08,151,50,8*6B
$GLGSV,3,1,10,67,61,343,38,82,60,233,44,83,46,313,15,68,32,273,43,1*7E
$GLGSV,3,2,10,65,31,048,,66,27,049,42,81,23,183,48,76,21,062,32,1*72
$GLGSV,3,3,10,77,19,110,32,75,01,011,16,1*74
$GAGSV,2,1,06,07,82,006,36,26,75,252,38,13,36,159,45,33,32,316,26,7*7A
$GAGSV,2,2,06,08,29,051,40,02,01,067,21,7*77
$GAGSV,2,1,05,07,82,006,38,26,75,252,38,13,36,159,42,33,32,316,34,1*75
$GAGSV,2,2,05,02,01,067,28,1*48
$GBGSV,3,1,12,41,70,340,37,27,46,251,48,33,37,064,45,32,27,274,42,1*7F
$GBGSV,3,2,12,28,27,195,50,25,26,122,43,30,24,309,39,24,21,064,43,1*73
$GBGSV,3,3,12,14,13,074,34,40,06,330,35,23,05,166,51,31,05,166,27,1*70
$GBGSV,3,1,10,41,70,340,38,27,46,251,40,33,37,064,44,28,27,195,38,5*75
$GBGSV,3,2,10,32,27,274,34,25,26,122,40,30,24,309,28,24,21,064,30,5*77
$GBGSV,3,3,10,40,06,330,24,23,05,166,43,5*75
$GNGGA,052842.000,4005.098524,N,10513.207920,W,2,56,0.43,1584.494,M,-20.670,M,,*7A
$GPGSV,3,1,12,32,80,287,46,10,68,045,37,46,37,214,46,23,37,090,41,1*63
$GPGSV,3,2,12,21,31,312,38,28,28,175,46,08,19,270,44,27,16,234,44,1*6F
$GPGSV,3,3,12,24,16,043,34,02,16,319,39,18,08,151,49,31,03,191,51,1*67
$GPGSV,2,1,08,32,80,287,41,10,68,045,33,23,37,090,46,28,28,175,47,8*67
$GPGSV,2,2,08,08,19,270,33,27,16,234,45,24,16,043,39,18,08,151,50,8*6B
$GLGSV,3,1,10,67,61,343,38,82,60,233,44,83,46,313,15,68,32,273,42,1*7F
$GLGSV,3,2,10,65,31,048,,66,27,049,42,81,23,183,48,76,21,062,31,1*71
$GLGSV,3,3,10,77,19,110,31,75,01,011,15,1*74
$GAGSV,2,1,06,07,82,006,36,26,75,252,38,13,36,159,45,33,33,316,27,7*7A
$GAGSV,2,2,06,08,29,051,40,02,01,067,19,7*7C
$GAGSV,2,1,05,07,82,006,38,26,75,252,38,13,36,159,42,33,33,316,34,1*74
$GAGSV,2,2,05,02,01,067,28,1*48
$GBGSV,3,1,12,41,70,340,37,27,46,251,48,33,37,064,45,32,27,274,42,1*7F
$GBGSV,3,2,12,28,27,195,50,25,26,122,43,30,24,309,39,24,21,064,44,1*74
$GBGSV,3,3,12,14,13,074,32,40,06,330,36,23,05,166,51,31,05,166,27,1*75
$GBGSV,3,1,10,41,70,340,38,27,46,251,40,33,37,064,44,28,27,195,38,5*75
$GBGSV,3,2,10,32,27,274,34,25,26,122,40,30,24,309,27,24,21,064,30,5*78
$GBGSV,3,3,10,40,06,330,24,23,05,166,43,5*75
$GNGGA,052847.000,4005.098494,N,10513.207968,W,2,56,0.43,1584.548,M,-20.669,M,,*71
$GPGSV,3,1,12,32,80,287,46,10,68,045,37,46,37,214,46,23,37,090,41,1*63
$GPGSV,3,2,12,21,31,312,39,28,28,175,46,08,19,270,44,27,16,234,44,1*6E
$GPGSV,3,3,12,24,16,043,35,02,16,319,39,18,08,151,49,31,03,191,51,1*66
$GPGSV,2,1,08,32,80,287,41,10,68,045,33,23,37,090,46,28,28,175,47,8*67
$GPGSV,2,2,08,08,19,270,33,27,16,234,45,24,16,043,39,18,08,151,50,8*6B
$GLGSV,3,1,10,67,61,343,39,82,60,233,44,83,46,313,15,68,32,273,42,1*7E
$GLGSV,3,2,10,65,30,049,,66,26,050,42,81,23,183,48,76,21,062,30,1*79
$GLGSV,3,3,10,77,19,110,31,75,01,011,17,1*76
$GAGSV,2,1,06,07,82,006,36,26,75,252,38,13,36,159,45,33,33,316,28,7*75
$GAGSV,2,2,06,08,29,051,40,02,01,067,18,7*7D
$GAGSV,2,1,05,07,82,006,38,26,75,252,38,13,36,159,42,33,33,316,34,1*74
$GAGSV,2,2,05,02,01,067,27,1*47
$GBGSV,3,1,12,41,70,340,38,27,46,251,48,33,37,064,45,32,27,274,42,1*70
$GBGSV,3,2,12,28,27,195,50,25,26,122,43,30,24,309,39,24,21,064,44,1*74
$GBGSV,3,3,12,14,13,074,31,40,06,330,36,23,05,166,51,31,05,166,27,1*76
$GBGSV,3,1,10,41,70,340,38,27,46,251,40,33,37,064,44,28,27,195,38,5*75
$GBGSV,3,2,10,32,27,274,33,25,26,122,40,30,24,309,27,24,21,064,30,5*7F
$GBGSV,3,3,10,40,06,330,24,23,05,166,42,5*74
$GNGGA,052852.000,4005.098470,N,10513.207986,W,2,56,0.43,1584.595,M,-20.670,M,,*77
$GPGSV,3,1,12,32,80,287,46,10,68,045,36,46,37,214,46,23,37,090,42,1*61
$GPGSV,3,2,12,21,31,312,39,28,28,175,46,08,19,270,44,27,16,234,44,1*6E
$GPGSV,3,3,12,24,16,043,35,02,16,319,39,18,08,151,49,31,03,191,51,1*66
$GPGSV,2,1,08,32,80,287,41,10,68,045,33,23,37,090,46,28,28,175,47,8*67
$GPGSV,2,2,08,08,19,270,33,27,16,234,45,24,16,043,40,18,08,151,50,8*65
$GLGSV,3,1,10,67,61,346,40,82,60,233,44,83,46,313,17,68,33,274,43,1*70
$GLGSV,3,2,10,65,30,049,,66,26,050,42,81,23,183,46,76,21,062,30,1*77
$GLGSV,3,3,10,77,19,110,31,75,01,011,18,1*79
$GAGSV,2,1,06,07,82,006,36,26,75,252,38,13,36,159,45,33,33,316,30,7*7C
$GAGSV,2,2,06,08,29,051,40,02,01,067,21,7*77
$GAGSV,2,1,05,07,82,006,38,26,75,252,38,13,36,159,42,33,33,316,34,1*74
$GAGSV,2,2,05,02,01,067,28,1*48
$GBGSV,3,1,12,41,70,340,38,27,46,251,48,33,37,064,45,32,27,274,42,1*70
$GBGSV,3,2,12,28,27,195,50,25,26,122,43,30,24,309,39,24,21,064,44,1*74
$GBGSV,3,3,12,14,13,074,32,40,06,330,36,23,05,166,51,31,05,166,27,1*75
$GBGSV,3,1,10,41,70,340,38,27,46,251,40,33,37,064,44,28,27,195,38,5*75
$GBGSV,3,2,10,32,27,274,33,25,26,122,39,30,24,309,27,24,21,064,30,5*71
$GBGSV,3,3,10,40,06,330,24,23,05,166,41,5*77
$GNGGA,052857.000,4005.098440,N,10513.207974,W,2,57,0.43,1584.656,M,-20.670,M,,*71
$GPGSV,3,1,12,32,80,287,46,10,68,045,36,46,37,214,46,23,37,090,42,1*61
$GPGSV,3,2,12,21,31,312,40,28,28,175,46,08,19,270,44,27,16,234,44,1*60
$GPGSV,3,3,12,24,16,043,34,02,16,319,39,18,08,151,49,31,03,191,51,1*67
$GPGSV,2,1,08,32,80,287,41,10,68,045,34,23,37,090,46,28,28,175,48,8*6F
$GPGSV,2,2,08,08,19,270,34,27,16,234,44,24,16,043,41,18,08,151,50,8*62
$GLGSV,3,1,10,67,61,346,40,82,60,233,44,83,46,313,16,68,33,274,43,1*71
$GLGSV,3,2,10,65,30,049,,66,26,050,42,81,23,183,47,76,22,061,29,1*7E
$GLGSV,3,3,10,77,19,110,31,75,01,010,17,1*77
$GAGSV,2,1,06,07,82,006,37,26,75,252,38,13,36,159,45,33,33,316,31,7*7C
$GAGSV,2,2,06,08,29,051,40,02,01,067,20,7*76
$GAGSV,2,1,06,07,82,006,38,26,75,252,38,13,36,159,43,33,33,316,34,1*76
$GAGSV,2,2,06,08,29,051,24,02,01,067,29,1*7B
$GBGSV,3,1,12,41,70,340,38,27,46,251,48,33,37,064,45,32,27,274,42,1*70
$GBGSV,3,2,12,28,27,195,50,25,26,122,43,30,24,309,40,24,21,064,43,1*7D
$GBGSV,3,3,12,14,13,074,35,40,06,330,37,23,05,166,51,31,05,166,27,1*73
$GBGSV,3,1,10,41,70,340,39,27,46,251,40,33,37,064,44,28,27,195,38,5*74
$GBGSV,3,2,10,32,27,274,32,25,26,122,40,30,24,309,28,24,21,064,30,5*71
$GBGSV,3,3,10,40,06,330,25,23,05,166,40,5*77
$GNGGA,052902.000,4005.098386,N,10513.207950,W,2,57,0.43,1584.750,M,-20.670,M,,*7C
$GPGSV,3,1,12,32,80,287,45,10,68,045,34,46,37,214,46,23,37,090,42,1*60
$GPGSV,3,2,12,21,31,312,40,28,28,175,47,08,19,270,44,27,16,234,44,1*61
$GPGSV,3,3,12,24,16,043,35,02,16,319,39,18,08,151,49,31,03,191,51,1*66
$GPGSV,2,1,08,32,80,287,41,10,68,045,34,23,37,090,46,28,28,175,48,8*6F
$GPGSV,2,2,08,08,19,270,34,27,16,234,44,24,16,043,41,18,08,151,50,8*62
$GLGSV,3,1,10,67,61,346,39,82,60,233,44,83,46,313,16,68,33,274,43,1*7F
$GLGSV,3,2,10,65,30,049,,66,26,050,42,81,22,183,47,76,22,061,30,1*77
$GLGSV,3,3,10,77,20,109,30,75,01,010,17,1*74
$GAGSV,2,1,06,07,82,006,37,26,75,252,38,13,36,159,45,33,33,316,33,7*7E
$GAGSV,2,2,06,08,29,051,40,02,01,067,22,7*74
$GAGSV,2,1,06,07,82,006,38,26,75,252,38,13,36,159,43,33,33,316,34,1*76
$GAGSV,2,2,06,08,29,051,24,02,01,067,29,1*7B
$GBGSV,3,1,12,41,70,340,38,27,46,251,48,33,37,064,45,32,27,274,42,1*70
$GBGSV,3,2,12,28,27,195,50,25,26,122,43,30,24,309,40,24,21,064,43,1*7D
$GBGSV,3,3,12,14,13,074,36,40,06,330,37,23,05,166,51,31,05,166,27,1*70
$GBGSV,3,1,10,41,70,340,39,27,46,251,40,33,37,064,44,28,27,195,38,5*74
$GBGSV,3,2,10,32,27,274,32,25,26,122,39,30,24,309,28,24,21,064,31,5*7E
$GBGSV,3,3,10,40,06,330,25,23,05,166,40,5*77
$GNGGA,052907.000,4005.098362,N,10513.207950,W,2,57,0.43,1584.891,M,-20.670,M,,*71
$GPGSV,3,1,12,32,80,287,45,10,68,045,34,46,37,214,46,23,37,090,42,1*60
$GPGSV,3,2,12,21,31,312,39,28,28,175,47,08,19,270,44,27,16,234,44,1*6F
$GPGSV,3,3,12,24,16,043,35,02,16,319,38,18,08,151,49,31,03,191,51,1*67
$GPGSV,2,1,08,32,80,287,41,10,68,045,34,23,37,090,46,28,28,175,48,8*6F
$GPGSV,2,2,08,08,19,270,33,27,16,234,44,24,16,043,41,18,08,151,50,8*65
$GLGSV,3,1,10,67,61,346,38,82,58,231,44,83,47,311,16,68,33,274,43,1*74
$GLGSV,3,2,10,65,30,049,,66,26,050,42,81,22,183,47,76,22,061,33,1*74
$GLGSV,3,3,10,77,20,109,29,75,01,010,16,1*7D
$GAGSV,2,1,06,07,82,006,37,26,75,252,38,13,36,159,45,33,33,316,33,7*7E
$GAGSV,2,2,06,08,29,051,40,02,01,067,24,7*72
$GAGSV,2,1,06,07,82,006,38,26,75,252,38,13,36,159,43,33,33,316,34,1*76
$GAGSV,2,2,06,08,29,051,25,02,01,067,29,1*7A
$GBGSV,3,1,12,41,70,340,38,27,46,251,48,33,37,064,44,32,27,274,42,1*71
$GBGSV,3,2,12,28,27,195,50,25,26,122,43,30,24,309,40,24,21,064,43,1*7D
$GBGSV,3,3,12,14,13,074,37,40,06,330,37,23,05,166,51,31,05,166,27,1*71
$GBGSV,3,1,10,41,70,340,39,27,46,251,40,33,37,064,44,28,27,195,38,5*74
$GBGSV,3,2,10,32,27,274,32,25,26,122,39,30,24,309,28,24,21,064,31,5*7E
$GBGSV,3,3,10,40,06,330,25,23,05,166,40,5*77
$GNGGA,052912.000,4005.098320,N,10513.208004,W,2,58,0.43,1585.021,M,-20.670,M,,*79
$GPGSV,3,1,12,32,80,287,46,10,68,045,36,46,37,214,46,23,37,090,42,1*61
$GPGSV,3,2,12,21,31,312,38,28,28,175,47,08,19,270,44,27,16,234,44,1*6E
$GPGSV,3,3,12,24,16,043,35,02,16,319,38,18,08,151,49,31,03,191,50,1*66
$GPGSV,2,1,08,32,80,287,41,10,68,045,34,23,37,090,46,28,28,175,48,8*6F
$GPGSV,2,2,08,08,19,270,34,27,16,234,44,24,16,043,41,18,08,151,50,8*62
$GLGSV,3,1,10,67,61,346,38,82,58,231,44,83,47,311,18,68,33,274,43,1*7A
$GLGSV,3,2,10,65,30,049,,66,26,050,42,81,22,183,47,76,22,061,36,1*71
$GLGSV,3,3,10,77,20,109,29,75,01,010,15,1*7E
$GAGSV,2,1,06,07,82,006,37,26,75,252,38,13,36,159,45,33,33,316,32,7*7F
$GAGSV,2,2,06,08,29,051,40,02,01,067,24,7*72
$GAGSV,2,1,06,07,82,006,38,26,75,252,38,13,36,159,43,33,33,316,34,1*76
$GAGSV,2,2,06,08,29,051,25,02,01,067,29,1*7A
$GBGSV,3,1,12,41,70,340,37,27,46,251,48,33,37,064,44,32,27,274,43,1*7F
$GBGSV,3,2,12,28,27,195,50,25,26,122,43,30,24,309,41,24,21,064,43,1*7C
$GBGSV,3,3,12,14,13,074,38,40,06,330,37,23,05,166,51,31,05,166,28,1*71
$GBGSV,3,1,10,41,70,340,39,27,46,251,40,33,37,064,44,28,27,195,38,5*74
$GBGSV,3,2,10,32,27,274,32,25,26,122,39,30,24,309,29,24,21,064,31,5*7F
$GBGSV,3,3,10,40,06,330,25,23,05,166,40,5*77
$GNGGA,052917.000,4005.098356,N,10513.208040,W,2,57,0.43,1585.044,M,-20.670,M,,*71
$GPGSV,3,1,12,32,80,287,46,10,68,045,37,46,37,214,46,23,37,090,42,1*60
$GPGSV,3,2,12,21,31,312,37,28,28,175,47,08,19,270,44,27,16,234,44,1*61
$GPGSV,3,3,12,24,16,043,35,02,16,319,38,18,08,151,48,31,03,191,50,1*67
$GPGSV,2,1,08,32,80,287,41,10,68,045,34,23,37,090,46,28,28,175,48,8*6F
$GPGSV,2,2,08,08,19,270,34,27,16,234,44,24,16,043,41,18,08,151,50,8*62
$GLGSV,3,1,10,67,61,346,38,82,58,231,44,83,47,311,20,68,33,274,43,1*71
$GLGSV,3,2,10,65,30,049,,66,26,050,42,81,22,183,47,76,22,061,36,1*71
$GLGSV,3,3,10,77,20,109,29,75,01,010,14,1*7F
$GAGSV,2,1,06,07,82,006,37,26,75,252,38,13,36,159,45,33,33,316,31,7*7C
$GAGSV,2,2,06,08,29,051,40,02,01,067,24,7*72
$GAGSV,2,1,06,07,82,006,38,26,75,252,38,13,36,159,43,33,33,316,34,1*76
$GAGSV,2,2,06,08,29,051,27,02,01,067,29,1*78
$GBGSV,3,1,12,41,70,340,37,27,46,251,48,33,37,064,44,32,27,274,43,1*7F
$GBGSV,3,2,12,28,27,195,50,25,26,122,43,30,24,309,40,24,21,064,43,1*7D
$GBGSV,3,3,12,14,13,074,38,40,06,330,37,23,05,166,51,31,05,166,28,1*71
$GBGSV,3,1,10,41,70,340,39,27,46,251,40,33,37,064,44,28,27,195,38,5*74
$GBGSV,3,2,10,32,27,274,32,25,26,122,39,30,24,309,30,24,21,064,31,5*77
$GBGSV,3,3,10,40,06,330,25,23,05,166,39,5*79
$GNGGA,052922.000,4005.098422,N,10513.208070,W,2,57,0.43,1585.143,M,-20.670,M,,*76
$GPGSV,3,1,12,32,80,287,46,10,68,045,37,46,37,214,46,23,37,090,42,1*60
$GPGSV,3,2,12,21,31,312,37,28,28,175,47,08,19,270,44,27,16,234,45,1*60
$GPGSV,3,3,12,24,16,043,34,02,16,319,39,18,08,151,48,31,03,191,50,1*67
$GPGSV,2,1,08,32,80,287,41,10,68,045,34,23,37,090,46,28,28,175,48,8*6F
$GPGSV,2,2,08,08,19,270,34,27,16,234,44,24,16,043,41,18,08,151,50,8*62
$GLGSV,3,1,10,67,61,346,36,82,58,231,43,83,47,311,22,68,33,274,43,1*7A
$GLGSV,3,2,10,65,30,049,,66,26,050,42,81,22,183,47,76,22,061,35,1*72
$GLGSV,3,3,10,77,20,109,30,75,01,010,13,1*70
$GAGSV,2,1,06,07,82,006,37,26,75,252,38,13,36,159,45,33,33,316,31,7*7C
$GAGSV,2,2,06,08,29,051,39,02,01,067,25,7*7D
$GAGSV,2,1,06,07,82,006,38,26,75,252,38,13,36,159,43,33,33,316,34,1*76
$GAGSV,2,2,06,08,29,051,27,02,01,067,29,1*78
$GBGSV,3,1,12,41,70,340,37,27,46,251,48,33,37,064,44,32,27,274,43,1*7F
$GBGSV,3,2,12,28,27,195,50,25,26,122,43,30,24,309,40,24,21,064,43,1*7D
$GBGSV,3,3,12,14,13,074,37,40,06,330,36,23,05,166,51,31,05,166,27,1*70
$GBGSV,3,1,10,41,70,340,39,27,46,251,40,33,37,064,44,28,27,195,38,5*74
$GBGSV,3,2,10,32,27,274,32,25,26,122,39,30,24,309,30,24,21,064,30,5*76
$GBGSV,3,3,10,40,06,330,25,23,05,166,38,5*78
$GNGGA,052927.000,4005.098476,N,10513.208076,W,2,57,0.43,1585.272,M,-20.670,M,,*75
$GPGSV,3,1,12,32,80,287,46,10,68,045,38,46,37,214,46,23,37,090,42,1*6F
$GPGSV,3,2,12,21,31,312,37,28,28,175,47,08,19,270,44,27,16,234,45,1*60
$GPGSV,3,3,12,24,16,043,32,02,16,319,40,18,08,151,48,31,03,191,49,1*67
$GPGSV,2,1,08,32,80,287,41,10,68,045,34,23,37,090,46,28,28,175,48,8*6F
$GPGSV,2,2,08,08,19,270,34,27,16,234,44,24,16,043,41,18,08,151,50,8*62
$GLGSV,3,1,10,67,61,346,34,82,58,231,43,83,47,311,21,68,33,274,43,1*7B
$GLGSV,3,2,10,65,30,049,,66,26,050,42,81,22,183,47,76,22,061,33,1*74
$GLGSV,3,3,10,77,20,109,30,75,01,010,,1*72
$GAGSV,2,1,06,07,82,006,38,26,75,252,39,13,36,159,45,33,33,316,31,7*72
$GAGSV,2,2,06,08,29,051,39,02,01,067,23,7*7B
$GAGSV,2,1,06,07,82,006,38,26,75,252,38,13,36,159,43,33,33,316,35,1*77
$GAGSV,2,2,06,08,29,051,26,02,01,067,30,1*71
$GBGSV,3,1,12,41,70,340,37,27,46,251,48,33,37,064,44,32,27,274,43,1*7F
$GBGSV,3,2,12,28,27,195,50,25,26,122,43,30,24,309,40,24,21,064,43,1*7D
$GBGSV,3,3,12,14,12,075,36,40,06,330,36,23,05,166,51,31,05,166,27,1*71
$GBGSV,3,1,10,41,70,340,39,27,46,251,40,33,37,064,44,28,27,195,39,5*75
$GBGSV,3,2,10,32,27,274,32,25,26,122,39,30,24,309,32,24,21,064,30,5*74
$GBGSV,3,3,10,40,06,330,25,23,05,166,38,5*78
$GNGGA,052932.000,4005.098524,N,10513.208160,W,2,57,0.43,1585.296,M,-20.670,M,,*7B
$GPGSV,3,1,12,32,80,287,46,10,68,045,39,46,37,214,46,23,37,090,42,1*6E
$GPGSV,3,2,12,21,31,312,37,28,28,175,47,08,19,270,44,27,16,234,46,1*63
$GPGSV,3,3,12,02,16,319,40,24,16,043,31,18,08,151,48,31,03,191,48,1*65
$GPGSV,2,1,08,32,80,287,41,10,68,045,33,23,37,090,46,28,28,175,48,8*68
$GPGSV,2,2,08,08,19,270,34,27,16,234,44,24,16,043,41,18,08,151,50,8*62
$GLGSV,3,1,10,67,61,346,36,82,58,231,43,83,47,311,20,68,33,274,43,1*78
$GLGSV,3,2,10,65,30,049,,66,26,050,42,81,22,183,47,76,22,061,31,1*76
$GLGSV,3,3,10,77,20,109,30,75,01,010,,1*72
$GAGSV,2,1,06,07,82,006,38,26,75,252,39,13,36,159,45,33,33,316,31,7*72
$GAGSV,2,2,06,08,29,051,39,02,01,067,22,7*7A
$GAGSV,2,1,06,07,82,006,38,26,75,252,38,13,36,159,43,33,33,316,35,1*77
$GAGSV,2,2,06,08,29,051,27,02,01,067,31,1*71
$GBGSV,4,1,13,41,70,340,37,27,46,251,48,33,37,064,44,28,27,195,50,1*7C
$GBGSV,4,2,13,32,27,274,43,25,26,122,43,30,24,309,40,24,21,064,43,1*7E
$GBGSV,4,3,13,14,12,075,35,23,06,166,51,40,06,330,35,31,05,166,27,1*74
$GBGSV,4,4,13,63,,,28,1*7B
$GBGSV,3,1,10,41,70,340,39,27,46,251,40,33,37,064,44,28,27,195,39,5*75
$GBGSV,3,2,10,32,27,274,32,25,26,122,39,30,24,309,32,24,21,064,30,5*74
$GBGSV,3,3,10,23,06,166,36,40,06,330,25,5*75
$GNGGA,052937.000,4005.098536,N,10513.208166,W,2,57,0.43,1585.205,M,-20.670,M,,*71
$GPGSV,3,1,12,32,80,287,46,10,68,045,39,46,37,214,46,23,37,090,42,1*6E
$GPGSV,3,2,12,21,31,312,39,28,28,175,47,08,19,270,44,27,16,234,46,1*6D
$GPGSV,3,3,12,24,16,043,31,02,16,319,40,18,08,151,47,31,03,191,49,1*6B
$GPGSV,2,1,08,32,80,287,41,10,68,045,33,23,37,090,46,28,28,175,48,8*68
$GPGSV,2,2,08,08,19,270,35,27,16,234,44,24,16,043,40,18,08,151,50,8*62
$GLGSV,3,1,10,67,61,346,36,82,58,231,43,83,47,311,21,68,33,274,44,1*7E
$GLGSV,3,2,10,65,30,049,,66,26,050,41,81,22,183,47,76,22,061,32,1*76
$GLGSV,3,3,10,77,20,109,30,75,01,010,,1*72
$GAGSV,2,1,06,07,82,006,37,26,75,252,39,13,36,159,45,33,33,316,30,7*7C
$GAGSV,2,2,06,08,29,051,39,02,01,067,22,7*7A
$GAGSV,2,1,06,07,82,006,38,26,75,252,38,13,36,159,43,33,33,316,35,1*77
$GAGSV,2,2,06,08,29,051,27,02,01,067,31,1*71
$GBGSV,3,1,12,41,70,340,38,27,45,249,48,33,37,064,43,25,27,121,43,1*78
$GBGSV,3,2,12,32,27,274,43,28,25,195,50,30,24,309,40,24,21,063,42,1*7E
$GBGSV,3,3,12,14,12,075,36,40,06,330,35,23,06,166,51,31,05,166,27,1*71
$GBGSV,3,1,10,41,70,340,38,27,45,249,40,33,37,064,43,32,27,274,32,5*75
$GBGSV,3,2,10,25,27,121,39,28,25,195,39,30,24,309,33,24,21,063,30,5*7E
$GBGSV,3,3,10,23,06,166,35,40,06,330,25,5*76
$GNGGA,052942.000,4005.098512,N,10513.208124,W,2,57,0.43,1585.162,M,-20.670,M,,*71
$GPGSV,3,1,12,32,80,287,46,10,68,045,38,46,37,214,46,23,37,090,42,1*6F
$GPGSV,3,2,12,21,31,312,40,28,28,175,48,08,19,270,44,27,16,234,46,1*6C
$GPGSV,3,3,12,02,16,319,40,24,16,043,33,18,08,151,47,31,03,191,48,1*68
$GPGSV,2,1,08,32,80,287,41,10,68,045,33,23,37,090,46,28,28,175,48,8*68
$GPGSV,2,2,08,08,19,270,35,27,16,234,44,24,16,043,40,18,08,151,50,8*62
$GLGSV,3,1,10,67,61,346,35,82,58,231,43,83,47,311,22,68,33,274,44,1*7E
$GLGSV,3,2,10,65,30,049,,66,26,050,41,81,22,183,47,76,22,061,33,1*77
$GLGSV,3,3,10,77,20,109,30,75,01,010,,1*72
$GAGSV,2,1,06,07,82,006,37,26,75,252,39,13,36,159,45,33,33,316,28,7*75
$GAGSV,2,2,06,08,29,051,39,02,01,067,23,7*7B
$GAGSV,2,1,06,07,82,006,38,26,75,252,38,13,36,159,43,33,33,316,35,1*77
$GAGSV,2,2,06,08,29,051,27,02,01,067,31,1*71
$GBGSV,4,1,13,41,70,340,38,27,45,249,48,33,36,065,43,25,27,121,43,1*7E
$GBGSV,4,2,13,32,27,275,44,28,25,195,50,30,25,308,40,24,21,063,42,1*7E
$GBGSV,4,3,13,14,12,075,37,40,06,330,35,23,06,166,51,31,06,166,27,1*75
$GBGSV,4,4,13,63,,,29,1*7A
$GBGSV,3,1,10,41,70,340,38,27,45,249,40,33,36,065,43,25,27,121,39,5*7B
$GBGSV,3,2,10,32,27,275,32,28,25,195,39,30,25,308,33,24,21,063,30,5*71
$GBGSV,3,3,10,23,06,166,34,40,06,330,25,5*77
$GNGGA,052947.000,4005.098500,N,10513.208010,W,2,57,0.43,1585.197,M,-20.670,M,,*7B
$GPGSV,3,1,12,32,80,287,46,10,68,045,36,46,37,214,46,23,37,090,42,1*61
$GPGSV,3,2,12,21,31,312,40,28,28,175,48,08,19,270,44,27,16,234,46,1*6C
$GPGSV,3,3,12,24,16,043,34,02,16,319,39,18,08,151,46,31,03,191,47,1*6F
$GPGSV,2,1,08,32,80,287,41,10,68,045,33,23,37,090,46,28,28,175,48,8*68
$GPGSV,2,2,08,08,19,270,36,27,16,234,44,24,16,043,41,18,08,151,50,8*60
$GLGSV,3,1,10,67,61,346,34,82,58,231,44,83,47,311,22,68,33,274,44,1*78
$GLGSV,3,2,10,65,30,049,,66,26,050,43,81,22,183,46,76,22,061,30,1*77
$GLGSV,3,3,10,77,20,109,30,75,01,010,,1*72
$GAGSV,2,1,06,07,82,006,37,26,75,252,39,13,36,159,45,33,33,316,28,7*75
$GAGSV,2,2,06,08,29,051,39,02,01,067,22,7*7A
$GAGSV,2,1,06,07,82,006,38,26,75,252,38,13,36,159,44,33,33,316,36,1*73
$GAGSV,2,2,06,08,29,051,27,02,01,067,31,1*71
$GBGSV,3,1,12,41,70,340,38,27,45,249,48,33,36,065,43,25,27,121,43,1*78
$GBGSV,3,2,12,32,27,275,44,30,25,308,40,28,25,195,50,24,21,063,42,1*78
$GBGSV,3,3,12,14,12,075,39,40,06,330,34,23,06,166,51,31,06,166,27,1*7C
$GBGSV,3,1,10,41,70,340,38,27,45,249,40,33,36,065,43,25,27,121,39,5*7B
$GBGSV,3,2,10,32,27,275,32,28,25,195,40,30,25,308,33,24,21,063,32,5*7D
$GBGSV,3,3,10,23,06,166,31,40,06,330,26,5*71
$GNGGA,052952.000,4005.098482,N,10513.207950,W,2,57,0.43,1585.216,M,-20.669,M,,*74
$GPGSV,3,1,12,32,80,287,46,10,68,045,34,46,37,214,46,23,37,090,42,1*63
$GPGSV,3,2,12,21,31,312,39,28,28,175,48,08,19,270,45,27,16,234,46,1*63
$GPGSV,3,3,12,24,16,043,35,02,16,319,39,18,08,151,46,31,03,191,47,1*6E
$GPGSV,2,1,08,32,80,287,41,10,68,045,33,23,37,090,46,28,28,175,48,8*68
$GPGSV,2,2,08,08,19,270,36,27,16,234,44,24,16,043,41,18,08,151,49,8*68
$GLGSV,3,1,10,67,61,346,35,82,58,231,44,83,47,311,21,68,33,274,44,1*7A
$GLGSV,3,2,10,65,30,049,,66,26,050,43,81,22,183,46,76,22,061,32,1*75
$GLGSV,3,3,10,77,20,109,30,75,01,010,,1*72
$GAGSV,2,1,06,07,82,006,37,26,75,252,39,13,36,159,45,33,33,316,28,7*75
$GAGSV,2,2,06,08,29,051,37,02,01,067,23,7*75
$GAGSV,2,1,06,07,82,006,38,26,75,252,38,13,36,159,44,33,33,316,36,1*73
$GAGSV,2,2,06,08,29,051,27,02,01,067,31,1*71
$GBGSV,3,1,12,41,70,343,38,27,45,249,48,33,36,065,43,25,27,121,43,1*7B
$GBGSV,3,2,12,32,27,275,44,30,25,308,38,28,25,195,50,24,21,063,42,1*77
$GBGSV,3,3,12,14,12,075,39,40,06,329,34,23,06,166,51,31,06,166,27,1*74
$GBGSV,3,1,10,41,70,343,38,27,45,249,40,33,36,065,43,25,27,121,38,5*79
$GBGSV,3,2,10,32,27,275,33,28,25,195,40,30,25,308,33,24,21,063,32,5*7C
$GBGSV,3,3,10,23,06,166,31,40,06,329,26,5*79
$GNGGA,052957.000,4005.098476,N,10513.207962,W,2,57,0.43,1585.168,M,-20.670,M,,*79
$GPGSV,3,1,12,32,80,287,45,10,68,045,34,46,37,214,46,23,37,090,42,1*60
$GPGSV,3,2,12,21,31,312,39,28,28,175,48,08,19,270,45,27,16,234,46,1*63
$GPGSV,3,3,12,24,16,043,36,02,16,319,39,18,08,151,45,31,03,191,46,1*6F
$GPGSV,2,1,08,32,80,287,40,10,68,045,32,23,37,090,46,28,28,175,48,8*68
$GPGSV,2,2,08,08,19,270,36,27,16,234,44,24,16,043,41,18,08,151,49,8*68
$GLGSV,3,1,10,67,61,346,38,82,58,231,43,83,47,311,19,68,33,274,44,1*7B
$GLGSV,3,2,10,65,30,049,,66,26,050,43,81,22,183,46,76,22,061,33,1*74
$GLGSV,3,3,10,77,20,109,29,75,01,010,,1*7A
$GAGSV,2,1,06,07,82,006,37,26,75,252,39,13,36,159,45,33,33,316,28,7*75
$GAGSV,2,2,06,08,29,051,37,02,01,067,24,7*72
$GAGSV,2,1,06,07,82,006,38,26,75,252,38,13,36,159,44,33,33,316,36,1*73
$GAGSV,2,2,06,08,29,051,27,02,01,067,31,1*71
$GBGSV,3,1,12,41,70,343,38,27,45,249,48,33,36,065,42,25,27,121,43,1*7A
$GBGSV,3,2,12,32,27,275,44,30,25,308,37,28,25,195,50,24,21,063,42,1*78
$GBGSV,3,3,12,14,12,075,39,40,06,329,33,23,06,166,51,31,06,166,27,1*73
$GBGSV,3,1,10,41,70,343,38,27,45,249,40,33,36,065,43,25,27,121,38,5*79
$GBGSV,3,2,10,32,27,275,33,28,25,195,40,30,25,308,32,24,21,063,33,5*7C
$GBGSV,3,3,10,23,06,166,26,40,06,329,26,5*7F
$GNGGA,053002.000,4005.098476,N,10513.207956,W,2,57,0.43,1585.138,M,-20.670,M,,*73
$GPGSV,3,1,12,32,80,287,45,10,68,045,35,46,37,214,46,23,37,090,42,1*61
$GPGSV,3,2,12,21,31,312,39,28,28,175,49,08,19,270,45,27,16,234,47,1*63
$GPGSV,3,3,12,24,16,043,36,02,16,319,40,18,08,151,45,31,03,191,46,1*61
$GPGSV,2,1,08,32,80,287,40,10,68,045,32,23,37,090,46,28,28,175,48,8*68
$GPGSV,2,2,08,08,19,270,36,27,16,234,44,24,16,043,42,18,08,151,49,8*6B
$GLGSV,3,1,10,67,61,346,38,82,58,231,43,83,47,311,20,68,33,274,44,1*71
$GLGSV,3,2,10,65,30,049,,66,26,050,43,81,22,183,46,76,22,061,35,1*72
$GLGSV,3,3,10,77,20,109,28,75,01,010,,1*7B
$GAGSV,2,1,06,07,82,006,37,26,75,252,39,13,36,159,44,33,33,316,28,7*74
$GAGSV,2,2,06,08,29,051,36,02,01,067,24,7*73
$GAGSV,2,1,06,07,82,006,38,26,75,252,38,13,36,159,44,33,33,316,36,1*73
$GAGSV,2,2,06,08,29,051,27,02,01,067,31,1*71
$GBGSV,3,1,12,41,70,343,38,27,45,249,48,33,36,065,42,25,27,121,43,1*7A
$GBGSV,3,2,12,32,27,275,44,30,25,308,37,28,25,195,49,24,21,063,43,1*71
$GBGSV,3,3,12,14,12,075,39,40,06,329,31,23,06,166,51,31,06,166,27,1*71
$GBGSV,3,1,10,41,70,343,38,27,45,249,40,33,36,065,43,25,27,121,38,5*79
$GBGSV,3,2,10,32,27,275,33,28,25,195,40,30,25,308,32,24,21,063,33,5*7C
$GBGSV,3,3,10,23,06,166,26,40,06,329,26,5*7F
$GNGGA,053007.000,4005.098470,N,10513.207956,W,2,57,0.43,1585.131,M,-20.670,M,,*79
$GPGSV,3,1,12,32,80,287,45,10,68,045,37,46,37,214,46,23,37,090,42,1*63
$GPGSV,3,2,12,21,31,312,39,28,28,175,49,08,19,270,45,27,16,234,47,1*63
$GPGSV,3,3,12,24,16,043,37,02,16,319,41,18,08,151,44,31,03,191,46,1*60
$GPGSV,2,1,08,32,80,287,40,10,68,045,32,23,37,090,46,28,28,175,48,8*68
$GPGSV,2,2,08,08,19,270,36,27,16,234,44,24,16,043,42,18,08,151,49,8*6B
$GLGSV,3,1,10,67,61,346,38,82,58,231,43,83,47,311,21,68,33,274,45,1*71
$GLGSV,3,2,10,65,30,049,,66,26,050,43,81,22,183,46,76,22,061,37,1*70
$GLGSV,3,3,10,77,20,109,28,75,01,010,,1*7B
$GAGSV,2,1,06,07,82,006,37,26,75,252,39,13,36,159,44,33,33,316,28,7*74
$GAGSV,2,2,06,08,29,051,36,02,01,067,24,7*73
$GAGSV,2,1,06,07,82,006,38,26,75,252,38,13,36,159,44,33,33,316,36,1*73
$GAGSV,2,2,06,08,29,051,26,02,01,067,32,1*73
$GBGSV,3,1,12,41,70,343,38,27,45,249,48,33,36,065,42,25,27,121,43,1*7A
$GBGSV,3,2,12,32,27,275,44,30,25,308,38,28,25,195,49,24,21,063,43,1*7E
$GBGSV,3,3,12,14,12,075,39,40,06,329,30,23,06,166,51,31,06,166,26,1*71
$GBGSV,3,1,10,41,70,343,38,27,45,249,40,33,36,065,43,25,27,121,38,5*79
$GBGSV,3,2,10,32,27,275,33,28,25,195,40,30,25,308,32,24,21,063,33,5*7C
$GBGSV,3,3,10,23,06,166,24,40,06,329,26,5*7D
$GNGGA,053012.000,4005.098482,N,10513.207884,W,2,57,0.43,1585.187,M,-20.670,M,,*73
$GPGSV,3,1,12,32,80,287,45,10,68,045,38,46,37,214,46,23,37,090,42,1*6C
$GPGSV,3,2,12,21,31,312,38,28,28,175,49,08,19,270,45,27,16,234,47,1*62
$GPGSV,3,3,12,24,16,043,37,02,16,319,41,18,08,151,44,31,03,191,44,1*62
$GPGSV,2,1,08,32,80,287,40,10,68,045,32,23,37,090,46,28,28,175,48,8*68
$GPGSV,2,2,08,08,19,270,36,27,16,234,44,24,16,043,41,18,08,151,49,8*68
$GLGSV,3,1,10,67,61,346,38,82,58,231,43,83,47,311,22,68,33,274,45,1*72
$GLGSV,3,2,10,65,30,049,,66,26,050,42,81,22,183,46,76,22,061,36,1*70
$GLGSV,3,3,10,77,20,109,28,75,01,010,,1*7B
$GAGSV,2,1,06,07,82,006,37,26,75,252,39,13,36,159,44,33,33,316,28,7*74
$GAGSV,2,2,06,08,29,051,36,02,01,067,24,7*73
$GAGSV,2,1,06,07,82,006,38,26,75,252,38,13,36,159,44,33,33,316,36,1*73
$GAGSV,2,2,06,08,29,051,27,02,01,067,32,1*72
$GBGSV,3,1,12,41,70,343,37,27,45,249,48,33,36,065,42,25,27,121,43,1*75
$GBGSV,3,2,12,32,27,275,45,30,25,308,38,28,25,195,49,24,21,063,43,1*7F
$GBGSV,3,3,12,14,12,075,38,40,06,329,30,23,06,166,51,31,06,166,27,1*71
$GBGSV,3,1,10,41,70,343,38,27,45,249,40,33,36,065,43,25,27,121,38,5*79
$GBGSV,3,2,10,32,27,275,32,28,25,195,40,30,25,308,32,24,21,063,33,5*7D
$GBGSV,3,3,10,23,06,166,20,40,06,329,27,5*78
$GNGGA,053017.000,4005.098488,N,10513.207806,W,2,56,0.43,1585.274,M,-20.670,M,,*78
$GPGSV,3,1,12,32,80,287,46,10,68,045,38,46,37,214,46,23,37,090,42,1*6F
$GPGSV,3,2,12,21,31,312,38,28,28,175,49,08,19,270,45,02,17,319,41,1*6C
$GPGSV,3,3,12,27,16,234,47,24,16,043,37,18,08,151,43,31,03,191,44,1*6A
$GPGSV,2,1,08,32,80,287,40,10,68,045,31,23,37,090,46,28,28,175,48,8*6B
$GPGSV,2,2,08,08,19,270,36,27,16,234,43,24,16,043,41,18,08,151,48,8*6E
$GLGSV,3,1,10,67,61,346,37,82,58,231,43,83,47,311,24,68,33,274,45,1*7B
$GLGSV,3,2,10,65,30,049,,66,26,050,42,81,22,183,46,76,22,061,36,1*70
$GLGSV,3,3,10,77,20,109,29,75,01,010,,1*7A
$GAGSV,2,1,06,07,82,006,37,26,75,252,39,13,36,159,44,33,33,316,30,7*7D
$GAGSV,2,2,06,08,29,051,36,02,01,067,24,7*73
$GAGSV,2,1,06,07,82,006,38,26,75,252,38,13,36,159,44,33,33,316,36,1*73
$GAGSV,2,2,06,08,29,051,27,02,01,067,32,1*72
$GBGSV,3,1,12,41,70,343,37,27,45,249,48,33,36,065,42,25,27,121,43,1*75
$GBGSV,3,2,12,32,27,275,45,30,25,308,38,28,25,195,49,24,21,063,43,1*7F
$GBGSV,3,3,12,14,12,075,38,40,06,329,30,23,06,166,51,31,06,166,26,1*70
$GBGSV,3,1,09,41,70,343,38,27,45,249,39,33,36,065,43,32,27,275,32,5*71
$GBGSV,3,2,09,25,27,121,38,28,25,195,40,30,25,308,32,24,21,063,32,5*7A
$GBGSV,3,3,09,40,06,329,27,5*44
$GNGGA,053022.000,4005.098524,N,10513.207764,W,2,56,0.43,1585.414,M,-20.670,M,,*72
$GPGSV,3,1,12,32,80,287,46,10,68,049,39,46,37,214,46,23,37,090,42,1*62
$GPGSV,3,2,12,21,31,312,38,28,28,175,49,08,18,269,45,02,17,319,41,1*65
$GPGSV,3,3,12,27,16,234,47,24,16,043,37,18,08,151,43,31,03,191,43,1*6D
$GPGSV,2,1,08,32,80,287,40,10,68,049,31,23,37,090,46,28,28,175,48,8*67
$GPGSV,2,2,08,08,18,269,36,27,16,234,43,24,16,043,41,18,08,151,48,8*67
$GLGSV,3,1,10,67,61,346,37,82,58,231,43,83,47,311,24,68,33,274,45,1*7B
$GLGSV,3,2,10,65,30,049,,66,26,050,41,81,22,183,46,76,22,061,26,1*72
$GLGSV,3,3,10,77,20,109,29,75,01,010,,1*7A
$GAGSV,2,1,06,07,82,006,37,26,75,252,39,13,36,159,44,33,33,316,30,7*7D
$GAGSV,2,2,06,08,29,051,35,02,01,067,25,7*71
$GAGSV,2,1,06,07,82,006,38,26,75,252,38,13,36,159,44,33,33,316,36,1*73
$GAGSV,2,2,06,08,29,051,28,02,01,067,32,1*7D
$GBGSV,3,1,12,41,70,343,37,27,45,249,48,33,36,065,41,25,27,121,43,1*76
$GBGSV,3,2,12,32,27,275,45,30,25,308,39,28,25,195,49,24,21,063,43,1*7E
$GBGSV,3,3,12,14,12,075,39,40,06,329,30,23,06,166,51,31,06,166,26,1*71
$GBGSV,3,1,09,41,70,343,39,27,45,249,39,33,36,065,43,32,27,275,33,5*71
$GBGSV,3,2,09,25,27,121,37,28,25,195,41,30,25,308,32,24,21,063,32,5*74
$GBGSV,3,3,09,40,06,329,28,5*4B
$GNGGA,053027.000,4005.098578,N,10513.207752,W,2,57,0.43,1585.457,M,-20.670,M,,*7D
$GPGSV,3,1,12,32,80,287,46,10,68,049,39,46,37,214,46,23,37,090,42,1*62
$GPGSV,3,2,12,21,31,312,37,28,28,175,49,08,18,269,45,02,17,319,41,1*6A
$GPGSV,3,3,12,27,16,234,48,24,16,043,37,18,08,151,42,31,03,191,42,1*62
$GPGSV,2,1,08,32,80,287,40,10,68,049,31,23,37,090,47,28,28,175,48,8*66
$GPGSV,2,2,08,08,18,269,37,27,16,234,43,24,16,043,41,18,08,151,48,8*66
$GLGSV,3,1,10,67,61,346,37,82,58,231,43,83,47,311,24,68,33,274,44,1*7A
$GLGSV,3,2,10,65,30,049,,66,26,050,40,81,22,183,46,76,22,061,30,1*74
$GLGSV,3,3,10,77,20,109,29,75,01,010,,1*7A
$GAGSV,2,1,06,07,82,006,37,26,75,252,39,13,36,159,44,33,33,316,31,7*7C
$GAGSV,2,2,06,08,29,051,35,02,01,067,25,7*71
$GAGSV,2,1,06,07,82,006,38,26,75,252,38,13,36,159,44,33,33,316,36,1*73
$GAGSV,2,2,06,08,29,051,27,02,01,067,33,1*73
$GBGSV,3,1,12,41,70,343,37,27,45,249,48,33,36,065,41,25,27,121,43,1*76
$GBGSV,3,2,12,32,27,275,45,30,25,308,40,28,25,195,49,24,21,063,43,1*70
$GBGSV,3,3,12,14,12,075,40,40,06,329,30,23,06,166,51,31,06,166,26,1*7F
$GBGSV,3,1,10,41,70,343,39,27,45,249,39,33,36,065,43,25,27,121,37,5*79
$GBGSV,3,2,10,32,27,275,33,28,25,195,41,30,25,308,32,24,21,063,32,5*7C
$GBGSV,3,3,10,23,06,166,27,40,06,329,28,5*70
$GNGGA,053032.000,4005.098614,N,10513.207788,W,2,57,0.43,1585.572,M,-20.670,M,,*71
$GPGSV,3,1,12,32,80,287,46,10,68,049,39,46,37,214,46,23,37,090,42,1*62
