$PAIR001,062,0*3F
$PAIR001,062,0*3F
$PAIR001,062,0*3F
$PAIR001,062,0*3F
$PAIR001,062,0*3F
$PAIR001,062,0*3F
$PAIR001,062,0*3F
$PAIR001,062,0*3F
$PAIR001,062,0*3F
$GNGGA,215637.000,4005.098392,N,10513.208790,W,2,56,0.48,1583.510,M,-20.669,M,,*7F
$GPGSV,3,1,11,12,69,219,45,20,65,132,43,11,63,039,39,25,54,288,41,1*63
$GPGSV,3,2,11,05,38,176,48,46,37,214,45,06,26,052,39,29,24,297,40,1*6D
$GPGSV,3,3,11,19,10,099,43,28,07,311,32,09,05,056,32,1*5B
$GPGSV,2,1,05,11,63,039,31,25,54,288,40,06,26,052,35,28,07,311,27,8*6E
$GPGSV,2,2,05,09,05,056,34,8*50
$GLGSV,3,1,09,86,55,016,36,77,46,295,22,76,46,222,42,87,41,290,39,1*7F
$GLGSV,3,2,09,71,25,110,43,70,25,055,25,85,16,060,25,72,04,151,43,1*79
$GLGSV,3,3,09,75,03,180,46,1*4B
$GAGSV,3,1,09,30,65,203,44,34,65,031,36,15,54,257,43,27,44,305,37,7*7F
$GAGSV,3,2,09,02,20,159,43,36,15,054,37,09,05,053,26,05,05,102,38,7*73
$GAGSV,3,3,09,13,04,242,29,7*43
$GAGSV,3,1,09,30,65,203,44,34,65,031,20,15,54,257,38,27,44,305,41,1*73
$GAGSV,3,2,09,02,20,159,37,36,15,054,37,09,05,053,33,05,05,102,32,1*78
$GAGSV,3,3,09,13,04,242,44,1*4E
$GBGSV,4,1,14,34,66,319,44,12,63,039,30,11,46,290,42,44,44,069,41,1*70
$GBGSV,4,2,14,25,38,253,47,22,29,072,44,21,29,132,44,43,23,280,39,1*7E
$GBGSV,4,3,14,23,21,309,34,24,19,195,47,39,04,325,13,42,03,174,51,1*70
$GBGSV,4,4,14,19,03,028,28,16,03,333,16,1*78
$GBGSV,3,1,11,34,66,319,35,44,44,069,39,25,38,253,40,21,29,132,43,5*7C
$GBGSV,3,2,11,22,29,072,33,43,23,280,25,23,21,309,39,24,19,195,42,5*71
$GBGSV,3,3,11,39,04,325,17,42,03,174,44,19,03,028,20,5*4A
$GNGGA,215642.000,4005.098320,N,10513.208904,W,2,56,0.48,1583.194,M,-20.670,M,,*77
$GPGSV,3,1,11,12,69,219,45,20,65,132,43,11,63,039,39,25,54,288,41,1*63
$GPGSV,3,2,11,05,39,176,48,46,37,214,45,06,25,053,39,29,24,297,40,1*6E
$GPGSV,3,3,11,19,10,099,43,28,07,311,33,09,05,056,34,1*5C
$GPGSV,2,1,05,11,63,039,33,25,54,288,41,06,25,053,35,28,07,311,29,8*61
$GPGSV,2,2,05,09,05,056,34,8*50
$GLGSV,3,1,09,86,55,016,37,77,46,295,24,76,46,222,42,87,41,290,39,1*78
$GLGSV,3,2,09,71,25,110,42,70,25,055,24,85,16,060,31,72,04,151,44,1*7B
$GLGSV,3,3,09,75,03,180,46,1*4B
$GAGSV,3,1,09,30,65,203,44,34,65,031,36,15,54,257,43,27,44,305,37,7*7F
$GAGSV,3,2,09,02,20,159,42,36,15,054,38,05,05,102,36,09,05,053,26,7*73
$GAGSV,3,3,09,13,04,242,30,7*4B
$GAGSV,3,1,09,30,65,203,45,34,65,031,25,15,54,257,40,27,44,305,41,1*78
$GAGSV,3,2,09,02,20,159,40,36,15,054,37,09,05,053,33,05,05,102,37,1*7D
$GAGSV,3,3,09,13,04,242,45,1*4F
$GBGSV,4,1,15,34,66,319,44,12,63,039,32,11,46,290,42,44,44,069,40,1*72
$GBGSV,4,2,15,25,38,253,47,22,29,072,43,21,29,132,44,43,23,280,40,1*76
$GBGSV,4,3,15,23,21,309,36,24,19,195,47,39,04,325,13,19,03,028,28,1*7B
$GBGSV,4,4,15,16,03,333,17,42,03,174,51,53,,,28,1*7C
$GBGSV,3,1,11,34,66,319,36,44,44,069,38,25,38,253,41,21,29,132,43,5*7F
$GBGSV,3,2,11,22,29,072,35,43,23,280,24,23,21,309,38,24,19,195,44,5*71
$GBGSV,3,3,11,39,04,325,18,42,03,174,45,19,03,028,20,5*44
$GNGGA,215647.000,4005.098236,N,10513.208928,W,2,56,0.48,1582.801,M,-20.669,M,,*76
$GPGSV,3,1,11,12,69,219,45,20,65,132,43,11,62,040,39,25,54,288,41,1*6C
$GPGSV,3,2,11,05,39,176,48,46,37,214,46,06,25,053,39,29,24,297,40,1*6D
$GPGSV,3,3,11,19,10,099,43,28,07,311,30,09,05,055,33,1*5B
$GPGSV,2,1,05,11,62,040,32,25,54,288,40,06,25,053,36,28,07,311,29,8*6D
$GPGSV,2,2,05,09,05,055,33,8*54
$GLGSV,3,1,09,86,55,016,37,77,46,295,25,76,46,222,42,87,41,290,38,1*78
$GLGSV,3,2,09,71,25,110,42,70,25,055,24,85,16,060,34,72,04,151,42,1*78
$GLGSV,3,3,09,75,03,180,46,1*4B
$GAGSV,3,1,09,30,65,203,44,34,65,031,36,15,54,257,43,27,44,305,37,7*7F
$GAGSV,3,2,09,02,20,159,42,36,15,054,38,05,05,102,37,09,05,053,26,7*72
$GAGSV,3,3,09,13,04,242,35,7*4E
$GAGSV,3,1,09,30,65,203,45,34,65,031,24,15,54,257,40,27,44,305,40,1*78
$GAGSV,3,2,09,02,20,159,39,36,15,054,37,09,05,053,32,05,05,102,37,1*72
$GAGSV,3,3,09,13,04,242,45,1*4F
$GBGSV,4,1,15,34,66,319,45,12,63,039,31,11,46,290,42,44,44,069,40,1*70
$GBGSV,4,2,15,25,38,253,47,22,29,072,43,21,29,132,44,43,23,280,41,1*77
$GBGSV,4,3,15,23,21,309,37,24,19,195,47,39,04,325,18,19,03,028,26,1*7F
$GBGSV,4,4,15,16,03,333,17,42,03,174,51,55,,,27,1*75
$GBGSV,3,1,11,34,66,319,35,44,44,069,38,25,38,253,41,21,29,132,43,5*7C
$GBGSV,3,2,11,22,29,072,35,43,23,280,25,23,21,309,38,24,19,195,42,5*76
$GBGSV,3,3,11,39,04,325,17,42,03,174,45,19,03,028,18,5*40
$GNGGA,215652.000,4005.098134,N,10513.208940,W,2,56,0.48,1582.614,M,-20.670,M,,*7F
$GPGSV,3,1,11,12,68,216,45,20,65,132,43,11,62,040,39,25,54,288,41,1*62
$GPGSV,3,2,11,05,39,176,48,46,37,214,46,06,25,053,40,29,24,297,40,1*63
$GPGSV,3,3,11,19,10,099,43,28,07,311,30,09,05,055,31,1*59
$GPGSV,2,1,05,11,62,040,28,25,54,288,40,06,25,053,35,28,07,311,29,8*65
$GPGSV,2,2,05,09,05,055,34,8*53
$GLGSV,3,1,09,86,55,016,37,77,46,295,27,76,46,222,42,87,41,290,38,1*7A
$GLGSV,3,2,09,71,25,110,42,70,25,055,25,85,16,060,34,72,04,151,40,1*7B
$GLGSV,3,3,09,75,03,180,45,1*48
$GAGSV,3,1,09,30,65,203,44,34,65,031,35,15,54,257,43,27,44,305,35,7*7E
$GAGSV,3,2,09,02,20,159,43,36,15,054,38,05,05,102,37,09,05,053,25,7*70
$GAGSV,3,3,09,13,04,242,34,7*4F
$GAGSV,3,1,09,30,65,203,45,34,65,031,23,15,54,257,40,27,44,305,40,1*7F
$GAGSV,3,2,09,02,20,159,39,36,15,054,35,09,05,053,31,05,05,102,36,1*72
$GAGSV,3,3,09,13,04,242,46,1*4C
$GBGSV,4,1,15,34,66,319,45,12,63,039,29,11,46,290,41,44,44,069,41,1*7B
$GBGSV,4,2,15,25,38,253,47,22,29,072,43,21,29,132,44,43,23,280,41,1*77
$GBGSV,4,3,15,23,21,309,37,24,19,195,47,39,04,325,17,19,03,028,25,1*73
$GBGSV,4,4,15,16,03,333,17,42,03,174,51,51,,,25,1*73
$GBGSV,3,1,11,34,66,319,35,44,44,069,38,25,38,253,41,21,29,132,43,5*7C
$GBGSV,3,2,11,22,29,072,36,43,23,280,22,23,21,309,37,24,19,195,42,5*7D
$GBGSV,3,3,11,39,04,325,18,42,03,174,45,19,03,028,20,5*44
$GNGGA,215657.000,4005.098068,N,10513.208880,W,2,56,0.48,1582.396,M,-20.670,M,,*70
$GPGSV,3,1,11,12,68,216,45,20,65,129,43,11,62,040,39,25,54,288,41,1*68
$GPGSV,3,2,11,05,39,176,48,46,37,214,46,06,25,053,40,29,24,297,41,1*62
$GPGSV,3,3,11,19,09,100,43,28,07,311,29,09,05,055,29,1*51
$GPGSV,2,1,05,11,62,040,29,25,54,288,41,06,25,053,33,28,07,311,30,8*6B
$GPGSV,2,2,05,09,05,055,34,8*53
$GLGSV,3,1,09,86,55,016,36,77,46,295,26,76,46,222,43,87,41,290,38,1*7B
$GLGSV,3,2,09,71,25,110,42,70,25,055,26,85,16,060,33,72,04,151,39,1*71
$GLGSV,3,3,09,75,03,180,44,1*49
$GAGSV,3,1,09,30,65,203,44,34,65,031,36,15,54,257,43,27,44,305,34,7*7C
$GAGSV,3,2,09,02,20,159,43,36,15,054,38,09,05,053,27,05,05,102,38,7*7D
$GAGSV,3,3,09,13,04,242,34,7*4F
$GAGSV,3,1,09,30,65,203,45,34,65,031,22,15,54,257,40,27,44,305,39,1*70
$GAGSV,3,2,09,02,20,159,39,36,15,054,35,09,05,053,32,05,05,102,37,1*70
$GAGSV,3,3,09,13,04,242,46,1*4C
$GBGSV,4,1,14,34,66,319,45,12,63,039,29,11,46,290,40,44,44,069,41,1*7B
$GBGSV,4,2,14,25,38,253,47,22,29,072,43,21,29,132,44,43,23,280,40,1*77
$GBGSV,4,3,14,23,21,309,37,24,19,195,47,39,04,325,16,42,03,174,51,1*76
$GBGSV,4,4,14,19,03,028,26,16,03,333,19,1*79
$GBGSV,3,1,11,34,66,319,35,44,44,069,38,25,38,253,41,21,29,132,43,5*7C
$GBGSV,3,2,11,22,29,072,37,43,23,280,20,23,21,309,37,24,19,195,42,5*7E
$GBGSV,3,3,11,39,04,325,18,42,03,174,45,19,03,028,21,5*45
$GNGGA,215702.000,4005.098050,N,10513.208910,W,2,56,0.48,1582.217,M,-20.670,M,,*7A
$GPGSV,3,1,11,12,68,216,44,20,65,129,43,11,62,040,38,25,55,287,42,1*65
$GPGSV,3,2,11,05,39,176,48,46,37,214,46,06,25,053,40,29,24,297,41,1*62
$GPGSV,3,3,11,19,09,100,43,28,07,311,29,09,05,055,28,1*50
$GPGSV,2,1,05,11,62,040,31,25,55,287,41,06,25,053,32,28,07,311,29,8*65
$GPGSV,2,2,05,09,05,055,35,8*52
$GLGSV,3,1,09,86,55,016,36,77,46,295,27,76,46,222,42,87,41,290,38,1*7B
$GLGSV,3,2,09,71,25,110,42,70,25,055,24,85,16,060,31,72,04,151,38,1*70
$GLGSV,3,3,09,75,03,180,43,1*4E
$GAGSV,3,1,09,30,65,203,44,34,65,031,36,15,54,257,43,27,44,305,35,7*7D
$GAGSV,3,2,09,02,20,159,43,36,15,054,38,09,05,053,28,05,05,102,38,7*72
$GAGSV,3,3,09,13,04,242,34,7*4F
$GAGSV,3,1,09,30,65,203,45,34,65,031,23,15,54,257,40,27,44,305,39,1*71
$GAGSV,3,2,09,02,20,159,39,36,15,054,35,09,05,053,32,05,05,102,38,1*7F
$GAGSV,3,3,09,13,04,242,46,1*4C
$GBGSV,4,1,14,34,66,319,45,12,63,039,29,11,46,290,39,44,44,069,41,1*75
$GBGSV,4,2,14,25,38,253,47,22,29,072,44,21,29,132,44,43,23,280,40,1*70
$GBGSV,4,3,14,23,21,309,37,24,19,195,47,39,04,325,15,42,03,174,51,1*75
$GBGSV,4,4,14,19,03,028,26,16,03,333,19,1*79
$GBGSV,3,1,11,34,66,319,34,44,44,069,37,25,38,253,41,21,29,132,44,5*75
$GBGSV,3,2,11,22,29,072,37,43,23,280,20,23,21,309,38,24,19,195,42,5*71
$GBGSV,3,3,11,39,04,325,20,42,03,174,46,19,03,028,22,5*4E
$GNGGA,215707.000,4005.098110,N,10513.208988,W,2,56,0.48,1582.048,M,-20.670,M,,*73
$GPGSV,3,1,11,12,68,216,44,20,65,129,43,11,62,040,36,25,55,287,41,1*68
$GPGSV,3,2,11,05,39,176,48,46,37,214,46,06,25,053,40,29,24,298,41,1*6D
$GPGSV,3,3,11,19,09,100,43,28,07,310,30,09,05,055,29,1*58
$GPGSV,2,1,05,11,62,040,31,25,55,287,40,06,25,053,33,28,07,310,28,8*65
$GPGSV,2,2,05,09,05,055,34,8*53
$GLGSV,3,1,09,86,55,016,35,77,46,295,27,76,46,222,42,87,41,290,39,1*79
$GLGSV,3,2,09,71,25,110,42,70,25,055,24,85,16,060,31,72,04,151,37,1*7F
$GLGSV,3,3,09,75,03,180,43,1*4E
$GAGSV,3,1,09,30,65,203,44,34,65,031,36,15,54,257,43,27,44,305,37,7*7F
$GAGSV,3,2,09,02,20,159,43,36,15,054,38,09,05,053,27,05,05,102,37,7*72
$GAGSV,3,3,09,13,04,242,36,7*4D
$GAGSV,3,1,09,30,65,203,45,34,65,031,25,15,54,257,40,27,44,305,39,1*77
$GAGSV,3,2,09,02,20,159,39,36,15,054,35,09,05,053,32,05,05,102,38,1*7F
$GAGSV,3,3,09,13,04,242,46,1*4C
$GBGSV,4,1,14,34,66,319,43,12,63,039,30,11,46,290,39,44,44,069,41,1*7B
$GBGSV,4,2,14,25,38,253,47,22,29,072,44,21,29,132,44,43,23,280,41,1*71
$GBGSV,4,3,14,23,21,309,36,24,19,195,47,39,04,325,17,42,03,174,51,1*76
$GBGSV,4,4,14,19,03,028,24,16,03,333,19,1*7B
$GBGSV,3,1,11,34,66,319,35,44,44,069,37,25,38,253,41,21,29,132,44,5*74
$GBGSV,3,2,11,22,29,072,36,43,23,280,27,23,21,309,38,24,19,195,41,5*74
$GBGSV,3,3,11,39,04,325,19,42,03,174,46,19,03,028,22,5*44
$GNGGA,215712.000,4005.098104,N,10513.209030,W,2,56,0.48,1581.888,M,-20.669,M,,*76
$GPGSV,3,1,11,12,68,216,44,20,65,129,43,11,62,040,36,25,55,287,40,1*69
$GPGSV,3,2,11,05,39,176,48,46,37,214,46,06,25,053,40,29,24,298,42,1*6E
$GPGSV,3,3,11,19,09,100,42,28,07,310,30,09,05,055,30,1*51
$GPGSV,2,1,05,11,62,040,30,25,55,287,40,06,25,053,33,28,07,310,30,8*6D
$GPGSV,2,2,05,09,05,055,34,8*53
$GLGSV,3,1,10,86,55,016,34,76,46,222,42,77,46,295,24,87,41,290,39,1*73
$GLGSV,3,2,10,70,25,055,24,71,25,110,43,85,16,060,34,72,04,151,37,1*73
$GLGSV,3,3,10,75,03,180,41,78,03,339,,1*71
$GAGSV,3,1,09,30,65,203,44,34,65,031,37,15,54,257,43,27,44,305,37,7*7E
$GAGSV,3,2,09,02,20,159,43,36,15,054,38,05,05,102,37,09,05,053,28,7*7D
$GAGSV,3,3,09,13,04,242,38,7*43
$GAGSV,3,1,09,30,65,203,44,34,65,031,22,15,54,257,39,27,44,305,38,1*7E
$GAGSV,3,2,09,02,20,159,36,36,15,054,34,09,05,053,30,05,05,102,36,1*7D
$GAGSV,3,3,09,13,04,242,45,1*4F
$GBGSV,4,1,14,34,66,319,43,12,63,039,31,11,46,290,39,44,44,069,41,1*7A
$GBGSV,4,2,14,25,38,253,46,22,29,072,45,21,29,132,43,43,23,280,42,1*75
$GBGSV,4,3,14,23,21,309,38,24,19,195,47,39,04,325,18,16,03,333,19,1*7B
$GBGSV,4,4,14,42,03,174,51,19,03,028,21,1*72
$GBGSV,3,1,11,34,66,319,34,44,44,069,36,25,38,253,40,21,29,132,44,5*75
$GBGSV,3,2,11,22,29,072,35,43,23,280,28,23,21,309,37,24,19,195,40,5*76
$GBGSV,3,3,11,39,04,325,18,42,03,174,45,19,03,028,22,5*46
$GNGGA,215717.000,4005.098110,N,10513.208970,W,2,56,0.48,1581.790,M,-20.670,M,,*74
$GPGSV,3,1,11,12,68,216,44,20,65,129,43,11,62,040,35,25,55,287,40,1*6A
$GPGSV,3,2,11,05,39,176,49,46,37,214,46,06,25,053,40,29,24,298,40,1*6D
$GPGSV,3,3,11,19,09,100,42,28,07,310,34,09,05,055,29,1*5D
$GPGSV,2,1,05,11,62,040,34,25,55,287,41,06,25,053,34,28,07,310,31,8*6E
$GPGSV,2,2,05,09,05,055,35,8*52
$GLGSV,3,1,09,86,55,016,35,77,46,295,26,76,46,222,43,87,41,290,38,1*78
$GLGSV,3,2,09,71,25,110,43,70,25,055,25,85,16,060,35,72,04,151,38,1*74
$GLGSV,3,3,09,75,03,180,40,1*4D
$GAGSV,3,1,09,30,65,203,44,34,65,031,37,15,54,257,43,27,44,305,38,7*71
$GAGSV,3,2,09,02,19,159,43,36,15,054,39,09,05,053,29,05,05,102,37,7*77
$GAGSV,3,3,09,13,04,242,38,7*43
$GAGSV,3,1,09,30,65,203,44,34,65,031,28,15,54,257,39,27,44,305,40,1*7B
$GAGSV,3,2,09,02,19,159,37,36,15,054,35,09,05,053,31,05,05,102,36,1*76
$GAGSV,3,3,09,13,04,242,44,1*4E
$GBGSV,4,1,14,34,66,319,43,12,63,039,33,11,46,290,38,44,44,069,39,1*76
$GBGSV,4,2,14,25,38,253,46,22,29,072,45,21,29,132,43,43,23,280,43,1*74
$GBGSV,4,3,14,23,21,309,40,24,19,195,47,39,04,325,18,42,03,174,51,1*78
$GBGSV,4,4,14,19,03,028,21,16,03,333,19,1*7E
$GBGSV,3,1,11,34,66,319,35,44,44,069,37,25,38,253,40,21,29,132,43,5*72
$GBGSV,3,2,11,22,29,072,36,43,23,280,30,23,21,309,38,24,19,195,42,5*71
$GBGSV,3,3,11,39,04,325,19,42,03,174,46,19,03,028,23,5*45
$GNGGA,215722.000,4005.098086,N,10513.208916,W,2,56,0.48,1581.716,M,-20.670,M,,*72
$GPGSV,3,1,11,12,68,216,45,20,65,129,43,11,62,040,35,25,55,287,42,1*69
$GPGSV,3,2,11,05,39,176,49,46,37,214,46,06,25,053,40,29,24,298,41,1*6C
$GPGSV,3,3,11,19,09,100,42,28,07,310,33,09,05,055,30,1*52
$GPGSV,2,1,05,11,62,040,34,25,55,287,40,06,25,053,35,28,07,310,26,8*68
$GPGSV,2,2,05,09,05,055,34,8*53
$GLGSV,3,1,09,86,55,016,34,77,46,295,25,76,46,222,43,87,41,290,38,1*7A
$GLGSV,3,2,09,71,25,110,41,70,25,055,23,85,16,060,34,72,04,151,38,1*71
$GLGSV,3,3,09,75,03,180,41,1*4C
$GAGSV,3,1,09,30,65,203,44,34,65,031,37,15,54,257,43,27,44,305,39,7*70
$GAGSV,3,2,09,02,19,159,43,36,15,054,39,05,06,101,37,09,05,053,28,7*76
$GAGSV,3,3,09,13,04,242,39,7*42
$GAGSV,3,1,09,30,65,203,44,34,65,031,25,15,54,257,39,27,44,305,40,1*76
$GAGSV,3,2,09,02,19,159,37,36,15,054,36,05,06,101,36,09,05,053,32,1*76
$GAGSV,3,3,09,13,04,242,43,1*49
$GBGSV,4,1,14,34,66,319,43,12,63,039,35,11,46,290,40,44,44,069,37,1*71
$GBGSV,4,2,14,25,38,253,46,22,29,072,45,21,29,132,43,43,23,280,43,1*74
$GBGSV,4,3,14,23,21,309,39,24,19,195,48,39,04,325,16,42,03,174,51,1*77
$GBGSV,4,4,14,16,03,333,19,19,03,028,20,1*7F
$GBGSV,3,1,11,34,66,319,35,44,44,069,38,25,38,253,41,21,29,132,43,5*7C
$GBGSV,3,2,11,22,29,072,33,43,23,280,26,23,21,309,38,24,19,195,41,5*70
$GBGSV,3,3,11,39,04,325,18,42,03,174,46,19,03,028,23,5*44
$GNGGA,215727.000,4005.098002,N,10513.208832,W,2,56,0.48,1581.813,M,-20.670,M,,*76
$GPGSV,3,1,11,12,68,216,45,20,65,129,43,11,62,040,36,25,55,287,42,1*6A
$GPGSV,3,2,11,05,39,176,49,46,37,214,46,06,25,053,38,29,24,298,42,1*60
$GPGSV,3,3,11,19,09,100,42,28,07,310,36,09,05,055,30,1*57
$GPGSV,2,1,05,11,62,040,33,25,55,287,39,06,25,053,35,28,07,310,26,8*61
$GPGSV,2,2,05,09,05,055,34,8*53
$GLGSV,3,1,09,86,55,016,36,77,46,295,26,76,46,222,44,87,41,290,39,1*7D
$GLGSV,3,2,09,71,25,110,41,70,25,055,22,85,16,060,36,72,04,151,38,1*72
$GLGSV,3,3,09,75,03,180,41,1*4C
$GAGSV,3,1,09,30,65,203,44,34,65,031,37,15,54,257,43,27,44,305,38,7*71
$GAGSV,3,2,09,02,19,159,43,36,15,054,39,05,06,101,38,09,05,053,28,7*79
$GAGSV,3,3,09,13,04,242,39,7*42
$GAGSV,3,1,09,30,65,203,44,34,65,031,26,15,54,257,39,27,44,305,41,1*74
$GAGSV,3,2,09,02,19,159,38,36,15,054,37,05,06,101,36,09,05,053,33,1*79
$GAGSV,3,3,09,13,04,242,44,1*4E
$GBGSV,4,1,15,34,66,319,43,12,63,039,34,11,46,290,40,44,44,069,38,1*7E
$GBGSV,4,2,15,25,38,253,46,22,29,072,45,21,29,132,44,43,23,280,43,1*72
$GBGSV,4,3,15,23,21,309,39,24,19,195,48,39,04,325,13,19,03,028,20,1*73
$GBGSV,4,4,15,16,03,333,19,42,03,174,51,58,,,27,1*76
$GBGSV,3,1,11,34,66,319,35,44,44,069,39,25,38,253,41,21,29,132,44,5*7A
$GBGSV,3,2,11,22,29,072,32,43,23,280,24,23,21,309,38,24,19,195,41,5*73
$GBGSV,3,3,11,39,04,325,18,42,03,174,47,19,03,028,23,5*45
$GNGGA,215732.000,4005.097990,N,10513.208760,W,2,58,0.46,1582.020,M,-20.670,M,,*7C
$GPGSV,3,1,11,12,68,216,45,20,65,129,43,11,62,040,37,25,55,287,42,1*6B
$GPGSV,3,2,11,05,39,176,49,46,37,214,46,06,25,053,38,29,24,298,42,1*60
$GPGSV,3,3,11,19,09,100,42,28,07,310,34,09,05,055,30,1*55
$GPGSV,2,1,05,11,62,040,33,25,55,287,40,06,25,053,37,28,07,310,29,8*62
$GPGSV,2,2,05,09,05,055,35,8*52
$GLGSV,3,1,09,86,55,016,35,77,46,295,25,76,46,222,44,87,41,290,40,1*73
$GLGSV,3,2,09,71,25,110,42,70,25,055,22,85,16,060,35,72,04,151,41,1*7C
$GLGSV,3,3,09,75,03,180,39,1*43
$GAGSV,3,1,09,30,65,203,44,34,65,031,37,15,54,258,44,27,44,305,37,7*76
$GAGSV,3,2,09,02,19,159,44,36,15,054,39,05,06,101,37,13,05,242,39,7*78
$GAGSV,3,3,09,09,05,053,26,7*44
$GAGSV,3,1,09,30,65,203,45,34,65,031,25,15,54,258,40,27,44,305,40,1*76
$GAGSV,3,2,09,02,19,159,37,36,15,054,37,05,06,101,36,09,05,053,33,1*76
$GAGSV,3,3,09,13,05,242,45,1*4E
$GBGSV,4,1,15,34,66,319,43,12,63,039,35,11,46,290,40,44,44,069,38,1*7F
$GBGSV,4,2,15,25,38,253,46,22,29,072,45,21,29,132,43,43,23,280,43,1*75
$GBGSV,4,3,15,23,21,309,37,24,19,195,48,39,04,325,12,19,03,028,20,1*7C
$GBGSV,4,4,15,16,03,333,18,42,03,174,50,58,,,27,1*76
$GBGSV,3,1,11,34,66,319,36,44,44,069,39,25,38,253,41,21,29,132,44,5*79
$GBGSV,3,2,11,22,29,072,32,43,23,280,26,23,21,309,36,24,19,195,40,5*7E
$GBGSV,3,3,11,39,04,325,18,42,03,174,47,19,03,028,23,5*45
$GNGGA,215737.000,4005.098014,N,10513.208676,W,2,58,0.46,1582.282,M,-20.669,M,,*77
$GPGSV,3,1,11,12,68,216,44,20,65,129,43,11,62,040,36,25,55,287,42,1*6B
$GPGSV,3,2,11,05,39,176,49,46,37,214,45,06,25,053,38,29,24,298,43,1*62
$GPGSV,3,3,11,19,09,100,42,28,07,310,33,09,05,055,28,1*5B
$GPGSV,2,1,05,11,62,040,33,25,55,287,40,06,25,053,37,28,07,310,29,8*62
$GPGSV,2,2,05,09,05,055,35,8*52
$GLGSV,3,1,09,86,55,016,31,77,46,295,24,76,46,222,44,87,41,290,40,1*76
$GLGSV,3,2,09,71,25,110,42,70,25,055,23,85,16,060,31,72,04,151,41,1*79
$GLGSV,3,3,09,75,03,180,38,1*42
$GAGSV,3,1,09,30,65,203,44,34,65,031,37,15,54,258,44,27,44,305,37,7*76
$GAGSV,3,2,09,02,19,159,44,36,15,054,39,05,06,101,37,13,05,242,40,7*76
$GAGSV,3,3,09,09,05,053,28,7*4A
$GAGSV,3,1,09,30,65,203,45,34,65,031,23,15,54,258,40,27,44,305,40,1*70
$GAGSV,3,2,09,02,19,159,36,36,15,054,37,05,06,101,36,09,05,053,33,1*77
$GAGSV,3,3,09,13,05,242,45,1*4E
$GBGSV,4,1,15,34,66,319,43,12,63,039,34,11,46,290,39,44,44,069,38,1*70
$GBGSV,4,2,15,25,38,253,46,22,29,072,45,21,29,132,43,43,23,280,43,1*75
$GBGSV,4,3,15,23,21,309,36,24,19,195,48,39,04,325,15,19,03,028,17,1*7E
$GBGSV,4,4,15,16,03,333,18,42,03,174,50,52,,,28,1*73
$GBGSV,3,1,11,34,66,319,36,44,44,069,39,25,38,253,41,21,29,132,44,5*79
$GBGSV,3,2,11,22,29,072,30,43,23,280,28,23,21,309,35,24,19,195,40,5*71
$GBGSV,3,3,11,39,04,325,18,42,03,174,47,19,03,028,23,5*45
$GNGGA,215742.000,4005.098068,N,10513.208670,W,2,58,0.46,1582.414,M,-20.670,M,,*79
$GPGSV,3,1,11,12,68,216,44,20,65,129,43,11,62,040,35,25,55,287,42,1*68
$GPGSV,3,2,11,05,39,176,49,46,37,214,45,06,25,053,38,29,24,298,43,1*62
$GPGSV,3,3,11,19,09,100,42,28,07,310,31,09,05,055,32,1*52
$GPGSV,2,1,05,11,62,040,33,25,55,287,40,06,25,053,36,28,07,310,30,8*6B
$GPGSV,2,2,05,09,05,055,35,8*52
$GLGSV,3,1,09,86,55,016,33,77,46,295,25,76,46,222,44,87,41,290,40,1*75
$GLGSV,3,2,09,71,25,110,41,70,25,055,24,85,16,060,33,72,04,151,42,1*7C
$GLGSV,3,3,09,75,03,180,39,1*43
$GAGSV,3,1,09,30,65,203,44,34,65,031,37,15,54,258,44,27,44,305,38,7*79
$GAGSV,3,2,09,02,19,159,44,36,15,054,39,05,06,101,38,13,05,242,40,7*79
$GAGSV,3,3,09,09,05,053,27,7*45
$GAGSV,3,1,09,30,65,203,45,34,65,031,25,15,54,258,40,27,44,305,40,1*76
$GAGSV,3,2,09,02,19,159,36,36,15,054,37,05,06,101,36,09,05,053,33,1*77
$GAGSV,3,3,09,13,05,242,45,1*4E
$GBGSV,4,1,15,34,66,319,44,12,63,039,34,11,46,290,39,44,44,069,38,1*77
$GBGSV,4,2,15,25,38,253,46,22,29,072,45,21,29,132,43,43,23,280,43,1*75
$GBGSV,4,3,15,23,21,309,36,24,19,195,48,39,04,325,14,19,03,028,17,1*7F
$GBGSV,4,4,15,16,03,333,18,42,03,174,50,52,,,28,1*73
$GBGSV,3,1,11,34,66,319,36,44,44,069,39,25,38,253,41,21,29,132,44,5*79
$GBGSV,3,2,11,22,29,072,32,43,23,280,29,23,21,309,35,24,19,195,40,5*72
$GBGSV,3,3,11,39,04,325,17,42,03,174,47,19,03,028,22,5*4B
$GNGGA,215747.000,4005.098152,N,10513.208640,W,2,58,0.46,1582.498,M,-20.670,M,,*73
$GPGSV,3,1,11,12,68,216,44,20,65,129,43,11,62,040,34,25,55,287,42,1*69
$GPGSV,3,2,11,05,39,176,49,46,37,214,45,06,25,053,38,29,24,298,42,1*63
$GPGSV,3,3,11,19,09,100,41,28,07,310,31,09,05,055,32,1*51
$GPGSV,2,1,05,11,62,040,33,25,55,287,40,06,25,053,36,28,07,310,26,8*6C
$GPGSV,2,2,05,09,05,055,35,8*52
$GLGSV,3,1,09,86,55,016,34,77,46,295,25,76,46,222,45,87,41,290,40,1*73
$GLGSV,3,2,09,71,25,110,40,70,25,055,24,85,16,060,33,72,04,151,43,1*7C
$GLGSV,3,3,09,75,03,180,40,1*4D
$GAGSV,3,1,09,34,65,031,37,30,64,202,44,15,54,258,44,27,44,305,37,7*76
$GAGSV,3,2,09,02,19,159,44,36,15,054,39,05,06,101,38,13,05,242,41,7*78
$GAGSV,3,3,09,09,05,053,27,7*45
$GAGSV,3,1,09,34,65,031,26,30,64,202,45,15,54,258,40,27,44,305,40,1*75
$GAGSV,3,2,09,02,19,159,35,36,15,054,37,05,06,101,37,09,05,053,33,1*75
$GAGSV,3,3,09,13,05,242,46,1*4D
$GBGSV,4,1,16,34,66,319,45,12,63,039,31,11,46,290,41,44,44,069,38,1*7F
$GBGSV,4,2,16,25,38,253,46,22,29,072,45,21,29,132,43,43,23,280,42,1*77
$GBGSV,4,3,16,23,21,309,38,24,19,195,48,39,04,325,14,42,03,174,50,1*77
$GBGSV,4,4,16,16,03,333,16,19,03,028,17,52,,,27,55,,,28,1*7E
$GBGSV,3,1,11,34,66,319,35,44,44,069,39,25,38,253,41,21,29,132,44,5*7A
$GBGSV,3,2,11,22,29,072,33,43,23,280,28,23,21,309,38,24,19,195,40,5*7F
$GBGSV,3,3,11,39,04,325,18,42,03,174,48,19,03,028,22,5*4B
$GNGGA,215752.000,4005.098170,N,10513.208610,W,2,58,0.46,1582.334,M,-20.670,M,,*73
$GPGSV,3,1,11,12,68,216,44,20,65,129,43,11,62,040,34,25,55,287,41,1*6A
$GPGSV,3,2,11,05,39,176,49,46,37,214,46,06,25,053,39,29,24,298,42,1*61
$GPGSV,3,3,11,19,09,100,41,28,07,310,34,09,05,055,31,1*57
$GPGSV,2,1,05,11,62,040,33,25,55,287,38,06,25,053,37,28,07,310,29,8*6D
$GPGSV,2,2,05,09,05,055,35,8*52
$GLGSV,3,1,09,86,55,016,32,77,46,295,25,76,46,222,45,87,41,290,40,1*75
$GLGSV,3,2,09,71,25,110,40,70,25,055,23,85,16,060,33,72,04,151,43,1*7B
$GLGSV,3,3,09,75,03,180,42,1*4F
$GAGSV,3,1,09,30,64,202,44,34,64,032,38,15,54,258,44,27,44,305,37,7*7B
$GAGSV,3,2,09,02,19,159,44,36,15,054,39,05,06,101,38,13,05,242,42,7*7B
$GAGSV,3,3,09,09,05,053,27,7*45
$GAGSV,3,1,09,30,64,202,45,34,64,032,24,15,54,258,40,27,44,305,38,1*7A
$GAGSV,3,2,09,02,19,159,35,36,15,054,37,05,06,101,37,09,05,053,34,1*72
$GAGSV,3,3,09,13,05,242,45,1*4E
$GBGSV,4,1,15,34,66,319,45,12,63,039,29,11,46,290,41,44,44,069,37,1*7A
$GBGSV,4,2,15,25,38,253,46,22,29,072,45,21,29,132,43,43,23,280,42,1*74
$GBGSV,4,3,15,23,21,309,36,24,19,195,49,39,04,325,17,19,03,028,19,1*73
$GBGSV,4,4,15,16,03,333,16,42,03,174,49,55,,,27,1*7D
$GBGSV,3,1,11,34,66,319,34,44,44,069,40,25,38,253,41,21,29,132,44,5*75
$GBGSV,3,2,11,22,29,072,32,43,23,280,25,23,21,309,36,24,19,195,39,5*73
$GBGSV,3,3,11,39,04,325,18,42,03,174,49,19,03,028,21,5*49
$GNGGA,215757.000,4005.098146,N,10513.208634,W,2,58,0.46,1582.245,M,-20.670,M,,*72
$GPGSV,3,1,11,12,68,216,44,20,65,129,44,11,62,040,34,25,55,287,40,1*6C
$GPGSV,3,2,11,05,39,176,49,46,37,214,46,06,25,053,39,29,24,298,43,1*60
$GPGSV,3,3,11,19,09,100,40,28,07,310,34,09,05,055,31,1*56
$GPGSV,2,1,05,11,62,040,34,25,55,287,40,06,25,053,37,28,07,310,29,8*65
$GPGSV,2,2,05,09,05,055,35,8*52
$GLGSV,3,1,09,86,55,016,32,77,46,295,26,76,46,222,45,87,41,290,39,1*78
$GLGSV,3,2,09,71,25,110,42,70,25,053,24,85,16,060,35,72,04,151,44,1*79
$GLGSV,3,3,09,75,03,180,41,1*4C
$GAGSV,3,1,09,30,64,202,44,34,64,032,38,15,54,258,44,27,44,305,37,7*7B
$GAGSV,3,2,09,02,19,159,44,36,15,054,39,05,06,101,38,13,05,242,42,7*7B
$GAGSV,3,3,09,09,05,053,26,7*44
$GAGSV,3,1,09,30,64,202,45,34,64,032,24,15,54,258,40,27,44,305,38,1*7A
$GAGSV,3,2,09,02,19,159,34,36,15,054,37,05,06,101,37,09,05,053,34,1*73
$GAGSV,3,3,09,13,05,242,45,1*4E
$GBGSV,4,1,15,34,66,319,45,12,63,039,30,11,46,290,41,44,44,069,37,1*72
$GBGSV,4,2,15,25,38,253,46,22,29,072,45,21,29,132,43,43,23,280,42,1*74
$GBGSV,4,3,15,23,21,309,36,24,19,195,49,39,04,325,17,19,03,028,21,1*78
$GBGSV,4,4,15,16,03,333,16,42,03,174,49,55,,,26,1*7C
$GBGSV,3,1,11,34,66,319,35,44,44,069,40,25,38,253,42,21,29,132,44,5*77
$GBGSV,3,2,11,22,29,072,33,43,23,280,27,23,21,309,37,24,19,195,39,5*71
$GBGSV,3,3,11,39,04,325,18,42,03,174,49,19,03,028,23,5*4B
$GNGGA,215802.000,4005.098182,N,10513.208676,W,2,59,0.44,1582.221,M,-20.669,M,,*7A
$GPGSV,3,1,11,12,68,216,44,20,65,129,44,11,62,040,33,25,55,287,40,1*6B
$GPGSV,3,2,11,05,39,176,49,46,37,214,46,06,25,053,39,29,24,298,43,1*60
$GPGSV,3,3,11,19,09,100,40,28,07,310,34,09,05,055,28,1*5E
$GPGSV,2,1,05,11,62,040,34,25,55,287,40,06,25,053,35,28,07,310,30,8*6F
$GPGSV,2,2,05,09,05,055,35,8*52
$GLGSV,3,1,09,86,55,016,34,77,46,295,25,76,46,222,45,87,41,290,38,1*7C
$GLGSV,3,2,09,71,26,109,41,70,25,053,25,85,16,060,35,72,05,151,45,1*70
$GLGSV,3,3,09,75,02,179,41,1*4B
$GAGSV,3,1,09,30,64,202,44,34,64,032,38,15,54,258,44,27,44,305,37,7*7B
$GAGSV,3,2,09,02,19,159,44,36,15,054,39,05,06,101,38,13,05,242,43,7*7A
$GAGSV,3,3,09,09,05,053,25,7*47
$GAGSV,3,1,09,30,64,202,45,34,64,032,25,15,54,258,40,27,44,305,39,1*7A
$GAGSV,3,2,09,02,19,159,34,36,15,054,37,05,06,101,37,09,05,053,34,1*73
$GAGSV,3,3,09,13,05,242,45,1*4E
$GBGSV,4,1,15,34,66,319,44,12,63,039,31,11,46,290,41,44,44,069,37,1*72
$GBGSV,4,2,15,25,38,253,46,22,29,072,45,21,29,132,43,43,23,280,42,1*74
$GBGSV,4,3,15,23,21,309,37,24,19,195,49,39,04,325,19,19,03,028,22,1*74
$GBGSV,4,4,15,16,03,333,16,42,03,174,48,55,,,26,1*7D
$GBGSV,3,1,11,34,66,319,35,44,44,069,40,25,38,253,42,21,29,132,44,5*77
$GBGSV,3,2,11,22,29,072,34,43,23,280,28,23,21,309,38,24,19,195,39,5*76
$GBGSV,3,3,11,39,04,325,18,42,03,174,49,19,03,028,22,5*4A
$GNGGA,215807.000,4005.098218,N,10513.208622,W,2,59,0.44,1582.381,M,-20.669,M,,*75
$GPGSV,3,1,11,12,68,216,44,20,65,129,43,11,62,040,35,25,55,287,40,1*6A
$GPGSV,3,2,11,05,39,176,49,46,37,214,46,06,25,053,40,29,24,298,43,1*6E
$GPGSV,3,3,11,19,09,100,39,28,07,310,34,09,05,055,29,1*51
$GPGSV,2,1,05,11,62,040,33,25,55,287,38,06,25,053,35,28,07,310,32,8*65
$GPGSV,2,2,05,09,05,055,35,8*52
$GLGSV,3,1,09,86,55,016,35,77,46,293,24,76,44,221,45,87,41,290,38,1*7B
$GLGSV,3,2,09,71,26,109,40,70,25,053,26,85,16,060,34,72,05,151,46,1*70
$GLGSV,3,3,09,75,02,179,43,1*49
$GAGSV,3,1,09,30,64,202,44,34,64,032,38,15,54,258,44,27,44,305,37,7*7B
$GAGSV,3,2,09,02,19,159,44,36,15,054,39,05,06,101,38,13,05,242,43,7*7A
$GAGSV,3,3,09,09,05,053,26,7*44
$GAGSV,3,1,09,30,64,202,45,34,64,032,25,15,54,258,40,27,44,305,39,1*7A
$GAGSV,3,2,09,02,19,159,34,36,15,054,36,05,06,101,37,09,05,053,33,1*75
$GAGSV,3,3,09,13,05,242,45,1*4E
$GBGSV,4,1,15,34,66,319,44,12,63,039,32,11,46,290,42,44,44,069,36,1*73
$GBGSV,4,2,15,25,38,253,46,22,29,072,46,21,29,132,43,43,23,280,42,1*77
$GBGSV,4,3,15,23,21,309,38,24,19,195,49,39,04,325,18,19,03,028,23,1*7B
$GBGSV,4,4,15,16,03,333,16,42,03,174,48,55,,,26,1*7D
$GBGSV,3,1,11,34,66,319,35,44,44,069,40,25,38,253,42,21,29,132,44,5*77
$GBGSV,3,2,11,22,29,072,34,43,23,280,29,23,21,309,38,24,19,195,39,5*77
$GBGSV,3,3,11,39,04,325,18,42,03,174,49,19,03,028,22,5*4A
$GNGGA,215812.000,4005.098254,N,10513.208538,W,2,59,0.44,1582.624,M,-20.670,M,,*73
$GPGSV,3,1,11,12,68,216,45,20,65,129,43,11,62,040,35,25,55,287,41,1*6A
$GPGSV,3,2,11,05,39,176,49,46,37,214,46,06,25,053,40,29,24,298,43,1*6E
$GPGSV,3,3,11,19,09,100,40,28,07,310,35,09,05,055,29,1*5E
$GPGSV,2,1,05,11,62,040,35,25,55,287,38,06,25,053,35,28,07,310,34,8*65
$GPGSV,2,2,05,09,05,055,36,8*51
$GLGSV,3,1,09,86,55,016,35,77,46,293,23,76,44,221,45,87,41,290,39,1*7D
$GLGSV,3,2,09,71,26,109,39,70,25,053,27,85,15,062,35,72,05,151,46,1*7F
$GLGSV,3,3,09,75,02,179,45,1*4F
$GAGSV,3,1,09,30,64,202,44,34,64,032,38,15,54,258,44,27,44,305,37,7*7B
$GAGSV,3,2,09,02,19,159,44,36,15,054,39,05,06,101,38,13,05,242,43,7*7A
$GAGSV,3,3,09,09,05,053,25,7*47
$GAGSV,3,1,09,30,64,202,45,34,64,032,27,15,54,258,40,27,44,305,39,1*78
$GAGSV,3,2,09,02,19,159,32,36,15,054,35,05,06,101,36,09,05,053,33,1*71
$GAGSV,3,3,09,13,05,242,44,1*4F
$GBGSV,4,1,15,34,66,319,44,12,63,039,32,11,46,290,42,44,44,069,36,1*73
$GBGSV,4,2,15,25,38,253,46,22,29,072,45,21,29,132,43,43,23,280,42,1*74
$GBGSV,4,3,15,23,21,309,37,24,19,195,49,39,04,325,18,19,03,028,23,1*74
$GBGSV,4,4,15,16,03,333,16,42,03,174,48,55,,,26,1*7D
$GBGSV,3,1,11,34,66,319,35,44,44,069,40,25,38,253,42,21,29,132,44,5*77
$GBGSV,3,2,11,22,29,072,34,43,23,280,30,23,21,309,38,24,19,195,38,5*7E
$GBGSV,3,3,11,39,04,325,18,42,03,174,49,19,03,028,21,5*49
$GNGGA,215817.000,4005.098308,N,10513.208472,W,2,59,0.44,1582.882,M,-20.670,M,,*73
$GPGSV,3,1,11,12,68,216,45,20,65,129,43,11,62,040,36,25,55,287,41,1*69
$GPGSV,3,2,11,05,39,176,50,46,37,214,46,06,25,053,40,29,24,298,43,1*66
$GPGSV,3,3,11,19,09,100,41,28,07,310,34,09,05,055,31,1*57
$GPGSV,2,1,05,11,62,040,35,25,55,287,38,06,25,053,37,28,07,310,31,8*62
$GPGSV,2,2,05,09,05,055,37,8*50
$GLGSV,3,1,09,86,55,018,33,77,46,293,23,76,44,221,45,87,41,291,39,1*74
$GLGSV,3,2,09,71,26,109,40,70,25,053,25,85,15,062,34,72,05,151,47,1*73
$GLGSV,3,3,09,75,02,179,45,1*4F
$GAGSV,3,1,09,30,64,202,44,34,64,032,37,15,54,258,44,27,44,305,38,7*7B
$GAGSV,3,2,09,02,19,159,44,36,15,054,39,05,06,101,38,13,05,242,43,7*7A
$GAGSV,3,3,09,09,05,053,26,7*44
$GAGSV,3,1,09,30,64,202,45,34,64,032,25,15,54,258,40,27,44,305,39,1*7A
$GAGSV,3,2,09,02,19,159,33,36,15,054,36,05,06,101,36,09,05,053,32,1*72
$GAGSV,3,3,09,13,05,242,44,1*4F
$GBGSV,4,1,15,34,66,319,44,12,63,039,33,11,46,290,42,44,44,069,37,1*73
$GBGSV,4,2,15,25,38,253,46,22,29,072,45,21,29,132,43,43,23,280,42,1*74
$GBGSV,4,3,15,23,21,309,39,24,19,195,49,39,04,325,19,19,03,028,21,1*79
$GBGSV,4,4,15,16,03,333,16,42,03,174,47,55,,,26,1*72
$GBGSV,3,1,11,34,66,319,35,44,44,069,40,25,38,253,42,21,29,132,44,5*77
$GBGSV,3,2,11,22,29,072,34,43,23,280,29,23,21,309,39,24,19,195,38,5*77
$GBGSV,3,3,11,39,04,325,18,42,03,174,49,19,03,028,21,5*49
$GNGGA,215822.000,4005.098356,N,10513.208466,W,2,59,0.44,1583.049,M,-20.670,M,,*75
$GPGSV,3,1,11,12,68,216,45,20,65,129,43,11,62,040,36,25,55,287,41,1*69
$GPGSV,3,2,11,05,39,176,50,46,37,214,46,06,25,053,40,29,24,298,43,1*66
$GPGSV,3,3,11,19,09,100,40,28,07,310,35,09,05,055,31,1*57
$GPGSV,2,1,05,11,62,040,35,25,55,287,39,06,25,053,37,28,07,310,32,8*60
$GPGSV,2,2,05,09,05,055,37,8*50
$GLGSV,3,1,09,86,55,018,31,77,46,293,23,76,44,221,46,87,41,291,39,1*75
$GLGSV,3,2,09,71,26,109,39,70,25,053,23,85,15,062,35,72,05,151,48,1*75
$GLGSV,3,3,09,75,02,179,43,1*49
$GAGSV,3,1,09,30,64,202,44,34,64,032,36,15,54,258,44,27,44,305,38,7*7A
$GAGSV,3,2,09,02,19,159,44,36,15,054,39,05,06,101,38,13,05,242,42,7*7B
$GAGSV,3,3,09,09,05,053,28,7*4A
$GAGSV,3,1,09,30,64,202,45,34,64,032,28,15,54,258,40,27,44,305,39,1*77
$GAGSV,3,2,09,02,19,159,34,36,15,054,36,05,06,101,36,09,05,053,32,1*75
$GAGSV,3,3,09,13,05,242,46,1*4D
$GBGSV,4,1,15,34,66,319,44,12,63,039,35,11,46,290,42,44,44,069,38,1*7A
$GBGSV,4,2,15,25,38,253,46,22,29,072,45,21,29,132,43,43,23,280,42,1*74
$GBGSV,4,3,15,23,21,309,35,24,19,195,49,39,04,325,19,19,03,028,21,1*75
$GBGSV,4,4,15,16,03,333,16,42,03,174,47,55,,,26,1*72
$GBGSV,3,1,11,34,66,319,35,44,44,069,40,25,38,253,42,21,29,132,44,5*77
$GBGSV,3,2,11,22,29,072,34,43,23,280,29,23,21,309,38,24,19,195,38,5*76
$GBGSV,3,3,11,39,04,325,18,42,03,174,49,19,03,028,21,5*49
$GNGGA,215827.000,4005.098464,N,10513.208472,W,2,59,0.44,1583.065,M,-20.669,M,,*75
$GPGSV,3,1,11,12,68,216,45,20,65,129,43,11,62,040,35,25,55,287,42,1*69
$GPGSV,3,2,11,05,39,176,50,46,37,214,46,06,25,053,40,29,24,298,43,1*66
$GPGSV,3,3,11,19,09,100,39,28,07,310,33,09,05,055,29,1*56
$GPGSV,2,1,05,11,62,040,35,25,55,287,39,06,25,053,37,28,07,310,32,8*60
$GPGSV,2,2,05,09,05,055,37,8*50
$GLGSV,3,1,09,86,55,018,29,77,46,293,24,76,44,221,46,87,41,291,39,1*7B
$GLGSV,3,2,09,71,26,109,39,70,25,053,20,85,15,062,35,72,05,151,48,1*76
$GLGSV,3,3,09,75,02,179,43,1*49
$GAGSV,3,1,09,30,64,202,44,34,64,032,36,15,54,258,44,27,44,305,38,7*7A
$GAGSV,3,2,09,02,19,159,44,36,15,054,39,05,06,101,38,13,05,242,43,7*7A
$GAGSV,3,3,09,09,05,053,28,7*4A
$GAGSV,3,1,09,30,64,202,45,34,64,032,27,15,54,258,40,27,44,305,39,1*78
$GAGSV,3,2,09,02,19,159,33,36,15,054,35,05,06,101,36,09,05,053,32,1*71
$GAGSV,3,3,09,13,05,242,46,1*4D
$GBGSV,4,1,15,34,66,319,44,12,62,040,35,11,46,291,42,44,44,069,38,1*74
$GBGSV,4,2,15,25,38,253,46,22,29,072,45,21,29,132,43,43,23,280,42,1*74
$GBGSV,4,3,15,23,21,309,36,24,19,195,49,39,04,325,18,19,03,028,20,1*76
$GBGSV,4,4,15,16,03,333,15,42,03,174,46,55,,,26,1*70
$GBGSV,3,1,11,34,66,319,35,44,44,069,40,25,38,253,42,21,29,132,44,5*77
$GBGSV,3,2,11,22,29,072,34,43,23,280,29,23,21,309,39,24,19,195,39,5*76
$GBGSV,3,3,11,39,04,325,18,42,03,174,49,19,03,028,21,5*49
$GNGGA,215832.000,4005.098482,N,10513.208400,W,2,59,0.44,1583.125,M,-20.670,M,,*71
$GPGSV,3,1,11,12,68,216,45,20,65,129,43,11,62,040,35,25,55,287,42,1*69
$GPGSV,3,2,11,05,39,176,50,46,37,214,46,06,25,053,40,29,24,298,43,1*66
$GPGSV,3,3,11,19,09,100,39,28,07,310,34,09,05,055,28,1*50
$GPGSV,2,1,05,11,62,040,36,25,55,287,39,06,25,053,37,28,07,310,31,8*60
$GPGSV,2,2,05,09,05,055,37,8*50
$GLGSV,3,1,09,86,55,018,29,77,46,293,24,76,44,221,46,87,41,291,40,1*75
$GLGSV,3,2,09,71,26,109,39,70,25,053,23,85,15,062,36,72,05,151,49,1*77
$GLGSV,3,3,09,75,02,179,45,1*4F
$GAGSV,3,1,09,30,64,202,44,34,64,032,36,15,54,258,44,27,44,305,38,7*7A
$GAGSV,3,2,09,02,19,159,44,36,15,054,39,05,06,101,39,13,05,242,43,7*7B
$GAGSV,3,3,09,09,05,053,29,7*4B
$GAGSV,3,1,09,30,64,202,45,34,64,032,27,15,54,258,40,27,44,305,38,1*79
$GAGSV,3,2,09,02,19,159,32,36,15,054,35,05,06,101,36,09,05,053,31,1*73
$GAGSV,3,3,09,13,05,242,45,1*4E
$GBGSV,4,1,16,34,66,319,44,12,62,040,35,11,46,291,42,44,44,069,38,1*77
$GBGSV,4,2,16,25,38,253,46,22,29,072,44,21,29,132,43,43,23,280,42,1*76
$GBGSV,4,3,16,23,21,309,37,24,19,195,50,39,04,325,18,42,03,174,46,1*7A
$GBGSV,4,4,16,16,03,333,13,19,03,028,19,49,,,26,55,,,26,1*70
$GBGSV,3,1,11,34,66,319,33,44,44,069,40,25,38,253,42,21,29,132,45,5*70
$GBGSV,3,2,11,22,29,072,34,43,23,280,29,23,21,309,39,24,19,195,39,5*76
$GBGSV,3,3,11,39,04,325,18,42,03,174,49,19,03,028,21,5*49
$GNGGA,215837.000,4005.098500,N,10513.208322,W,2,59,0.44,1583.193,M,-20.670,M,,*75
$GPGSV,3,1,11,12,68,216,45,20,65,129,43,11,62,040,35,25,55,287,42,1*69
$GPGSV,3,2,11,05,39,176,50,46,37,214,46,06,25,053,40,29,24,298,43,1*66
$GPGSV,3,3,11,19,09,100,39,28,07,310,35,09,05,055,26,1*5F
$GPGSV,2,1,05,11,62,040,36,25,55,287,38,06,25,053,37,28,07,310,31,8*61
$GPGSV,2,2,05,09,05,055,37,8*50
$GLGSV,3,1,09,86,55,018,29,77,46,293,24,76,44,221,46,87,41,291,40,1*75
$GLGSV,3,2,09,71,26,109,39,70,25,053,25,85,15,062,37,72,05,151,49,1*70
$GLGSV,3,3,09,75,02,179,46,1*4C
$GAGSV,3,1,09,30,64,202,44,34,64,032,36,15,54,258,44,27,44,305,38,7*7A
$GAGSV,3,2,09,02,19,159,45,36,15,054,39,05,06,101,38,09,05,053,29,7*7E
$GAGSV,3,3,09,13,05,242,44,7*49
$GAGSV,3,1,09,30,64,202,45,34,64,032,28,15,54,258,40,27,44,305,38,1*76
$GAGSV,3,2,09,02,19,159,32,36,15,054,35,05,06,101,36,09,05,053,31,1*73
$GAGSV,3,3,09,13,05,242,45,1*4E
$GBGSV,5,1,17,34,66,319,44,12,62,040,35,11,46,291,42,44,44,069,38,1*77
$GBGSV,5,2,17,25,38,253,45,21,30,131,43,22,29,070,44,43,23,280,42,1*7C
$GBGSV,5,3,17,23,21,309,34,24,19,195,50,39,04,325,18,16,03,333,14,1*7E
$GBGSV,5,4,17,42,03,174,46,19,02,027,20,51,,,27,55,,,27,1*7D
$GBGSV,5,5,17,49,,,27,1*78
$GBGSV,3,1,11,34,66,319,34,44,44,069,41,25,38,253,42,21,30,131,45,5*7D
$GBGSV,3,2,11,22,29,070,34,43,23,280,30,23,21,309,39,24,19,195,39,5*7C
$GBGSV,3,3,11,39,04,325,18,42,03,174,49,19,02,027,20,5*46
$GNGGA,215842.000,4005.098518,N,10513.208298,W,2,59,0.44,1583.337,M,-20.670,M,,*72
$GPGSV,3,1,11,12,68,216,45,20,65,129,43,11,62,040,35,25,55,287,42,1*69
$GPGSV,3,2,11,05,39,176,50,46,37,214,46,06,25,053,40,29,24,298,43,1*66
$GPGSV,3,3,11,19,09,100,39,28,07,310,35,09,05,055,26,1*5F
$GPGSV,2,1,05,11,62,040,36,25,55,287,38,06,25,053,37,28,07,310,32,8*62
$GPGSV,2,2,05,09,05,055,37,8*50
$GLGSV,3,1,09,86,55,018,29,77,46,293,23,76,44,221,46,87,41,291,39,1*7C
$GLGSV,3,2,09,71,26,109,39,70,25,053,23,85,15,062,37,72,05,151,49,1*76
$GLGSV,3,3,09,75,02,179,46,1*4C
$GAGSV,3,1,09,30,64,202,44,34,64,032,36,15,54,258,44,27,44,305,38,7*7A
$GAGSV,3,2,09,02,19,159,45,36,15,054,39,05,06,101,38,13,05,242,45,7*7D
$GAGSV,3,3,09,09,05,053,29,7*4B
$GAGSV,3,1,09,30,64,202,45,34,64,032,28,15,54,258,40,27,44,305,38,1*76
$GAGSV,3,2,09,02,19,159,31,36,15,054,36,05,06,101,36,09,05,053,32,1*70
$GAGSV,3,3,09,13,05,242,45,1*4E
$GBGSV,4,1,16,34,66,319,44,12,62,040,35,11,46,291,42,44,44,069,38,1*77
$GBGSV,4,2,16,25,37,252,45,21,30,131,43,22,29,070,44,43,23,280,43,1*73
$GBGSV,4,3,16,23,21,308,34,24,18,195,50,39,04,325,19,42,03,174,45,1*7B
$GBGSV,4,4,16,16,03,333,13,19,02,027,21,49,,,27,55,,,26,1*74
$GBGSV,3,1,11,34,66,319,34,44,44,069,41,25,37,252,42,21,30,131,45,5*73
$GBGSV,3,2,11,22,29,070,34,43,23,280,30,23,21,308,39,24,18,195,38,5*7D
$GBGSV,3,3,11,39,04,325,18,42,03,174,49,19,02,027,19,5*4C
$GNGGA,215847.000,4005.098512,N,10513.208262,W,2,59,0.44,1583.553,M,-20.670,M,,*7C
$GPGSV,3,1,11,12,68,216,44,20,65,129,43,11,62,040,36,25,55,287,42,1*6B
$GPGSV,3,2,11,05,39,176,50,46,37,214,46,06,25,053,41,29,24,298,42,1*66
$GPGSV,3,3,11,19,09,100,39,28,07,310,36,09,05,055,29,1*53
$GPGSV,2,1,05,11,62,040,36,25,55,287,39,06,25,053,37,28,07,310,33,8*62
$GPGSV,2,2,05,09,05,055,36,8*51
$GLGSV,3,1,10,86,55,018,31,77,46,293,25,76,44,221,46,87,41,291,38,1*7A
$GLGSV,3,2,10,71,26,109,38,70,25,053,23,85,15,062,37,72,05,151,49,1*7F
$GLGSV,3,3,10,78,04,339,27,75,02,179,46,1*73
$GAGSV,3,1,09,30,64,202,44,34,64,032,37,15,54,258,44,27,44,305,39,7*7A
$GAGSV,3,2,09,02,19,159,45,36,15,054,39,05,06,101,38,09,05,053,28,7*7F
$GAGSV,3,3,09,13,05,242,45,7*48
$GAGSV,3,1,09,30,64,202,45,34,64,032,28,15,54,258,40,27,44,305,38,1*76
$GAGSV,3,2,09,02,19,159,33,36,15,054,36,05,06,101,36,09,05,053,32,1*72
$GAGSV,3,3,09,13,05,242,44,1*4F
$GBGSV,4,1,16,34,66,319,44,12,62,040,35,11,46,291,42,44,44,069,38,1*77
$GBGSV,4,2,16,25,37,252,45,21,30,131,43,22,29,070,45,43,23,280,44,1*75
$GBGSV,4,3,16,23,21,308,35,24,18,195,50,39,04,325,19,16,03,333,15,1*7F
$GBGSV,4,4,16,42,03,174,45,19,02,027,20,55,,,26,49,,,28,1*79
$GBGSV,3,1,11,34,66,319,34,44,44,069,41,25,37,252,42,21,30,131,45,5*73
$GBGSV,3,2,11,22,29,070,34,43,23,280,30,23,21,308,39,24,18,195,38,5*7D
$GBGSV,3,3,11,39,04,325,19,42,03,174,49,19,02,027,19,5*4D
$GNGGA,215852.000,4005.098530,N,10513.208208,W,2,59,0.44,1583.733,M,-20.670,M,,*70
$GPGSV,3,1,11,12,68,216,44,20,65,129,43,11,62,040,37,25,55,287,42,1*6A
$GPGSV,3,2,11,05,39,176,50,46,37,214,46,06,25,053,41,29,24,298,42,1*66
$GPGSV,3,3,11,19,09,100,39,28,07,310,36,09,05,055,30,1*5B
$GPGSV,2,1,05,11,62,040,36,25,55,287,38,06,25,053,36,28,07,310,34,8*65
$GPGSV,2,2,05,09,05,055,35,8*52
$GLGSV,3,1,10,86,55,018,30,77,46,293,23,76,44,221,46,87,41,291,38,1*7D
$GLGSV,3,2,10,71,26,109,38,70,25,053,22,85,15,062,37,72,05,151,49,1*7E
$GLGSV,3,3,10,78,04,339,27,75,02,179,47,1*72
$GAGSV,3,1,09,34,64,032,37,30,64,202,44,15,54,258,44,27,44,305,39,7*7A
$GAGSV,3,2,09,02,19,159,46,36,15,054,40,05,06,101,38,13,05,242,44,7*71
$GAGSV,3,3,09,09,05,053,28,7*4A
$GAGSV,3,1,09,30,64,202,45,34,64,032,26,15,54,258,40,27,44,305,38,1*78
$GAGSV,3,2,09,02,19,159,33,36,15,054,35,05,06,101,36,09,05,053,32,1*71
$GAGSV,3,3,09,13,05,242,44,1*4F
$GBGSV,4,1,15,34,66,321,43,12,62,040,36,11,46,291,42,44,44,069,38,1*7B
$GBGSV,4,2,15,25,37,252,45,21,30,131,43,22,29,070,45,43,23,280,44,1*76
$GBGSV,4,3,15,23,21,308,38,24,18,195,50,39,04,325,17,16,03,333,15,1*7F
$GBGSV,4,4,15,42,03,174,44,19,02,027,18,55,,,25,1*74
$GBGSV,3,1,11,34,66,321,34,44,44,069,41,25,37,252,42,21,30,131,44,5*79
$GBGSV,3,2,11,22,29,070,34,43,23,280,30,23,21,308,40,24,18,195,38,5*73
$GBGSV,3,3,11,39,04,325,19,42,03,174,49,19,02,027,18,5*4C
$GNGGA,215857.000,4005.098566,N,10513.208184,W,2,59,0.44,1583.854,M,-20.670,M,,*7F
$GPGSV,3,1,11,12,68,216,44,20,65,129,43,11,62,040,37,25,55,287,42,1*6A
$GPGSV,3,2,11,05,39,176,50,46,37,214,46,06,25,053,40,29,24,298,42,1*67
$GPGSV,3,3,11,19,09,100,37,28,07,310,36,09,05,055,31,1*54
$GPGSV,2,1,05,11,62,040,35,25,55,287,39,06,25,053,37,28,07,310,35,8*67
$GPGSV,2,2,05,09,05,055,36,8*51
$GLGSV,3,1,10,86,55,018,31,77,46,293,22,76,44,221,46,87,41,291,38,1*7D
$GLGSV,3,2,10,71,26,109,37,70,25,053,24,85,15,062,35,72,05,151,49,1*75
$GLGSV,3,3,10,78,04,339,26,75,02,179,48,1*7C
$GAGSV,3,1,09,30,64,202,44,34,64,032,37,15,54,258,44,27,44,305,39,7*7A
$GAGSV,3,2,09,02,19,159,46,36,15,054,40,05,06,101,39,09,05,053,27,7*7C
$GAGSV,3,3,09,13,05,242,44,7*49
$GAGSV,3,1,09,30,64,202,45,34,64,032,27,15,54,258,40,27,44,305,39,1*78
$GAGSV,3,2,09,02,19,159,32,36,15,054,37,05,06,101,36,09,05,053,33,1*73
$GAGSV,3,3,09,13,05,242,44,1*4F
$GBGSV,4,1,16,34,66,321,43,12,62,040,36,11,46,291,42,44,44,069,38,1*78
$GBGSV,4,2,16,25,37,252,45,21,30,131,43,22,29,070,45,43,23,280,44,1*75
$GBGSV,4,3,16,23,21,308,39,24,18,195,50,42,04,174,44,39,03,324,15,1*7A
$GBGSV,4,4,16,16,03,333,14,19,02,027,21,55,,,26,52,,,26,1*78
$GBGSV,3,1,11,34,66,321,34,44,44,069,42,25,37,252,42,21,30,131,45,5*7B
$GBGSV,3,2,11,22,29,070,31,43,23,280,32,23,21,308,40,24,18,195,38,5*74
$GBGSV,3,3,11,42,04,174,49,39,03,324,19,19,02,027,18,5*4D
$GNGGA,215902.000,4005.098644,N,10513.208220,W,2,59,0.44,1583.765,M,-20.670,M,,*7D
$GPGSV,3,1,11,12,68,216,44,20,65,129,43,11,62,040,37,25,55,287,43,1*6B
$GPGSV,3,2,11,05,39,176,50,46,37,214,45,06,25,053,40,29,24,298,42,1*64
$GPGSV,3,3,11,19,09,100,32,28,07,310,35,09,05,055,29,1*5B
$GPGSV,2,1,05,11,62,040,34,25,55,287,38,06,25,053,38,28,07,310,35,8*68
$GPGSV,2,2,05,09,05,055,36,8*51
$GLGSV,3,1,10,86,55,018,31,77,46,293,23,76,44,221,46,87,41,291,38,1*7C
$GLGSV,3,2,10,71,26,109,36,70,25,053,25,85,15,062,35,72,05,151,49,1*75
$GLGSV,3,3,10,78,04,339,27,75,02,179,48,1*7D
$GAGSV,3,1,09,34,64,032,37,30,64,202,45,15,54,258,44,27,44,305,39,7*7B
$GAGSV,3,2,09,02,19,159,46,36,15,054,40,05,06,101,39,13,05,242,45,7*71
$GAGSV,3,3,09,09,05,053,27,7*45
$GAGSV,3,1,09,30,64,202,45,34,64,032,28,15,54,258,40,27,44,305,38,1*76
$GAGSV,3,2,09,02,19,159,32,36,15,054,37,05,06,101,36,09,05,053,33,1*73
$GAGSV,3,3,09,13,05,242,44,1*4F
$GBGSV,4,1,15,34,66,321,43,12,62,040,36,11,46,291,41,44,43,070,38,1*77
$GBGSV,4,2,15,25,37,252,45,21,30,131,43,22,29,070,45,43,24,280,44,1*71
$GBGSV,4,3,15,23,21,308,39,24,18,195,50,42,04,174,44,39,03,324,14,1*78
$GBGSV,4,4,15,16,03,333,15,19,02,027,25,55,,,26,1*7D
$GBGSV,3,1,11,34,66,321,34,44,43,070,42,25,37,252,42,21,30,131,45,5*74
$GBGSV,3,2,11,22,29,070,30,43,24,280,32,23,21,308,40,24,18,195,38,5*72
$GBGSV,3,3,11,42,04,174,50,39,03,324,19,19,02,027,18,5*45
$GNGGA,215907.000,4005.098716,N,10513.208274,W,2,59,0.44,1583.614,M,-20.670,M,,*78
$GPGSV,3,1,11,12,68,216,44,20,65,129,43,11,62,040,37,25,55,287,43,1*6B
$GPGSV,3,2,11,05,39,176,50,46,37,214,45,06,25,053,40,29,24,298,42,1*64
$GPGSV,3,3,11,19,09,100,33,28,07,310,36,09,05,055,28,1*58
$GPGSV,2,1,05,11,62,040,34,25,55,287,38,06,25,053,38,28,07,310,35,8*68
$GPGSV,2,2,05,09,05,055,36,8*51
$GLGSV,3,1,10,86,55,018,28,77,46,293,24,76,44,221,46,87,41,291,38,1*73
$GLGSV,3,2,10,71,26,109,36,70,25,053,25,85,15,062,36,72,05,151,50,1*7E
$GLGSV,3,3,10,78,04,339,28,75,02,179,49,1*73
$GAGSV,3,1,09,34,64,032,37,30,64,202,45,15,54,258,44,27,44,305,39,7*7B
$GAGSV,3,2,09,02,19,159,46,36,15,054,40,05,06,101,39,13,05,242,47,7*73
$GAGSV,3,3,09,09,05,053,27,7*45
$GAGSV,3,1,09,30,64,202,45,34,64,032,28,15,54,258,40,27,44,305,38,1*76
$GAGSV,3,2,09,02,19,159,32,36,15,054,38,05,06,101,36,09,05,053,33,1*7C
$GAGSV,3,3,09,13,05,242,44,1*4F
$GBGSV,4,1,15,34,66,321,43,12,62,040,36,11,46,291,41,44,43,070,39,1*76
$GBGSV,4,2,15,25,37,252,45,21,30,131,44,22,29,070,45,43,24,280,44,1*76
$GBGSV,4,3,15,23,21,308,40,24,18,195,50,42,04,174,41,39,03,324,16,1*71
$GBGSV,4,4,15,16,03,333,14,19,02,027,26,55,,,26,1*7F
$GBGSV,3,1,11,34,66,321,34,44,43,070,42,25,37,252,42,21,30,131,45,5*74
$GBGSV,3,2,11,22,29,070,31,43,24,280,32,23,21,308,40,24,18,195,38,5*73
$GBGSV,3,3,11,42,04,174,50,39,03,324,19,19,02,027,16,5*4B
$GNGGA,215912.000,4005.098770,N,10513.208280,W,2,58,0.44,1583.547,M,-20.669,M,,*7B
$GPGSV,3,1,11,12,68,216,44,20,65,129,43,11,62,040,38,25,55,287,43,1*64
$GPGSV,3,2,11,05,39,176,50,46,37,214,45,06,25,053,40,29,24,298,41,1*67
$GPGSV,3,3,11,19,09,100,35,28,07,310,36,09,05,055,27,1*51
$GPGSV,2,1,05,11,62,040,34,25,55,287,38,06,25,053,38,28,07,310,35,8*68
$GPGSV,2,2,05,09,05,055,37,8*50
$GLGSV,3,1,10,86,55,018,29,77,46,293,24,76,44,221,47,87,41,291,38,1*73
$GLGSV,3,2,10,71,26,109,35,70,25,053,26,85,15,062,34,72,05,151,50,1*7C
$GLGSV,3,3,10,78,04,339,28,75,02,179,50,1*7B
$GAGSV,3,1,09,34,64,032,37,30,64,202,45,15,54,258,44,27,44,305,39,7*7B
$GAGSV,3,2,09,02,19,159,46,36,15,054,40,05,06,101,39,13,05,242,47,7*73
$GAGSV,3,3,09,09,05,053,28,7*4A
$GAGSV,3,1,09,30,64,202,45,34,64,032,28,15,54,258,40,27,44,305,38,1*76
$GAGSV,3,2,09,02,19,159,32,36,15,054,37,05,06,101,35,09,05,053,34,1*77
$GAGSV,3,3,09,13,05,242,44,1*4F
$GBGSV,4,1,15,34,66,321,43,12,62,040,36,11,46,291,40,44,43,070,39,1*77
$GBGSV,4,2,15,25,37,252,45,21,30,131,44,22,29,070,45,43,24,280,44,1*76
$GBGSV,4,3,15,23,21,308,40,24,18,195,50,42,04,174,41,39,03,324,18,1*7F
$GBGSV,4,4,15,16,03,333,14,19,02,027,25,55,,,26,1*7C
$GBGSV,3,1,11,34,66,321,34,44,43,070,42,25,37,252,42,21,30,131,45,5*74
$GBGSV,3,2,11,22,29,070,28,43,24,280,32,23,21,308,40,24,18,195,38,5*7B
$GBGSV,3,3,11,42,04,174,50,39,03,324,19,19,02,027,16,5*4B
$GNGGA,215917.000,4005.098770,N,10513.208322,W,2,59,0.44,1583.512,M,-20.670,M,,*7E
$GPGSV,3,1,11,12,68,216,44,20,65,129,43,11,62,040,38,25,55,287,43,1*64
$GPGSV,3,2,11,05,39,176,50,46,37,214,45,06,25,053,41,29,24,298,41,1*66
$GPGSV,3,3,11,19,09,100,36,28,07,310,35,09,05,055,31,1*56
$GPGSV,2,1,05,11,62,040,35,25,55,287,38,06,25,053,36,28,07,310,36,8*64
$GPGSV,2,2,05,09,05,055,37,8*50
$GLGSV,3,1,10,86,55,018,18,77,46,293,23,76,44,221,47,87,41,291,38,1*76
$GLGSV,3,2,10,71,26,109,36,70,25,053,23,85,15,062,34,72,05,151,50,1*7A
$GLGSV,3,3,10,78,04,339,27,75,02,179,50,1*74
$GAGSV,3,1,09,34,64,032,36,30,64,202,45,15,54,258,44,27,44,305,39,7*7A
$GAGSV,3,2,09,02,19,159,46,36,15,054,40,05,06,101,39,13,05,242,47,7*73
$GAGSV,3,3,09,09,05,053,29,7*4B
$GAGSV,3,1,09,30,64,202,45,34,64,032,26,15,54,258,40,27,44,305,38,1*78
$GAGSV,3,2,09,02,19,159,32,36,15,054,34,05,06,101,34,09,05,053,34,1*75
$GAGSV,3,3,09,13,05,242,44,1*4F
$GBGSV,4,1,15,34,66,321,43,12,62,040,36,11,46,291,40,44,43,070,38,1*76
$GBGSV,4,2,15,25,37,252,45,21,30,131,44,22,29,070,45,43,24,280,44,1*76
$GBGSV,4,3,15,23,21,308,40,24,18,195,50,42,04,174,40,39,03,324,18,1*7E
$GBGSV,4,4,15,16,03,333,15,19,02,027,24,55,,,26,1*7C
$GBGSV,3,1,11,34,66,321,34,44,43,070,42,25,37,252,42,21,30,131,45,5*74
$GBGSV,3,2,11,22,29,070,32,43,24,280,32,23,21,308,40,24,18,195,39,5*71
$GBGSV,3,3,11,42,04,174,50,39,03,324,19,19,02,027,16,5*4B
$GNGGA,215922.000,4005.098770,N,10513.208388,W,2,58,0.44,1583.467,M,-20.670,M,,*7A
$GPGSV,3,1,11,12,68,216,44,20,65,129,43,11,62,040,38,25,55,287,43,1*64
$GPGSV,3,2,11,05,39,176,50,46,37,214,46,06,25,053,42,29,24,298,41,1*66
$GPGSV,3,3,11,19,09,100,36,28,07,310,36,09,05,055,31,1*55
$GPGSV,2,1,05,11,62,040,36,25,55,287,37,06,25,053,35,28,07,310,37,8*6A
$GPGSV,2,2,05,09,05,055,36,8*51
$GLGSV,3,1,10,86,55,018,20,77,46,293,24,76,44,221,47,87,41,291,36,1*74
$GLGSV,3,2,10,71,26,109,36,70,25,053,23,85,15,062,34,72,05,151,50,1*7A
$GLGSV,3,3,10,78,04,339,27,75,02,179,50,1*74
$GAGSV,3,1,09,34,64,032,36,30,64,202,45,15,54,258,44,27,44,305,39,7*7A
$GAGSV,3,2,09,02,19,159,46,36,15,054,40,05,06,101,39,13,05,242,46,7*72
$GAGSV,3,3,09,09,05,053,30,7*43
$GAGSV,3,1,09,30,64,202,45,34,64,032,26,15,54,258,40,27,44,305,38,1*78
$GAGSV,3,2,09,02,19,159,33,36,15,054,31,05,06,101,35,09,05,053,34,1*70
$GAGSV,3,3,09,13,05,242,44,1*4F
$GBGSV,4,1,15,34,66,321,43,12,62,040,36,11,46,291,40,44,43,070,38,1*76
$GBGSV,4,2,15,25,37,252,45,21,30,131,44,22,29,070,45,43,24,280,44,1*76
$GBGSV,4,3,15,23,21,308,40,24,18,195,50,42,04,174,38,39,03,324,14,1*7D
$GBGSV,4,4,15,16,03,333,16,19,02,027,24,55,,,25,1*7C
$GBGSV,3,1,11,34,66,321,34,44,43,070,42,25,37,252,42,21,30,131,45,5*74
$GBGSV,3,2,11,22,29,070,32,43,24,280,32,23,21,308,40,24,18,195,39,5*71
$GBGSV,3,3,11,42,04,174,50,39,03,324,19,19,02,027,17,5*4A
$GNGGA,215927.000,4005.098698,N,10513.208400,W,2,59,0.44,1583.526,M,-20.670,M,,*7A
$GPGSV,3,1,11,12,68,216,44,20,65,129,43,11,62,040,38,25,55,287,43,1*64
$GPGSV,3,2,11,05,40,176,50,46,37,214,45,06,24,053,42,29,24,298,41,1*6A
$GPGSV,3,3,11,19,09,100,35,28,07,310,36,09,05,054,31,1*57
$GPGSV,2,1,05,11,62,040,37,25,55,287,37,06,24,053,35,28,07,310,37,8*6A
$GPGSV,2,2,05,09,05,054,36,8*50
$GLGSV,3,1,10,86,55,018,25,77,46,293,24,76,44,221,47,87,41,291,36,1*71
$GLGSV,3,2,10,71,26,109,36,70,25,053,24,85,15,062,36,72,05,151,50,1*7F
$GLGSV,3,3,10,78,04,339,28,75,02,179,50,1*7B
$GAGSV,3,1,09,34,64,032,36,30,64,202,45,15,54,258,44,27,44,305,39,7*7A
$GAGSV,3,2,09,02,19,159,46,36,15,054,40,05,06,101,39,13,05,242,46,7*72
$GAGSV,3,3,09,09,05,053,30,7*43
$GAGSV,3,1,09,30,64,202,45,34,64,032,25,15,54,258,40,27,44,305,37,1*74
$GAGSV,3,2,09,02,19,159,33,36,15,054,31,05,06,101,36,09,05,053,34,1*73
$GAGSV,3,3,09,13,05,242,44,1*4F
$GBGSV,4,1,15,34,66,321,43,12,62,040,36,11,46,291,41,44,43,070,38,1*77
$GBGSV,4,2,15,25,37,252,44,21,30,131,44,22,29,070,45,43,24,280,44,1*77
$GBGSV,4,3,15,23,21,308,39,24,18,195,50,42,04,174,39,39,03,324,13,1*75
$GBGSV,4,4,15,16,03,333,17,19,02,027,22,55,,,25,1*7B
$GBGSV,3,1,11,34,66,321,34,44,43,070,42,25,37,252,42,21,30,131,45,5*74
$GBGSV,3,2,11,22,29,070,32,43,24,280,32,23,21,308,41,24,18,195,39,5*70
$GBGSV,3,3,11,42,04,174,50,39,03,324,19,19,02,027,16,5*4B
$GNGGA,215932.000,4005.098632,N,10513.208382,W,2,59,0.44,1583.513,M,-20.670,M,,*75
$GPGSV,3,1,11,12,67,213,44,20,65,129,43,11,61,040,36,25,55,287,43,1*63
$GPGSV,3,2,11,05,40,176,50,46,37,214,45,29,24,298,41,06,24,053,42,1*6A
$GPGSV,3,3,11,19,09,100,34,28,07,310,38,09,05,054,31,1*58
$GPGSV,2,1,05,11,61,040,36,25,55,287,37,06,24,053,38,28,07,310,37,8*65
$GPGSV,2,2,05,09,05,054,36,8*50
$GLGSV,3,1,10,86,55,018,25,77,46,293,25,76,44,221,47,87,41,291,36,1*70
$GLGSV,3,2,10,71,26,109,37,70,25,053,24,85,15,062,37,72,05,151,51,1*7E
$GLGSV,3,3,10,78,04,339,29,75,02,179,50,1*7A
$GAGSV,3,1,09,30,64,202,45,34,64,032,35,15,54,258,44,27,44,305,39,7*79
$GAGSV,3,2,09,02,19,159,46,36,15,054,40,05,06,101,40,09,05,053,30,7*74
$GAGSV,3,3,09,13,05,242,46,7*4B
$GAGSV,3,1,09,30,64,202,45,34,64,032,25,15,54,258,40,27,44,305,37,1*74
$GAGSV,3,2,09,02,19,159,35,36,15,054,33,05,06,101,36,09,05,053,33,1*70
$GAGSV,3,3,09,13,05,242,44,1*4F
$GBGSV,5,1,17,34,66,321,43,12,62,040,35,11,46,291,41,44,43,070,38,1*77
$GBGSV,5,2,17,25,37,252,44,21,30,131,44,22,29,070,45,43,24,280,44,1*74
$GBGSV,5,3,17,23,21,308,39,24,18,195,50,42,04,174,39,16,03,333,17,1*79
$GBGSV,5,4,17,39,03,324,17,19,02,027,21,52,,,27,55,,,25,1*72
$GBGSV,5,5,17,49,,,25,1*7A
$GBGSV,3,1,11,34,66,321,34,44,43,070,42,25,37,252,42,21,30,131,45,5*74
$GBGSV,3,2,11,22,29,070,33,43,24,280,32,23,21,308,41,24,18,195,40,5*7F
$GBGSV,3,3,11,42,04,174,50,39,03,324,19,19,02,027,14,5*49
$GNGGA,215937.000,4005.098590,N,10513.208328,W,2,58,0.44,1583.494,M,-20.670,M,,*74
$GPGSV,3,1,11,12,67,213,44,20,65,129,43,11,61,040,36,25,55,287,43,1*63
$GPGSV,3,2,11,05,40,176,50,46,37,214,46,29,24,298,41,06,24,053,41,1*6A
$GPGSV,3,3,11,19,09,101,31,28,07,310,38,09,05,054,31,1*5C
$GPGSV,2,1,05,11,61,040,36,25,55,287,37,06,24,053,38,28,07,310,36,8*64
$GPGSV,2,2,05,09,05,054,37,8*51
$GLGSV,3,1,10,86,55,018,25,77,46,293,24,76,44,221,47,87,41,291,36,1*71
$GLGSV,3,2,10,71,26,109,36,70,25,053,23,85,15,062,38,72,05,151,51,1*77
$GLGSV,3,3,10,78,04,339,29,75,02,179,50,1*7A
$GAGSV,3,1,09,30,64,202,45,34,64,032,35,15,54,258,44,27,44,305,39,7*79
$GAGSV,3,2,09,02,19,159,46,36,15,054,40,05,06,101,40,09,05,053,30,7*74
$GAGSV,3,3,09,13,05,242,47,7*4A
$GAGSV,3,1,09,30,64,202,45,34,64,032,25,15,54,258,40,27,44,305,37,1*74
$GAGSV,3,2,09,02,19,159,34,36,15,054,33,05,06,101,36,09,05,053,33,1*71
$GAGSV,3,3,09,13,05,242,44,1*4F
$GBGSV,4,1,16,34,66,321,43,12,62,040,35,11,46,291,41,44,43,070,38,1*77
$GBGSV,4,2,16,25,37,252,44,21,30,131,44,22,29,070,45,43,24,280,44,1*74
$GBGSV,4,3,16,23,21,308,41,24,18,195,50,42,04,174,40,39,03,324,19,1*7D
$GBGSV,4,4,16,16,03,333,19,19,02,027,21,55,,,25,53,,,26,1*77
$GBGSV,3,1,11,34,66,321,34,44,43,070,42,25,37,252,42,21,30,131,45,5*74
$GBGSV,3,2,11,22,29,070,32,43,24,280,32,23,21,308,41,24,18,195,41,5*7F
$GBGSV,3,3,11,42,04,174,50,39,03,324,19,19,02,027,16,5*4B
$GNGGA,215942.000,4005.098632,N,10513.208238,W,2,59,0.44,1583.569,M,-20.669,M,,*77
$GPGSV,3,1,11,12,67,213,44,20,66,126,43,11,61,040,35,25,55,287,43,1*6C
$GPGSV,3,2,11,05,40,176,50,46,37,214,46,06,24,053,41,29,24,298,41,1*6A
$GPGSV,3,3,11,19,09,101,23,28,07,310,37,09,05,054,30,1*51
$GPGSV,2,1,05,11,61,040,36,25,55,287,37,06,24,053,38,28,07,310,35,8*67
$GPGSV,2,2,05,09,05,054,37,8*51
$GLGSV,3,1,10,86,55,018,24,77,46,293,23,76,44,221,47,87,41,291,36,1*77
$GLGSV,3,2,10,71,26,109,36,70,25,053,22,85,15,062,39,72,05,151,51,1*77
$GLGSV,3,3,10,78,04,339,30,75,02,179,50,1*72
$GAGSV,3,1,09,30,64,202,45,34,64,032,35,15,54,258,44,27,44,305,39,7*79
$GAGSV,3,2,09,02,19,159,46,36,15,054,40,05,06,101,41,09,05,053,29,7*7D
$GAGSV,3,3,09,13,05,242,47,7*4A
$GAGSV,3,1,09,30,64,202,45,34,64,032,24,15,54,258,40,27,44,305,37,1*75
$GAGSV,3,2,09,02,19,159,35,36,15,054,33,05,06,101,36,09,05,053,33,1*70
$GAGSV,3,3,09,13,05,242,43,1*48
$GBGSV,4,1,14,34,66,321,43,12,62,040,35,11,46,291,41,44,43,070,38,1*75
$GBGSV,4,2,14,25,37,252,44,21,30,131,44,22,29,070,44,43,24,280,44,1*77
$GBGSV,4,3,14,23,21,308,42,24,18,195,50,42,04,174,36,16,03,333,19,1*76
$GBGSV,4,4,14,39,03,324,18,19,02,027,22,1*79
$GBGSV,3,1,11,34,66,321,33,44,43,070,42,25,37,252,42,21,30,131,45,5*73
$GBGSV,3,2,11,22,29,070,31,43,24,280,33,23,21,308,41,24,18,195,41,5*7D
$GBGSV,3,3,11,42,04,174,50,39,03,324,20,19,02,027,15,5*42
$GNGGA,215947.000,4005.098644,N,10513.208232,W,2,58,0.44,1583.551,M,-20.670,M,,*7B
$GPGSV,3,1,11,12,67,213,44,20,66,126,43,11,61,040,35,25,55,284,44,1*68
$GPGSV,3,2,11,05,40,176,50,46,37,214,46,29,25,298,40,06,24,053,39,1*65
$GPGSV,3,3,11,19,09,101,26,28,07,309,35,09,05,054,29,1*56
$GPGSV,2,1,05,11,61,040,36,25,55,284,36,06,24,053,38,28,07,309,35,8*6D
$GPGSV,2,2,05,09,05,054,38,8*5E
$GLGSV,3,1,10,86,55,018,22,77,46,293,22,76,44,221,47,87,41,291,36,1*70
$GLGSV,3,2,10,71,26,109,36,70,25,053,19,85,15,062,39,72,05,151,51,1*7F
$GLGSV,3,3,10,78,04,339,30,75,02,179,49,1*7A
$GAGSV,3,1,09,30,64,202,45,34,64,032,35,15,54,258,44,27,44,305,39,7*79
$GAGSV,3,2,09,02,19,159,46,36,15,054,40,05,06,101,41,09,05,053,30,7*75
$GAGSV,3,3,09,13,05,242,47,7*4A
$GAGSV,3,1,09,30,64,202,45,34,64,032,24,15,54,258,40,27,44,305,37,1*75
$GAGSV,3,2,09,02,19,159,35,36,15,054,33,05,06,101,36,09,05,053,33,1*70
$GAGSV,3,3,09,13,05,242,43,1*48
$GBGSV,4,1,14,34,66,321,43,12,62,040,35,11,46,291,41,44,43,070,39,1*74
$GBGSV,4,2,14,25,37,252,44,21,30,131,44,22,29,070,44,43,24,280,44,1*77
$GBGSV,4,3,14,23,21,308,42,24,18,195,50,42,04,174,40,16,03,333,19,1*77
$GBGSV,4,4,14,39,03,324,15,19,02,027,21,1*77
$GBGSV,3,1,11,34,66,321,33,44,43,070,42,25,37,252,42,21,30,131,45,5*73
$GBGSV,3,2,11,22,29,070,31,43,24,280,33,23,21,308,41,24,18,195,40,5*7C
$GBGSV,3,3,11,42,04,174,50,39,03,324,20,19,02,027,16,5*41
$GNGGA,215952.000,4005.098596,N,10513.208202,W,2,59,0.44,1583.415,M,-20.670,M,,*70
$GPGSV,3,1,11,12,67,213,44,20,66,126,43,11,61,040,35,25,55,284,44,1*68
$GPGSV,3,2,11,05,40,176,50,46,37,214,46,29,25,298,40,06,24,053,39,1*65
$GPGSV,3,3,11,19,09,101,30,28,07,309,36,09,05,054,28,1*53
$GPGSV,2,1,05,11,61,040,36,25,55,284,36,06,24,053,38,28,07,309,35,8*6D
$GPGSV,2,2,05,09,05,054,38,8*5E
$GLGSV,3,1,10,86,55,018,21,77,46,293,22,76,44,221,47,87,41,291,36,1*73
$GLGSV,3,2,10,71,26,109,36,70,25,053,22,85,15,062,39,72,05,151,51,1*77
$GLGSV,3,3,10,78,04,339,30,75,02,179,51,1*73
$GAGSV,3,1,09,34,64,032,35,30,64,202,45,15,54,258,44,27,44,305,39,7*79
$GAGSV,3,2,09,02,19,159,46,36,15,054,40,05,06,101,41,13,05,242,46,7*7D
$GAGSV,3,3,09,09,05,053,30,7*43
$GAGSV,3,1,09,30,64,202,45,34,64,032,24,15,54,258,40,27,44,305,37,1*75
$GAGSV,3,2,09,02,19,159,35,36,15,054,34,05,06,101,35,09,05,053,33,1*74
$GAGSV,3,3,09,13,05,242,43,1*48
$GBGSV,4,1,15,34,66,321,43,12,62,040,35,11,46,291,41,44,43,070,39,1*75
$GBGSV,4,2,15,25,37,252,44,21,30,131,44,22,29,070,44,43,24,280,44,1*76
$GBGSV,4,3,15,23,21,308,42,24,18,195,50,42,04,174,37,39,03,324,13,1*77
$GBGSV,4,4,15,16,03,333,19,19,02,027,20,63,,,27,1*70
$GBGSV,3,1,11,34,66,321,33,44,43,070,42,25,37,252,41,21,30,131,45,5*70
$GBGSV,3,2,11,22,29,070,31,43,24,280,33,23,21,308,41,24,18,195,40,5*7C
$GBGSV,3,3,11,42,04,174,50,39,03,324,21,19,02,027,16,5*40
$GNGGA,215957.000,4005.098542,N,10513.208214,W,2,59,0.44,1583.294,M,-20.670,M,,*74
$GPGSV,3,1,11,12,67,213,44,20,66,126,43,11,61,040,36,25,55,284,44,1*6B
$GPGSV,3,2,11,05,40,176,50,46,37,214,46,29,25,298,40,06,24,053,39,1*65
$GPGSV,3,3,11,19,09,101,26,28,07,309,37,09,05,054,28,1*55
$GPGSV,2,1,05,11,61,040,36,25,55,284,36,06,24,053,38,28,07,309,35,8*6D
$GPGSV,2,2,05,09,05,054,38,8*5E
$GLGSV,3,1,10,86,55,018,17,77,46,293,24,76,44,221,47,87,41,291,36,1*70
$GLGSV,3,2,10,71,26,109,36,70,25,053,25,85,15,062,37,72,05,151,51,1*7E
$GLGSV,3,3,10,78,04,339,30,75,02,179,51,1*73
$GAGSV,3,1,09,34,64,032,35,30,64,202,45,15,54,258,44,27,44,305,39,7*79
$GAGSV,3,2,09,02,19,159,46,36,15,054,40,05,06,101,40,13,05,242,46,7*7C
$GAGSV,3,3,09,09,05,053,30,7*43
$GAGSV,3,1,09,30,64,202,45,34,64,032,24,15,54,258,40,27,44,305,37,1*75
$GAGSV,3,2,09,02,19,159,35,36,15,054,34,05,06,101,35,09,05,053,33,1*74
$GAGSV,3,3,09,13,05,242,43,1*48
$GBGSV,4,1,15,34,66,321,43,12,62,040,35,11,46,291,41,44,43,070,39,1*75
$GBGSV,4,2,15,25,37,252,44,21,30,131,44,22,29,070,44,43,24,280,44,1*76
$GBGSV,4,3,15,23,21,308,41,24,18,195,51,42,04,174,40,39,03,324,14,1*72
$GBGSV,4,4,15,16,03,333,19,19,02,027,19,63,,,27,1*7A
$GBGSV,3,1,11,34,66,321,33,44,43,070,42,25,37,252,41,21,30,131,45,5*70
$GBGSV,3,2,11,22,29,070,31,43,24,280,33,23,21,308,41,24,18,195,40,5*7C
$GBGSV,3,3,11,42,04,174,50,39,03,324,20,19,02,027,16,5*41
$GNGGA,220002.000,4005.098506,N,10513.208160,W,2,59,0.44,1583.283,M,-20.670,M,,*7D
$GPGSV,3,1,11,12,67,213,44,20,66,126,43,11,61,040,36,25,55,284,44,1*6B
$GPGSV,3,2,11,05,40,176,50,46,37,214,46,29,25,298,40,06,24,053,39,1*65
$GPGSV,3,3,11,19,09,101,33,28,07,309,37,09,05,054,28,1*51
$GPGSV,2,1,05,11,61,040,36,25,55,284,36,06,24,053,39,28,07,309,35,8*6C
$GPGSV,2,2,05,09,05,054,39,8*5F
$GLGSV,3,1,10,86,55,018,17,77,46,293,22,76,44,221,47,87,41,291,36,1*76
$GLGSV,3,2,10,71,26,109,37,70,25,053,24,85,15,062,36,72,05,151,51,1*7F
$GLGSV,3,3,10,78,04,339,32,75,02,179,51,1*71
$GAGSV,3,1,09,30,64,202,45,34,64,032,35,15,54,258,44,27,44,305,39,7*79
$GAGSV,3,2,09,02,18,159,46,36,15,054,40,05,07,100,40,09,05,053,30,7*75
$GAGSV,3,3,09,13,05,242,46,7*4B
$GAGSV,3,1,09,30,64,202,45,34,64,032,25,15,54,258,40,27,44,305,37,1*74
$GAGSV,3,2,09,02,18,159,37,36,15,054,35,05,07,100,35,09,05,053,33,1*76
$GAGSV,3,3,09,13,05,242,43,1*48
$GBGSV,4,1,16,34,66,321,43,12,62,040,33,11,46,291,41,44,43,070,39,1*70
$GBGSV,4,2,16,25,37,252,44,21,30,131,44,22,29,070,44,43,24,280,44,1*75
$GBGSV,4,3,16,23,21,308,41,24,18,195,51,42,04,174,39,16,03,333,19,1*79
$GBGSV,4,4,16,39,03,324,14,19,02,027,19,35,01,086,32,63,,,28,1*48
$GBGSV,3,1,12,34,66,321,33,44,43,070,42,25,37,252,42,21,30,131,45,5*70
$GBGSV,3,2,12,22,29,070,33,43,24,280,34,23,21,308,41,24,18,195,41,5*7B
$GBGSV,3,3,12,42,04,174,50,39,03,324,20,19,02,027,16,35,01,086,28,5*71
$GNGGA,220007.000,4005.098548,N,10513.208166,W,2,59,0.44,1583.290,M,-20.670,M,,*76
$GPGSV,3,1,11,12,67,213,44,20,66,126,43,11,61,040,36,25,55,284,44,1*6B
$GPGSV,3,2,11,05,40,176,50,46,37,214,46,29,25,298,38,06,24,053,37,1*64
$GPGSV,3,3,11,19,09,101,30,28,07,309,37,09,05,054,28,1*52
$GPGSV,2,1,05,11,61,040,36,25,55,284,36,06,24,053,39,28,07,309,35,8*6C
$GPGSV,2,2,05,09,05,054,39,8*5F
$GLGSV,3,1,10,86,55,018,18,77,46,293,22,76,44,221,47,87,41,291,35,1*7A
$GLGSV,3,2,10,71,26,109,38,70,25,053,25,85,15,062,37,72,05,151,51,1*70
$GLGSV,3,3,10,78,04,339,32,75,02,179,51,1*71
$GAGSV,3,1,09,34,64,032,35,30,64,202,45,15,54,258,44,27,44,305,39,7*79
$GAGSV,3,2,09,02,18,159,46,36,15,054,40,05,07,100,40,13,05,242,47,7*7C
$GAGSV,3,3,09,09,05,052,30,7*42
$GAGSV,3,1,09,30,64,202,45,34,64,032,25,15,54,258,40,27,44,305,37,1*74
$GAGSV,3,2,09,02,18,159,37,36,15,054,35,05,07,100,35,09,05,052,33,1*77
