$PAIR001,062,0*3F
$PAIR001,062,0*3F
$PAIR001,062,0*3F
$PAIR001,062,0*3F
$PAIR001,062,0*3F
$PAIR001,062,0*3F
$PAIR001,062,0*3F
$PAIR001,062,0*3F
$PAIR001,062,0*3F
$GNGGA,172637.000,4005.099052,N,10513.207278,W,2,48,0.47,1583.830,M,-20.670,M,,*78
$GPGSV,4,1,13,22,71,017,39,19,64,241,43,14,60,072,39,46,37,214,45,1*6F
$GPGSV,4,2,13,30,36,161,47,13,25,241,42,02,22,044,36,06,21,177,44,1*64
$GPGSV,4,3,13,24,20,315,33,15,13,273,46,21,08,036,39,07,07,151,46,1*63
$GPGSV,4,4,13,03,01,092,38,1*54
$GPGSV,2,1,05,14,60,072,19,30,36,161,43,06,21,177,40,24,20,315,31,8*63
$GPGSV,2,2,05,03,01,092,35,8*57
$GLGSV,2,1,08,85,77,128,41,75,70,031,34,74,31,113,39,84,31,033,28,1*7C
$GLGSV,2,2,08,86,30,193,47,76,25,318,35,66,09,297,19,67,04,344,35,1*72
$GAGSV,3,1,09,31,69,048,34,33,51,093,40,24,44,302,39,12,32,167,40,7*7F
$GAGSV,3,2,09,26,22,042,39,05,21,284,41,09,17,229,48,10,14,183,47,7*79
$GAGSV,3,3,09,03,04,329,18,7*4C
$GAGSV,2,1,08,31,69,048,26,33,51,093,40,24,44,302,38,12,32,167,40,1*7B
$GAGSV,2,2,08,26,22,042,31,05,21,284,39,09,17,229,37,10,14,183,35,1*75
$GBGSV,2,1,08,29,77,168,45,45,77,318,38,36,46,127,46,30,38,049,46,1*7E
$GBGSV,2,2,08,26,21,310,40,57,06,205,,58,,,18,63,,,28,1*77
$GBGSV,2,1,05,45,77,318,32,29,77,168,42,36,46,127,47,30,38,049,37,5*7D
$GBGSV,2,2,05,26,21,310,39,5*48
$GNGGA,172642.000,4005.099082,N,10513.207212,W,2,48,0.47,1583.680,M,-20.670,M,,*7E
$GPGSV,4,1,13,22,71,017,39,19,64,241,43,14,60,072,39,46,37,214,45,1*6F
$GPGSV,4,2,13,30,36,161,47,13,25,241,42,02,22,044,36,06,21,177,44,1*64
$GPGSV,4,3,13,24,20,315,33,15,13,273,46,21,08,036,39,07,07,151,46,1*63
$GPGSV,4,4,13,03,01,092,38,1*54
$GPGSV,2,1,05,14,60,072,19,30,36,161,43,06,21,177,40,24,20,315,35,8*67
$GPGSV,2,2,05,03,01,092,35,8*57
$GLGSV,2,1,08,85,77,128,41,75,70,031,35,74,31,113,39,84,31,033,29,1*7C
$GLGSV,2,2,08,86,30,193,47,76,25,318,36,66,09,297,17,67,04,344,34,1*7E
$GAGSV,3,1,09,31,69,048,34,33,51,093,40,24,44,302,39,12,32,167,40,7*7F
$GAGSV,3,2,09,26,22,042,39,05,21,284,41,09,17,229,48,10,14,183,47,7*79
$GAGSV,3,3,09,03,04,329,20,7*47
$GAGSV,2,1,08,31,69,048,26,33,51,093,40,24,44,302,38,12,32,167,40,1*7B
$GAGSV,2,2,08,26,22,042,31,05,21,284,39,09,17,229,37,10,14,183,35,1*75
$GBGSV,2,1,08,29,77,168,45,45,77,318,37,36,46,127,45,30,38,049,46,1*72
$GBGSV,2,2,08,26,21,310,40,57,06,205,,58,,,17,63,,,29,1*79
$GBGSV,2,1,05,45,77,318,32,29,77,168,42,36,46,127,47,30,38,049,37,5*7D
$GBGSV,2,2,05,26,21,310,39,5*48
$GNGGA,172647.000,4005.098992,N,10513.207272,W,2,48,0.47,1583.734,M,-20.670,M,,*7A
$GPGSV,4,1,13,22,71,017,39,19,64,241,43,14,60,072,39,46,37,214,44,1*6E
$GPGSV,4,2,13,30,36,161,47,13,25,241,42,02,22,044,36,06,21,177,44,1*64
$GPGSV,4,3,13,24,20,315,31,15,13,273,46,21,08,036,39,07,07,151,46,1*61
$GPGSV,4,4,13,03,01,092,38,1*54
$GPGSV,2,1,05,14,60,072,19,30,36,161,43,06,21,177,40,24,20,315,35,8*67
$GPGSV,2,2,05,03,01,092,35,8*57
$GLGSV,2,1,08,85,77,128,41,75,70,031,37,74,31,113,40,84,31,033,29,1*70
$GLGSV,2,2,08,86,30,193,47,76,25,318,36,66,09,297,25,67,04,344,34,1*7F
$GAGSV,3,1,09,31,69,048,34,33,51,093,40,24,45,303,39,12,32,167,40,7*7F
$GAGSV,3,2,09,26,21,041,39,05,21,284,41,09,17,229,48,10,14,183,47,7*79
$GAGSV,3,3,09,03,04,329,22,7*45
$GAGSV,2,1,08,31,69,048,26,33,51,093,40,24,45,303,38,12,32,167,40,1*7B
$GAGSV,2,2,08,05,21,284,39,26,21,041,30,09,17,229,37,10,14,183,34,1*75
$GBGSV,2,1,08,29,77,168,45,45,77,318,37,36,46,127,45,30,38,049,47,1*73
$GBGSV,2,2,08,26,21,310,40,57,06,205,,58,,,17,63,,,28,1*78
$GBGSV,2,1,05,45,77,318,32,29,77,168,42,36,46,127,47,30,38,049,37,5*7D
$GBGSV,2,2,05,26,21,310,39,5*48
$GNGGA,172652.000,4005.098962,N,10513.207236,W,2,48,0.47,1583.717,M,-20.670,M,,*70
$GPGSV,4,1,13,22,71,017,39,19,64,241,43,14,60,072,39,46,37,214,45,1*6F
$GPGSV,4,2,13,30,36,161,47,13,25,241,42,02,22,044,36,06,21,177,44,1*64
$GPGSV,4,3,13,24,20,315,30,15,13,273,46,21,08,036,39,07,07,151,47,1*61
$GPGSV,4,4,13,03,01,092,39,1*55
$GPGSV,2,1,05,14,60,072,19,30,36,161,43,06,21,177,40,24,20,315,35,8*67
$GPGSV,2,2,05,03,01,092,35,8*57
$GLGSV,2,1,08,85,77,128,41,75,70,031,37,74,31,113,40,84,31,033,29,1*70
$GLGSV,2,2,08,86,30,193,47,76,25,318,36,66,09,297,26,67,04,344,34,1*7C
$GAGSV,3,1,09,31,69,050,34,33,51,093,40,24,45,303,39,12,32,167,40,7*76
$GAGSV,3,2,09,26,21,041,39,05,21,284,41,09,17,229,48,10,14,183,47,7*79
$GAGSV,3,3,09,03,04,329,23,7*44
$GAGSV,2,1,08,31,69,050,26,33,51,093,40,24,45,303,38,12,32,167,40,1*72
$GAGSV,2,2,08,05,21,284,39,26,21,041,30,09,17,229,38,10,14,183,34,1*7A
$GBGSV,2,1,07,29,77,168,45,45,77,318,37,36,46,127,44,30,38,049,47,1*7D
$GBGSV,2,2,07,26,21,310,40,57,06,205,,58,,,17,1*78
$GBGSV,2,1,05,45,77,318,32,29,77,168,42,36,46,127,47,30,38,049,37,5*7D
$GBGSV,2,2,05,26,21,310,39,5*48
$GNGGA,172657.000,4005.098908,N,10513.207194,W,2,48,0.47,1583.727,M,-20.670,M,,*71
$GPGSV,4,1,13,22,71,017,39,19,64,241,43,14,60,072,39,46,37,214,45,1*6F
$GPGSV,4,2,13,30,36,161,47,13,25,241,41,02,22,044,36,06,21,177,44,1*67
$GPGSV,4,3,13,24,20,315,30,15,13,273,46,21,08,036,39,07,07,151,47,1*61
$GPGSV,4,4,13,03,01,092,39,1*55
$GPGSV,2,1,05,14,60,072,19,30,36,161,44,06,21,177,39,24,20,315,33,8*68
$GPGSV,2,2,05,03,01,092,34,8*56
$GLGSV,2,1,08,85,77,128,40,75,70,031,38,74,31,113,39,84,31,033,29,1*70
$GLGSV,2,2,08,86,30,193,47,76,25,318,37,66,09,297,17,67,04,344,32,1*79
$GAGSV,3,1,09,31,69,050,34,33,51,091,40,24,45,303,39,12,32,167,40,7*74
$GAGSV,3,2,09,26,21,041,39,05,21,284,41,09,17,229,48,10,14,183,47,7*79
$GAGSV,3,3,09,03,04,329,23,7*44
$GAGSV,2,1,08,31,69,050,26,33,51,091,40,24,45,303,37,12,32,167,40,1*7F
$GAGSV,2,2,08,05,21,284,39,26,21,041,29,09,17,229,38,10,14,183,33,1*75
$GBGSV,2,1,07,29,77,168,45,45,77,318,37,36,46,127,44,30,38,049,47,1*7D
$GBGSV,2,2,07,26,21,310,40,57,06,205,,58,,,16,1*79
$GBGSV,2,1,05,45,77,318,33,29,77,168,42,36,46,127,47,30,38,049,38,5*73
$GBGSV,2,2,05,26,21,310,38,5*49
$GNGGA,172702.000,4005.098908,N,10513.207188,W,2,48,0.47,1583.746,M,-20.669,M,,*72
$GPGSV,4,1,13,22,71,017,39,19,64,241,43,14,60,072,39,46,37,214,45,1*6F
$GPGSV,4,2,13,30,36,161,47,13,25,241,41,02,22,044,36,06,21,177,44,1*67
$GPGSV,4,3,13,24,20,315,31,15,13,273,46,21,08,036,39,07,07,151,47,1*60
$GPGSV,4,4,13,03,01,092,38,1*54
$GPGSV,2,1,05,14,60,072,19,30,36,161,44,06,21,177,39,24,20,315,29,8*63
$GPGSV,2,2,05,03,01,092,35,8*57
$GLGSV,2,1,08,85,77,128,40,75,70,031,37,74,31,113,38,84,31,033,29,1*7E
$GLGSV,2,2,08,86,30,193,47,76,25,318,38,66,08,295,19,67,04,343,30,1*7E
$GAGSV,3,1,09,31,69,050,34,33,51,091,40,24,45,303,39,12,32,167,40,7*74
$GAGSV,3,2,09,26,21,041,39,05,21,284,41,09,17,229,48,10,14,183,47,7*79
$GAGSV,3,3,09,03,04,329,23,7*44
$GAGSV,2,1,08,31,69,050,26,33,51,091,41,24,45,303,37,12,32,167,41,1*7F
$GAGSV,2,2,08,05,21,284,39,26,21,041,30,09,17,229,39,10,14,183,33,1*7C
$GBGSV,2,1,07,29,77,168,45,45,77,318,38,36,46,127,44,30,38,049,47,1*72
$GBGSV,2,2,07,26,21,310,40,57,06,205,,58,,,17,1*78
$GBGSV,2,1,05,45,77,318,33,29,77,168,43,36,46,127,47,30,38,049,38,5*72
$GBGSV,2,2,05,26,21,310,39,5*48
$GNGGA,172707.000,4005.098914,N,10513.207272,W,2,48,0.47,1583.690,M,-20.670,M,,*7E
$GPGSV,4,1,13,22,71,017,39,19,64,241,43,14,60,072,39,46,37,214,44,1*6E
$GPGSV,4,2,13,30,36,161,47,13,25,241,41,02,22,044,37,06,21,177,44,1*66
$GPGSV,4,3,13,24,20,315,33,15,13,273,46,21,08,036,39,07,07,151,48,1*6D
$GPGSV,4,4,13,03,01,092,38,1*54
$GPGSV,2,1,05,14,60,072,19,30,36,161,44,06,21,177,39,24,20,315,18,8*61
$GPGSV,2,2,05,03,01,092,34,8*56
$GLGSV,2,1,08,85,77,128,41,75,70,031,36,84,31,033,29,74,30,114,39,1*79
$GLGSV,2,2,08,86,30,193,47,76,25,318,38,66,08,295,23,67,04,343,28,1*7E
$GAGSV,3,1,09,31,69,050,34,33,51,091,40,24,45,303,40,12,32,167,40,7*7A
$GAGSV,3,2,09,26,21,041,39,05,21,284,41,09,17,229,48,10,14,183,47,7*79
$GAGSV,3,3,09,03,04,329,22,7*45
$GAGSV,2,1,08,31,69,050,26,33,51,091,41,24,45,303,37,12,32,167,41,1*7F
$GAGSV,2,2,08,05,21,284,39,26,21,041,32,09,17,229,39,10,14,183,33,1*7E
$GBGSV,2,1,07,29,77,168,45,45,77,318,38,36,46,127,44,30,38,049,47,1*72
$GBGSV,2,2,07,26,21,310,40,57,06,205,,58,,,17,1*78
$GBGSV,2,1,05,45,77,318,33,29,77,168,43,36,46,127,47,30,38,049,38,5*72
$GBGSV,2,2,05,26,21,310,39,5*48
$GNGGA,172712.000,4005.098926,N,10513.207290,W,2,48,0.47,1583.764,M,-20.669,M,,*75
$GPGSV,4,1,13,22,71,017,39,19,64,241,43,14,60,072,39,46,37,214,44,1*6E
$GPGSV,4,2,13,30,36,161,47,13,25,241,41,02,22,044,37,06,21,177,44,1*66
$GPGSV,4,3,13,24,20,315,33,15,13,273,46,21,08,036,39,07,07,151,48,1*6D
$GPGSV,4,4,13,03,01,092,38,1*54
$GPGSV,2,1,05,14,60,072,19,30,36,161,44,06,21,177,39,24,20,315,23,8*69
$GPGSV,2,2,05,03,01,092,34,8*56
$GLGSV,2,1,08,85,77,128,41,75,71,035,34,84,31,033,29,74,30,114,39,1*7E
$GLGSV,2,2,08,86,30,193,47,76,26,319,38,66,08,295,21,67,04,343,25,1*73
$GAGSV,3,1,09,31,69,050,34,33,51,091,40,24,45,303,40,12,32,167,40,7*7A
$GAGSV,3,2,09,26,21,041,39,05,21,284,41,09,17,229,48,10,14,183,47,7*79
$GAGSV,3,3,09,03,04,329,21,7*46
$GAGSV,2,1,08,31,69,050,26,33,51,091,41,24,45,303,37,12,32,167,41,1*7F
$GAGSV,2,2,08,05,21,284,39,26,21,041,32,09,17,229,39,10,14,183,33,1*7E
$GBGSV,2,1,06,29,77,168,45,45,77,318,38,36,46,127,44,30,38,049,47,1*73
$GBGSV,2,2,06,26,21,310,40,58,,,16,1*4B
$GBGSV,2,1,05,45,77,318,33,29,77,168,43,36,46,127,47,30,38,049,38,5*72
$GBGSV,2,2,05,26,21,310,39,5*48
$GNGGA,172717.000,4005.098914,N,10513.207326,W,2,47,0.47,1583.960,M,-20.670,M,,*70
$GPGSV,4,1,13,22,71,017,39,19,64,241,43,14,60,072,39,46,37,214,45,1*6F
$GPGSV,4,2,13,30,36,161,47,13,25,241,41,02,22,044,38,06,21,177,44,1*69
$GPGSV,4,3,13,24,20,315,32,15,13,273,46,21,08,036,39,07,07,151,48,1*6C
$GPGSV,4,4,13,03,01,092,39,1*55
$GPGSV,1,1,04,30,36,161,44,06,21,177,39,24,20,315,29,03,01,092,34,8*61
$GLGSV,2,1,08,85,77,128,41,75,71,035,33,74,30,114,39,84,30,032,29,1*79
$GLGSV,2,2,08,86,30,193,47,76,26,319,38,66,08,295,17,67,04,343,28,1*7B
$GAGSV,3,1,09,31,69,050,35,33,51,091,40,24,45,303,40,12,32,167,40,7*7B
$GAGSV,3,2,09,26,21,041,39,05,21,284,41,09,17,229,48,10,14,183,47,7*79
$GAGSV,3,3,09,03,04,329,20,7*47
$GAGSV,2,1,08,31,69,050,28,33,51,091,41,24,45,303,37,12,32,167,41,1*71
$GAGSV,2,2,08,05,21,284,40,26,21,041,33,09,17,229,40,10,14,183,33,1*7F
$GBGSV,2,1,08,29,77,168,45,45,77,318,37,36,46,127,44,30,38,049,47,1*72
$GBGSV,2,2,08,26,21,310,40,57,06,205,,58,,,16,63,,,28,1*79
$GBGSV,2,1,05,45,77,318,33,29,77,168,43,36,46,127,47,30,38,049,38,5*72
$GBGSV,2,2,05,26,21,310,39,5*48
$GNGGA,172722.000,4005.098872,N,10513.207410,W,2,47,0.47,1584.160,M,-20.669,M,,*72
$GPGSV,4,1,13,22,71,017,39,19,64,241,43,14,60,072,39,46,37,214,45,1*6F
$GPGSV,4,2,13,30,36,161,47,13,25,241,41,02,22,044,38,06,21,177,44,1*69
$GPGSV,4,3,13,24,20,315,30,15,13,273,46,21,08,036,39,07,07,151,49,1*6F
$GPGSV,4,4,13,03,01,092,40,1*5B
$GPGSV,1,1,04,30,36,161,45,06,21,177,39,24,20,315,32,03,01,092,34,8*6A
$GLGSV,2,1,08,85,78,122,41,75,71,035,35,86,32,194,47,74,30,114,39,1*7F
$GLGSV,2,2,08,84,30,032,29,76,26,319,38,66,08,295,18,67,04,343,30,1*7D
$GAGSV,3,1,09,31,69,050,35,33,51,091,40,24,45,303,40,12,32,167,40,7*7B
$GAGSV,3,2,09,26,21,041,39,05,21,284,41,09,17,229,48,10,14,183,47,7*79
$GAGSV,3,3,09,03,04,329,19,7*4D
$GAGSV,2,1,08,31,69,050,28,33,51,091,41,24,45,303,37,12,32,167,41,1*71
$GAGSV,2,2,08,05,21,284,40,26,21,041,34,09,17,229,40,10,14,183,33,1*78
$GBGSV,2,1,08,29,77,168,45,45,77,318,38,36,46,127,44,30,38,049,47,1*7D
$GBGSV,2,2,08,26,21,310,40,57,06,205,,58,,,16,63,,,27,1*76
$GBGSV,2,1,05,45,77,318,33,29,77,168,43,36,46,127,47,30,38,049,38,5*72
$GBGSV,2,2,05,26,21,310,39,5*48
$GNGGA,172727.000,4005.098812,N,10513.207464,W,2,47,0.47,1584.303,M,-20.670,M,,*7D
$GPGSV,4,1,13,22,71,017,39,19,64,241,43,14,60,072,39,46,37,214,45,1*6F
$GPGSV,4,2,13,30,36,161,47,13,25,241,41,02,22,044,39,06,21,177,44,1*68
$GPGSV,4,3,13,24,20,315,30,15,13,273,46,21,08,036,39,07,07,151,49,1*6F
$GPGSV,4,4,13,03,01,092,40,1*5B
$GPGSV,1,1,04,30,36,161,45,06,21,177,39,24,20,315,32,03,01,092,35,8*6B
$GLGSV,2,1,08,85,78,122,40,75,71,035,36,86,32,194,47,74,30,114,38,1*7C
$GLGSV,2,2,08,84,30,032,29,76,26,319,38,66,08,295,15,67,04,343,32,1*72
$GAGSV,3,1,09,31,69,050,35,33,51,091,39,24,45,303,41,12,32,167,40,7*74
$GAGSV,3,2,09,26,21,041,39,05,21,284,41,09,17,229,48,10,14,183,47,7*79
$GAGSV,3,3,09,03,04,329,16,7*42
$GAGSV,2,1,08,31,69,050,28,33,51,091,41,24,45,303,37,12,32,167,41,1*71
$GAGSV,2,2,08,05,21,284,40,26,21,041,34,09,17,229,40,10,14,183,33,1*78
$GBGSV,2,1,08,29,77,168,45,45,77,318,38,36,46,127,43,30,38,049,47,1*7A
$GBGSV,2,2,08,26,21,310,40,57,06,205,,58,,,16,63,,,27,1*76
$GBGSV,2,1,05,45,77,318,33,29,77,168,43,36,46,127,47,30,38,049,38,5*72
$GBGSV,2,2,05,26,21,310,39,5*48
$GNGGA,172732.000,4005.098782,N,10513.207512,W,2,48,0.47,1584.438,M,-20.670,M,,*7F
$GPGSV,4,1,13,22,71,017,39,19,64,241,43,14,60,072,39,46,37,214,45,1*6F
$GPGSV,4,2,13,30,36,161,47,13,25,241,42,02,22,044,39,06,21,177,44,1*6B
$GPGSV,4,3,13,24,20,315,33,15,13,273,46,21,08,036,39,07,07,151,49,1*6C
$GPGSV,4,4,13,03,01,092,40,1*5B
$GPGSV,2,1,05,14,60,072,24,30,36,161,45,06,21,177,39,24,20,315,30,8*64
$GPGSV,2,2,05,03,01,092,35,8*57
$GLGSV,2,1,08,85,78,122,40,75,71,035,34,86,32,194,47,74,30,114,38,1*7E
$GLGSV,2,2,08,84,30,032,29,76,26,319,37,66,08,295,24,67,04,343,34,1*79
$GAGSV,3,1,09,31,69,050,35,33,51,091,39,24,45,303,41,12,32,167,40,7*74
$GAGSV,3,2,09,26,21,041,39,05,21,284,41,09,17,229,48,10,14,183,47,7*79
$GAGSV,3,3,09,03,04,329,14,7*40
$GAGSV,2,1,08,31,69,050,28,33,51,091,41,24,45,303,37,12,32,167,41,1*71
$GAGSV,2,2,08,05,21,284,40,26,21,041,34,09,17,229,40,10,14,183,33,1*78
$GBGSV,2,1,08,29,77,168,45,45,77,318,38,36,46,127,43,30,38,049,47,1*7A
$GBGSV,2,2,08,26,21,310,40,57,06,205,,58,,,16,63,,,27,1*76
$GBGSV,2,1,05,45,77,318,33,29,77,168,43,36,46,127,47,30,38,049,38,5*72
$GBGSV,2,2,05,26,21,310,39,5*48
$GNGGA,172737.000,4005.098770,N,10513.207500,W,2,48,0.47,1584.536,M,-20.670,M,,*7B
$GPGSV,4,1,13,22,71,017,38,19,64,241,43,14,60,072,39,46,37,214,45,1*6E
$GPGSV,4,2,13,30,36,161,46,13,25,241,42,02,22,044,39,06,21,177,44,1*6A
$GPGSV,4,3,13,24,20,315,34,15,13,273,46,21,08,036,39,07,07,151,49,1*6B
$GPGSV,4,4,13,03,01,092,40,1*5B
$GPGSV,2,1,05,14,60,072,25,30,36,161,45,06,21,177,39,24,20,315,30,8*65
$GPGSV,2,2,05,03,01,092,35,8*57
$GLGSV,2,1,08,85,78,122,40,75,71,035,34,86,32,194,47,74,30,114,38,1*7E
$GLGSV,2,2,08,84,30,032,29,76,26,319,36,66,08,295,21,67,04,343,34,1*7D
$GAGSV,3,1,09,31,69,050,35,33,51,091,39,24,45,303,41,12,32,167,40,7*74
$GAGSV,3,2,09,26,21,041,39,05,21,284,41,09,17,229,48,10,14,183,47,7*79
$GAGSV,3,3,09,03,04,329,12,7*46
$GAGSV,2,1,08,31,69,050,27,33,51,091,41,24,45,303,37,12,32,167,41,1*7E
$GAGSV,2,2,08,05,21,284,40,26,21,041,34,09,17,229,40,10,14,183,34,1*7F
$GBGSV,2,1,08,29,77,168,45,45,77,318,38,36,46,127,43,30,38,049,47,1*7A
$GBGSV,2,2,08,26,21,310,40,57,06,205,,58,,,15,63,,,27,1*75
$GBGSV,2,1,05,45,77,318,34,29,77,168,43,36,46,127,47,30,38,049,38,5*75
$GBGSV,2,2,05,26,21,310,39,5*48
$GNGGA,172742.000,4005.098770,N,10513.207464,W,2,48,0.47,1584.614,M,-20.670,M,,*79
$GPGSV,4,1,13,22,71,017,38,19,64,241,43,14,60,072,40,46,37,214,44,1*61
$GPGSV,4,2,13,30,36,161,46,13,25,241,43,02,22,044,39,06,21,177,44,1*6B
$GPGSV,4,3,13,24,20,315,34,15,13,273,46,21,08,036,39,07,07,151,49,1*6B
$GPGSV,4,4,13,03,01,092,40,1*5B
$GPGSV,2,1,05,14,60,072,25,30,36,161,45,06,21,177,39,24,20,315,29,8*6D
$GPGSV,2,2,05,03,01,092,35,8*57
$GLGSV,2,1,08,85,78,122,40,75,71,035,32,86,32,194,47,74,30,114,38,1*78
$GLGSV,2,2,08,84,30,032,29,76,26,319,36,66,08,295,24,67,04,343,33,1*7F
$GAGSV,3,1,09,31,69,050,35,33,51,091,39,24,45,303,41,12,32,167,41,7*75
$GAGSV,3,2,09,26,21,041,39,05,21,284,41,09,17,229,48,10,14,183,47,7*79
$GAGSV,3,3,09,03,04,329,12,7*46
$GAGSV,2,1,08,31,69,050,27,33,51,091,41,24,45,303,37,12,32,167,41,1*7E
$GAGSV,2,2,08,05,21,284,40,26,21,041,36,09,17,229,41,10,14,183,35,1*7D
$GBGSV,2,1,08,29,77,168,45,45,77,318,39,36,46,127,43,30,38,049,47,1*7B
$GBGSV,2,2,08,26,21,310,40,57,06,205,,58,,,16,63,,,27,1*76
$GBGSV,2,1,05,45,77,318,34,29,77,168,43,36,46,127,47,30,38,049,39,5*74
$GBGSV,2,2,05,26,21,310,39,5*48
$GNGGA,172747.000,4005.098728,N,10513.207476,W,2,48,0.47,1584.812,M,-20.669,M,,*72
$GPGSV,4,1,13,22,71,017,38,19,64,241,43,14,60,072,40,46,37,214,44,1*61
$GPGSV,4,2,13,30,36,161,46,13,25,241,43,02,22,044,39,06,21,177,44,1*6B
$GPGSV,4,3,13,24,20,315,34,15,13,273,46,21,08,036,38,07,07,151,49,1*6A
$GPGSV,4,4,13,03,01,092,40,1*5B
$GPGSV,2,1,05,14,60,072,25,30,36,161,45,06,21,177,39,24,20,315,29,8*6D
$GPGSV,2,2,05,03,01,092,35,8*57
$GLGSV,2,1,08,85,78,122,41,75,71,035,33,86,32,194,48,74,30,114,38,1*77
$GLGSV,2,2,08,84,30,032,29,76,26,319,36,66,08,295,28,67,04,343,34,1*74
$GAGSV,3,1,09,31,69,050,35,33,51,091,39,24,45,303,41,12,32,167,41,7*75
$GAGSV,3,2,09,26,21,041,39,05,21,284,41,09,17,229,48,10,14,183,47,7*79
$GAGSV,3,3,09,03,04,329,14,7*40
$GAGSV,2,1,08,31,69,050,26,33,51,091,41,24,45,303,37,12,32,167,41,1*7F
$GAGSV,2,2,08,05,21,284,40,26,21,041,36,09,17,229,41,10,14,183,35,1*7D
$GBGSV,2,1,07,29,77,168,45,45,77,318,39,36,46,127,43,30,38,049,47,1*74
$GBGSV,2,2,07,26,22,310,40,57,06,205,,58,,,15,1*79
$GBGSV,2,1,05,45,77,318,34,29,77,168,43,36,46,127,47,30,38,049,39,5*74
$GBGSV,2,2,05,26,22,310,39,5*4B
$GNGGA,172752.000,4005.098692,N,10513.207536,W,2,48,0.47,1584.943,M,-20.670,M,,*7E
$GPGSV,4,1,13,22,71,017,38,19,64,241,42,14,60,072,40,46,37,214,45,1*61
$GPGSV,4,2,13,30,36,161,46,13,25,241,43,02,22,044,39,06,21,177,44,1*6B
$GPGSV,4,3,13,24,20,315,31,15,13,273,46,21,08,036,38,07,07,151,50,1*67
$GPGSV,4,4,13,03,01,092,40,1*5B
$GPGSV,2,1,05,14,60,072,26,30,36,161,45,06,21,177,40,24,20,315,30,8*68
$GPGSV,2,2,05,03,01,092,35,8*57
$GLGSV,2,1,08,85,78,122,42,75,71,035,34,86,32,194,48,74,30,114,38,1*73
$GLGSV,2,2,08,84,30,032,29,76,26,319,34,66,08,295,27,67,04,343,33,1*7E
$GAGSV,3,1,09,31,69,050,35,33,51,091,39,24,45,303,41,12,32,167,41,7*75
$GAGSV,3,2,09,26,21,041,39,05,21,284,41,09,17,229,48,10,14,183,47,7*79
$GAGSV,3,3,09,03,04,329,15,7*41
$GAGSV,3,1,09,31,69,050,26,33,51,091,41,24,45,303,37,12,32,167,41,1*7F
$GAGSV,3,2,09,05,21,284,40,26,21,041,36,09,17,229,41,10,14,183,36,1*7E
$GAGSV,3,3,09,03,04,329,17,1*45
$GBGSV,2,1,07,29,78,166,45,45,77,318,40,36,46,127,42,30,37,049,47,1*75
$GBGSV,2,2,07,26,22,310,41,57,06,205,,58,,,15,1*78
$GBGSV,2,1,05,29,78,166,43,45,77,318,34,36,46,127,47,30,37,049,39,5*7A
$GBGSV,2,2,05,26,22,310,39,5*4B
$GNGGA,172757.000,4005.098638,N,10513.207608,W,2,48,0.47,1585.090,M,-20.669,M,,*7B
$GPGSV,4,1,13,22,71,017,38,19,64,241,42,14,60,072,40,46,37,214,44,1*60
$GPGSV,4,2,13,30,36,161,46,13,25,241,43,02,22,044,40,06,21,177,44,1*65
$GPGSV,4,3,13,24,20,315,31,15,13,273,46,21,08,036,37,07,07,151,50,1*68
$GPGSV,4,4,13,03,01,092,39,1*55
$GPGSV,2,1,05,14,60,072,26,30,36,161,45,06,21,177,40,24,20,315,30,8*68
$GPGSV,2,2,05,03,01,092,35,8*57
$GLGSV,2,1,08,85,78,122,41,75,71,035,34,86,32,194,48,74,30,114,38,1*70
$GLGSV,2,2,08,84,30,032,30,76,26,319,35,66,08,295,29,67,04,343,33,1*79
$GAGSV,3,1,09,31,69,050,34,33,51,091,39,24,45,303,41,12,32,167,41,7*74
$GAGSV,3,2,09,26,21,041,39,05,21,284,41,09,17,229,48,10,14,183,47,7*79
$GAGSV,3,3,09,03,04,329,18,7*4C
$GAGSV,3,1,09,31,69,050,25,33,51,091,41,24,45,303,36,12,32,167,41,1*7D
$GAGSV,3,2,09,05,21,284,39,26,21,041,36,09,17,229,41,10,14,183,36,1*70
$GAGSV,3,3,09,03,04,329,16,1*44
$GBGSV,2,1,07,29,78,166,45,45,77,318,40,36,45,128,42,30,37,049,47,1*79
$GBGSV,2,2,07,26,22,310,41,57,06,205,,58,,,16,1*7B
$GBGSV,2,1,05,29,78,166,42,45,77,318,33,36,45,128,47,30,37,049,39,5*70
$GBGSV,2,2,05,26,22,310,39,5*4B
$GNGGA,172802.000,4005.098614,N,10513.207656,W,2,48,0.47,1585.223,M,-20.670,M,,*73
$GPGSV,4,1,13,22,71,017,38,19,64,241,42,14,60,072,40,46,37,214,44,1*60
$GPGSV,4,2,13,30,36,161,46,13,25,241,44,02,22,044,40,06,21,177,45,1*63
$GPGSV,4,3,13,24,20,315,32,15,13,273,46,21,08,036,36,07,07,151,50,1*6A
$GPGSV,4,4,13,03,01,092,39,1*55
$GPGSV,2,1,05,14,60,072,26,30,36,161,45,06,21,177,40,24,20,315,27,8*6E
$GPGSV,2,2,05,03,01,092,35,8*57
$GLGSV,2,1,08,85,78,122,39,75,71,035,34,86,32,194,48,74,30,114,38,1*7F
$GLGSV,2,2,08,84,30,032,30,76,26,319,36,66,08,295,18,67,04,343,33,1*78
$GAGSV,3,1,09,31,69,050,34,33,51,091,39,24,45,303,41,12,32,167,41,7*74
$GAGSV,3,2,09,26,21,041,39,05,21,284,41,09,17,229,48,10,14,183,47,7*79
$GAGSV,3,3,09,03,04,329,19,7*4D
$GAGSV,3,1,09,31,69,050,25,33,51,091,41,24,45,303,36,12,32,167,41,1*7D
$GAGSV,3,2,09,05,21,284,39,26,21,041,37,09,17,229,41,10,14,183,36,1*71
$GAGSV,3,3,09,03,04,329,16,1*44
$GBGSV,2,1,07,29,78,166,45,45,77,318,40,36,45,128,42,30,37,049,47,1*79
$GBGSV,2,2,07,26,22,310,41,57,06,205,,58,,,16,1*7B
$GBGSV,2,1,05,29,78,166,42,45,77,318,33,36,45,128,47,30,37,049,39,5*70
$GBGSV,2,2,05,26,22,310,39,5*4B
$GNGGA,172807.000,4005.098608,N,10513.207614,W,2,48,0.47,1585.194,M,-20.670,M,,*72
$GPGSV,4,1,13,22,71,017,38,19,64,241,42,14,60,072,40,46,37,214,45,1*61
$GPGSV,4,2,13,30,36,161,46,13,25,241,44,02,22,044,40,06,21,177,45,1*63
$GPGSV,4,3,13,24,20,315,31,15,13,273,46,21,08,036,36,07,07,151,50,1*69
$GPGSV,4,4,13,03,01,092,38,1*54
$GPGSV,2,1,05,14,60,072,27,30,36,161,45,06,21,177,40,24,20,315,21,8*69
$GPGSV,2,2,05,03,01,092,35,8*57
$GLGSV,2,1,08,85,78,122,40,75,71,035,34,86,32,194,48,74,30,114,38,1*71
$GLGSV,2,2,08,84,30,032,30,76,26,319,37,66,08,295,29,67,04,343,34,1*7C
$GAGSV,3,1,09,31,69,050,34,33,51,091,39,24,45,303,40,12,32,167,41,7*75
$GAGSV,3,2,09,26,21,041,39,05,21,284,41,09,17,229,48,10,14,183,47,7*79
$GAGSV,3,3,09,03,04,329,21,7*46
$GAGSV,3,1,09,31,69,050,25,33,51,091,41,24,45,303,36,12,32,167,41,1*7D
$GAGSV,3,2,09,05,21,284,39,26,21,041,37,09,17,229,41,10,14,183,37,1*70
$GAGSV,3,3,09,03,04,329,15,1*47
$GBGSV,2,1,07,45,79,317,40,29,78,166,45,36,45,128,42,30,37,049,47,1*78
$GBGSV,2,2,07,26,22,310,40,57,06,205,,58,,,16,1*7A
$GBGSV,2,1,05,45,79,317,34,29,78,166,42,36,45,128,47,30,37,049,39,5*76
$GBGSV,2,2,05,26,22,310,39,5*4B
$GNGGA,172812.000,4005.098560,N,10513.207602,W,2,48,0.47,1585.226,M,-20.670,M,,*76
$GPGSV,4,1,13,22,71,017,38,19,64,241,42,14,60,072,40,46,37,214,45,1*61
$GPGSV,4,2,13,30,36,161,46,13,25,241,44,02,22,044,40,06,21,177,45,1*63
$GPGSV,4,3,13,24,20,315,31,15,13,273,46,21,08,036,37,07,07,151,50,1*68
$GPGSV,4,4,13,03,01,092,38,1*54
$GPGSV,2,1,05,14,60,072,27,30,36,161,45,06,21,177,41,24,20,315,23,8*6A
$GPGSV,2,2,05,03,01,092,35,8*57
$GLGSV,2,1,08,85,78,122,41,75,71,035,34,86,32,194,48,74,30,114,37,1*7F
$GLGSV,2,2,08,84,30,032,30,76,26,319,37,66,08,295,31,67,04,343,35,1*74
$GAGSV,3,1,09,31,69,050,34,33,51,091,38,24,45,303,40,12,32,167,41,7*74
$GAGSV,3,2,09,26,21,041,39,05,21,284,41,09,17,229,48,10,14,183,47,7*79
$GAGSV,3,3,09,03,04,329,22,7*45
$GAGSV,3,1,09,31,69,050,26,33,51,091,41,24,45,303,36,12,32,167,41,1*7E
$GAGSV,3,2,09,05,21,284,39,26,21,041,37,09,17,229,41,10,14,183,37,1*70
$GAGSV,3,3,09,03,04,329,15,1*47
$GBGSV,2,1,08,45,79,317,40,29,78,166,45,36,45,128,42,30,37,049,47,1*77
$GBGSV,2,2,08,26,22,310,40,57,06,205,,58,,,16,63,,,27,1*75
$GBGSV,2,1,05,45,79,317,34,29,78,166,42,36,45,128,47,30,37,049,39,5*76
$GBGSV,2,2,05,26,22,310,39,5*4B
$GNGGA,172817.000,4005.098536,N,10513.207548,W,2,48,0.47,1585.134,M,-20.670,M,,*7D
$GPGSV,4,1,13,22,71,017,39,19,64,241,42,14,60,072,40,46,37,214,44,1*61
$GPGSV,4,2,13,30,36,161,46,13,25,241,44,02,22,044,40,06,21,177,45,1*63
$GPGSV,4,3,13,24,20,315,28,15,13,273,46,21,08,036,37,07,07,151,50,1*60
$GPGSV,4,4,13,03,01,092,38,1*54
$GPGSV,2,1,05,14,60,072,27,30,36,161,45,06,21,177,41,24,20,315,29,8*60
$GPGSV,2,2,05,03,01,092,35,8*57
$GLGSV,2,1,08,85,78,122,41,75,71,035,33,86,32,194,48,74,30,114,36,1*79
$GLGSV,2,2,08,84,30,032,30,76,26,319,37,66,08,295,31,67,04,343,35,1*74
$GAGSV,3,1,09,31,69,050,33,33,51,091,38,24,45,303,40,12,32,167,41,7*73
$GAGSV,3,2,09,26,21,041,39,05,21,284,41,09,17,229,47,10,14,183,47,7*76
$GAGSV,3,3,09,03,04,329,21,7*46
$GAGSV,3,1,09,31,69,050,25,33,51,091,40,24,45,303,35,12,32,167,42,1*7C
$GAGSV,3,2,09,05,21,284,39,26,21,041,36,09,17,229,41,10,14,183,38,1*7E
$GAGSV,3,3,09,03,04,329,15,1*47
$GBGSV,2,1,08,45,79,317,40,29,78,166,45,36,45,128,42,30,37,049,47,1*77
$GBGSV,2,2,08,26,22,310,40,57,06,205,,58,,,15,63,,,26,1*77
$GBGSV,2,1,05,45,79,317,34,29,78,166,42,36,45,128,47,30,37,049,39,5*76
$GBGSV,2,2,05,26,22,310,39,5*4B
$GNGGA,172822.000,4005.098518,N,10513.207542,W,2,48,0.47,1585.110,M,-20.670,M,,*7B
$GPGSV,4,1,13,22,71,017,39,19,64,241,43,14,60,072,40,46,37,214,44,1*60
$GPGSV,4,2,13,30,36,161,46,13,25,241,44,02,22,044,40,06,21,177,45,1*63
$GPGSV,4,3,13,24,20,315,25,15,13,273,46,21,08,036,38,07,07,151,50,1*62
$GPGSV,4,4,13,03,01,092,39,1*55
$GPGSV,2,1,05,14,60,072,29,30,36,161,46,06,21,177,42,24,20,315,35,8*63
$GPGSV,2,2,05,03,01,092,36,8*54
$GLGSV,2,1,08,85,78,122,40,75,71,035,33,86,32,194,48,74,30,114,36,1*78
$GLGSV,2,2,08,84,30,032,31,76,26,319,36,66,08,295,33,67,04,343,34,1*77
$GAGSV,3,1,09,31,69,050,33,33,51,091,38,24,45,303,40,12,32,167,41,7*73
$GAGSV,3,2,09,26,21,041,39,05,21,284,41,09,17,229,47,10,14,183,47,7*76
$GAGSV,3,3,09,03,04,329,22,7*45
$GAGSV,3,1,09,31,69,050,27,33,51,091,40,24,45,303,36,12,32,167,42,1*7D
$GAGSV,3,2,09,05,21,284,40,26,21,041,37,09,17,229,42,10,14,183,39,1*73
$GAGSV,3,3,09,03,04,329,16,1*44
$GBGSV,2,1,08,45,79,317,40,29,78,166,45,36,45,128,41,30,37,049,47,1*74
$GBGSV,2,2,08,26,22,310,40,57,05,204,,58,,,15,63,,,27,1*74
$GBGSV,2,1,05,45,79,317,35,29,78,166,43,36,45,128,47,30,37,049,40,5*78
$GBGSV,2,2,05,26,22,310,40,5*45
$GNGGA,172827.000,4005.098464,N,10513.207542,W,2,48,0.47,1585.084,M,-20.670,M,,*78
$GPGSV,4,1,13,22,71,017,39,19,64,241,43,14,60,072,40,46,37,214,45,1*61
$GPGSV,4,2,13,30,36,161,46,13,25,241,44,06,21,177,45,02,21,044,40,1*60
$GPGSV,4,3,13,24,20,315,28,15,13,273,46,21,08,036,38,07,07,151,50,1*6F
$GPGSV,4,4,13,03,01,091,39,1*56
$GPGSV,2,1,05,14,60,072,29,30,36,161,46,06,21,177,43,24,20,315,37,8*60
$GPGSV,2,2,05,03,01,091,37,8*56
$GLGSV,2,1,08,85,78,122,40,75,71,035,33,86,32,194,48,74,30,114,36,1*78
$GLGSV,2,2,08,84,30,032,31,76,26,319,36,66,08,295,32,67,04,343,35,1*77
$GAGSV,3,1,09,31,69,050,32,33,51,091,38,24,45,303,39,12,32,167,41,7*7C
$GAGSV,3,2,09,26,21,041,39,05,21,284,41,09,17,229,47,10,14,183,47,7*76
$GAGSV,3,3,09,03,04,329,22,7*45
$GAGSV,3,1,09,31,69,050,27,33,51,091,41,24,45,303,36,12,32,167,42,1*7C
$GAGSV,3,2,09,05,21,284,40,26,21,041,37,09,17,229,42,10,14,183,39,1*73
$GAGSV,3,3,09,03,04,329,15,1*47
$GBGSV,2,1,08,45,79,317,40,29,78,166,45,36,45,128,41,30,37,049,47,1*74
$GBGSV,2,2,08,26,22,310,40,57,05,204,,58,,,15,63,,,26,1*75
$GBGSV,2,1,05,45,79,317,35,29,78,166,43,36,45,128,47,30,37,049,40,5*78
$GBGSV,2,2,05,26,22,310,40,5*45
$GNGGA,172832.000,4005.098440,N,10513.207518,W,2,48,0.47,1584.958,M,-20.670,M,,*7C
$GPGSV,4,1,13,22,71,017,40,19,64,241,43,14,60,072,40,46,37,214,45,1*6F
$GPGSV,4,2,13,30,36,161,46,13,25,241,44,06,23,177,46,02,21,044,41,1*60
$GPGSV,4,3,13,24,20,315,30,15,13,273,46,21,08,036,38,07,06,151,50,1*67
$GPGSV,4,4,13,03,01,091,39,1*56
$GPGSV,2,1,05,14,60,072,29,30,36,161,46,06,23,177,43,24,20,315,38,8*6D
$GPGSV,2,2,05,03,01,091,38,8*59
$GLGSV,2,1,08,85,78,122,41,75,71,035,32,86,32,194,48,74,30,114,36,1*78
$GLGSV,2,2,08,84,30,032,32,76,26,319,37,66,08,295,35,67,04,343,35,1*72
$GAGSV,3,1,09,31,69,050,33,33,51,091,38,24,45,303,39,12,32,167,41,7*7D
$GAGSV,3,2,09,26,21,041,39,05,21,284,41,09,17,229,47,10,14,183,47,7*76
$GAGSV,3,3,09,03,04,329,20,7*47
$GAGSV,3,1,09,31,69,050,27,33,51,091,41,24,45,303,36,12,32,167,42,1*7C
$GAGSV,3,2,09,05,21,284,40,26,21,041,37,09,17,229,42,10,14,183,39,1*73
$GAGSV,3,3,09,03,04,329,15,1*47
$GBGSV,2,1,08,45,79,317,39,29,78,166,45,36,45,128,41,30,37,049,47,1*7A
$GBGSV,2,2,08,26,22,310,40,57,05,204,,58,,,16,63,,,26,1*76
$GBGSV,2,1,05,45,79,317,35,29,78,166,43,36,45,128,47,30,37,049,40,5*78
$GBGSV,2,2,05,26,22,310,40,5*45
$GNGGA,172837.000,4005.098404,N,10513.207512,W,2,48,0.47,1584.792,M,-20.669,M,,*73
$GPGSV,4,1,13,22,71,017,40,19,64,241,43,14,60,072,41,46,37,214,45,1*6E
$GPGSV,4,2,13,30,36,161,46,13,25,240,45,06,23,177,46,02,21,044,41,1*60
$GPGSV,4,3,13,24,20,315,31,15,13,273,46,21,08,036,38,07,06,151,50,1*66
$GPGSV,4,4,13,03,01,091,39,1*56
$GPGSV,2,1,05,14,60,072,29,30,36,161,46,06,23,177,43,24,20,315,38,8*6D
$GPGSV,2,2,05,03,01,091,38,8*59
$GLGSV,2,1,08,85,78,122,40,75,71,035,32,86,32,194,48,74,30,114,35,1*7A
$GLGSV,2,2,08,84,30,032,31,76,26,319,37,66,08,295,34,67,04,343,35,1*70
$GAGSV,3,1,09,31,69,050,33,33,51,091,39,24,45,303,39,12,32,167,41,7*7C
$GAGSV,3,2,09,26,21,041,39,05,21,284,41,09,17,229,47,10,14,183,47,7*76
$GAGSV,3,3,09,03,04,329,19,7*4D
$GAGSV,3,1,09,31,69,050,27,33,51,091,41,24,45,303,36,12,32,167,42,1*7C
$GAGSV,3,2,09,05,21,284,40,26,21,041,37,09,17,229,42,10,14,183,40,1*7D
$GAGSV,3,3,09,03,04,329,16,1*44
$GBGSV,2,1,08,45,79,317,39,29,78,166,45,36,45,128,41,30,37,049,47,1*7A
$GBGSV,2,2,08,26,22,310,40,57,05,204,,58,,,16,63,,,27,1*77
$GBGSV,2,1,05,45,79,317,35,29,78,166,43,36,45,128,47,30,37,049,40,5*78
$GBGSV,2,2,05,26,22,310,40,5*45
$GNGGA,172842.000,4005.098374,N,10513.207494,W,2,48,0.47,1584.592,M,-20.670,M,,*74
$GPGSV,4,1,13,22,71,017,40,19,64,241,43,14,59,074,41,46,37,214,45,1*62
$GPGSV,4,2,13,30,36,161,46,13,25,240,45,06,23,177,47,02,21,044,41,1*61
$GPGSV,4,3,13,24,20,315,31,15,12,271,46,21,08,036,38,07,06,151,50,1*65
$GPGSV,4,4,13,03,01,091,39,1*56
$GPGSV,2,1,05,14,59,074,29,30,36,161,46,06,23,177,43,24,20,315,36,8*6F
$GPGSV,2,2,05,03,01,091,37,8*56
$GLGSV,2,1,08,85,78,122,40,75,71,035,32,86,32,194,48,74,30,114,35,1*7A
$GLGSV,2,2,08,84,30,032,31,76,26,319,37,66,08,295,34,67,04,343,35,1*70
$GAGSV,3,1,09,31,69,050,33,33,51,091,39,24,45,303,39,12,32,167,41,7*7C
$GAGSV,3,2,09,26,21,041,39,05,21,284,41,09,17,229,46,10,14,183,47,7*77
$GAGSV,3,3,09,03,04,329,19,7*4D
$GAGSV,2,1,08,31,69,050,27,33,51,091,41,24,45,303,36,12,32,167,42,1*7C
$GAGSV,2,2,08,05,21,284,40,26,21,041,36,09,17,229,42,10,14,183,40,1*7C
$GBGSV,2,1,08,45,79,317,39,29,78,166,45,36,45,128,41,30,37,049,47,1*7A
$GBGSV,2,2,08,26,22,310,40,57,05,204,,58,,,16,63,,,27,1*77
$GBGSV,2,1,05,45,79,317,35,29,78,166,43,36,45,128,47,30,37,049,39,5*76
$GBGSV,2,2,05,26,22,310,40,5*45
$GNGGA,172847.000,4005.098362,N,10513.207524,W,2,48,0.47,1584.438,M,-20.670,M,,*7D
$GPGSV,4,1,13,22,71,021,40,19,65,243,43,14,59,074,41,46,37,214,45,1*64
$GPGSV,4,2,13,30,36,161,46,13,25,240,45,06,23,177,47,02,21,044,41,1*61
$GPGSV,4,3,13,24,20,315,31,15,12,271,46,21,07,036,38,07,06,151,50,1*6A
$GPGSV,4,4,13,03,01,091,39,1*56
$GPGSV,2,1,05,14,59,074,29,30,36,161,46,06,23,177,43,24,20,315,32,8*6B
$GPGSV,2,2,05,03,01,091,37,8*56
$GLGSV,2,1,08,85,78,122,40,75,71,035,32,86,32,194,48,84,30,032,30,1*75
$GLGSV,2,2,08,74,30,114,35,76,26,319,35,66,08,295,31,67,04,343,35,1*79
$GAGSV,3,1,09,31,69,050,34,33,51,091,39,24,45,303,39,12,32,167,41,7*7B
$GAGSV,3,2,09,05,21,284,41,26,21,041,39,09,17,229,46,10,14,183,47,7*77
$GAGSV,3,3,09,03,04,329,19,7*4D
$GAGSV,2,1,08,31,69,050,27,33,51,091,41,24,45,303,35,12,32,167,42,1*7F
$GAGSV,2,2,08,05,21,284,40,26,21,041,36,09,17,229,42,10,14,183,40,1*7C
$GBGSV,2,1,07,45,79,317,39,29,78,166,45,36,45,128,41,30,37,049,47,1*75
$GBGSV,2,2,07,26,22,310,40,57,05,204,,58,,,17,1*79
$GBGSV,2,1,05,45,79,317,35,29,78,166,43,36,45,128,47,30,37,049,39,5*76
$GBGSV,2,2,05,26,22,310,40,5*45
$GNGGA,172852.000,4005.098392,N,10513.207572,W,2,48,0.47,1584.395,M,-20.669,M,,*7D
$GPGSV,4,1,13,22,71,021,40,19,65,243,43,14,59,074,41,46,37,214,44,1*65
$GPGSV,4,2,13,30,36,161,46,13,25,240,45,06,23,177,47,24,21,315,31,1*65
$GPGSV,4,3,13,02,21,044,41,15,12,271,46,21,07,036,37,07,06,151,51,1*61
$GPGSV,4,4,13,03,01,091,39,1*56
$GPGSV,2,1,05,14,59,074,29,30,36,161,47,06,23,177,44,24,21,315,33,8*6D
$GPGSV,2,2,05,03,01,091,37,8*56
$GLGSV,2,1,08,85,78,122,41,75,71,035,32,86,32,194,48,84,30,032,30,1*74
$GLGSV,2,2,08,74,30,114,34,76,26,319,35,66,08,295,32,67,04,343,35,1*7B
$GAGSV,3,1,09,31,69,050,34,33,51,091,39,24,45,303,39,12,32,167,41,7*7B
$GAGSV,3,2,09,05,21,284,41,26,21,041,39,09,17,229,46,10,14,183,47,7*77
$GAGSV,3,3,09,03,04,329,19,7*4D
$GAGSV,3,1,09,31,69,050,28,33,51,091,41,24,45,303,35,12,32,167,43,1*71
$GAGSV,3,2,09,05,21,284,40,26,21,041,36,09,17,229,43,10,14,183,41,1*7C
$GAGSV,3,3,09,03,04,329,17,1*45
$GBGSV,2,1,07,45,79,317,39,29,78,166,45,36,45,128,41,30,37,049,47,1*75
$GBGSV,2,2,07,26,22,310,40,57,05,204,,58,,,17,1*79
$GBGSV,2,1,05,45,79,317,36,29,78,166,43,36,45,128,47,30,37,049,40,5*7B
$GBGSV,2,2,05,26,22,310,40,5*45
$GNGGA,172857.000,4005.098434,N,10513.207602,W,2,48,0.47,1584.265,M,-20.670,M,,*71
$GPGSV,4,1,13,22,71,021,40,19,65,243,43,14,59,074,41,46,37,214,45,1*64
$GPGSV,4,2,13,30,35,161,46,13,25,240,45,06,23,177,47,24,21,315,30,1*67
$GPGSV,4,3,13,02,21,044,41,15,12,271,46,21,07,036,36,07,06,151,51,1*60
$GPGSV,4,4,13,03,01,091,38,1*57
$GPGSV,2,1,05,14,59,074,29,30,35,161,47,06,23,177,44,24,21,315,34,8*69
$GPGSV,2,2,05,03,01,091,36,8*57
$GLGSV,2,1,08,85,78,122,41,75,71,035,32,86,32,194,48,84,30,032,30,1*74
$GLGSV,2,2,08,74,30,114,32,76,26,319,35,66,08,295,33,67,04,343,34,1*7D
$GAGSV,3,1,09,31,69,050,35,33,51,091,39,24,45,303,39,12,32,167,41,7*7A
$GAGSV,3,2,09,05,21,284,41,26,21,041,39,09,17,229,46,10,14,183,47,7*77
$GAGSV,3,3,09,03,04,329,21,7*46
$GAGSV,3,1,09,31,69,050,27,33,51,091,41,24,45,303,35,12,32,167,43,1*7E
$GAGSV,3,2,09,05,21,284,40,26,21,041,36,09,17,229,43,10,14,183,41,1*7C
$GAGSV,3,3,09,03,04,329,17,1*45
$GBGSV,2,1,07,45,79,317,39,29,78,166,45,36,45,128,41,30,37,049,47,1*75
$GBGSV,2,2,07,26,22,310,40,57,05,204,,58,,,17,1*79
$GBGSV,2,1,05,45,79,317,35,29,78,166,42,36,45,128,47,30,37,049,39,5*77
$GBGSV,2,2,05,26,22,310,39,5*4B
$GNGGA,172902.000,4005.098422,N,10513.207608,W,2,48,0.47,1584.266,M,-20.670,M,,*7E
$GPGSV,4,1,13,22,71,021,40,19,65,243,43,14,59,074,41,46,37,214,45,1*64
$GPGSV,4,2,13,30,35,161,46,13,25,240,46,06,23,177,48,24,21,315,30,1*6B
$GPGSV,4,3,13,02,21,044,42,15,12,271,46,21,07,036,36,07,06,151,51,1*63
$GPGSV,4,4,13,03,01,091,38,1*57
$GPGSV,2,1,05,14,59,074,29,30,35,161,47,06,23,177,44,24,21,315,37,8*6A
$GPGSV,2,2,05,03,01,091,36,8*57
$GLGSV,2,1,08,85,78,122,41,75,71,035,32,86,32,194,47,84,30,032,30,1*7B
$GLGSV,2,2,08,74,30,114,33,76,26,319,35,66,08,295,34,67,04,343,34,1*7B
$GAGSV,3,1,09,31,69,050,35,33,51,091,39,24,45,303,39,12,32,167,41,7*7A
$GAGSV,3,2,09,05,21,284,41,26,21,041,39,09,17,229,46,10,14,183,47,7*77
$GAGSV,3,3,09,03,04,329,23,7*44
$GAGSV,3,1,09,31,69,050,28,33,51,091,41,24,45,303,35,12,32,167,43,1*71
$GAGSV,3,2,09,05,21,284,40,26,21,041,36,09,17,229,43,10,14,183,42,1*7F
$GAGSV,3,3,09,03,04,329,18,1*4A
$GBGSV,2,1,07,45,79,317,39,29,78,166,45,36,45,128,41,30,37,049,47,1*75
$GBGSV,2,2,07,26,22,310,40,57,05,204,,58,,,17,1*79
$GBGSV,2,1,05,45,79,317,35,29,78,166,42,36,45,128,47,30,37,049,39,5*77
$GBGSV,2,2,05,26,22,310,39,5*4B
$GNGGA,172907.000,4005.098404,N,10513.207602,W,2,48,0.47,1584.248,M,-20.670,M,,*79
$GPGSV,4,1,13,22,71,021,40,19,65,243,43,14,59,074,41,46,37,214,45,1*64
$GPGSV,4,2,13,30,35,161,46,13,25,240,46,06,23,177,48,24,21,315,30,1*6B
$GPGSV,4,3,13,02,21,044,42,15,12,271,45,21,07,036,34,07,06,151,51,1*62
$GPGSV,4,4,13,03,01,091,38,1*57
$GPGSV,2,1,05,14,59,074,29,30,35,161,47,06,23,177,44,24,21,315,37,8*6A
$GPGSV,2,2,05,03,01,091,36,8*57
$GLGSV,2,1,08,85,78,122,41,75,71,035,34,86,32,194,47,84,30,032,30,1*7D
$GLGSV,2,2,08,74,30,114,33,76,26,319,35,66,08,295,36,67,04,343,35,1*78
$GAGSV,3,1,09,31,69,050,35,33,51,091,39,24,45,303,39,12,32,167,41,7*7A
$GAGSV,3,2,09,05,21,284,41,26,21,041,39,09,17,229,46,10,14,183,47,7*77
$GAGSV,3,3,09,03,04,329,24,7*43
$GAGSV,3,1,09,31,69,050,28,33,51,091,41,24,45,303,35,12,32,167,43,1*71
$GAGSV,3,2,09,05,21,284,40,26,21,041,36,09,17,229,43,10,14,183,42,1*7F
$GAGSV,3,3,09,03,04,329,19,1*4B
$GBGSV,2,1,08,45,79,317,40,29,78,166,45,36,45,128,41,30,37,049,47,1*74
$GBGSV,2,2,08,26,22,310,40,57,05,204,,58,,,18,63,,,28,1*76
$GBGSV,2,1,05,45,79,317,35,29,78,166,42,36,45,128,47,30,37,049,39,5*77
$GBGSV,2,2,05,26,22,310,39,5*4B
$GNGGA,172912.000,4005.098410,N,10513.207572,W,2,47,0.47,1584.204,M,-20.670,M,,*7B
$GPGSV,4,1,13,22,71,021,40,19,65,243,43,14,59,074,41,46,37,214,45,1*64
$GPGSV,4,2,13,30,35,161,46,13,25,240,46,06,23,177,48,24,21,315,30,1*6B
$GPGSV,4,3,13,02,21,044,42,15,12,271,45,21,07,036,33,07,06,151,51,1*65
$GPGSV,4,4,13,03,01,091,38,1*57
$GPGSV,2,1,05,14,59,074,28,30,35,161,47,06,23,177,44,24,21,315,38,8*64
$GPGSV,2,2,05,03,01,091,37,8*56
$GLGSV,2,1,08,85,78,122,41,75,71,035,35,86,32,194,47,84,30,032,31,1*7D
$GLGSV,2,2,08,74,30,114,33,76,26,319,36,66,08,295,35,67,04,343,36,1*7B
$GAGSV,3,1,09,31,69,050,35,33,51,091,39,24,45,303,39,12,32,167,41,7*7A
$GAGSV,3,2,09,05,21,283,41,26,21,041,39,09,17,229,46,10,14,183,47,7*70
$GAGSV,3,3,09,03,04,329,24,7*43
$GAGSV,3,1,09,31,69,050,28,33,51,091,41,24,45,303,35,12,32,167,43,1*71
$GAGSV,3,2,09,05,21,283,40,26,21,041,37,09,17,229,43,10,14,183,42,1*79
$GAGSV,3,3,09,03,04,329,19,1*4B
$GBGSV,2,1,07,45,79,317,40,29,78,166,45,36,45,128,41,30,37,049,47,1*7B
$GBGSV,2,2,07,26,22,310,40,57,05,204,,58,,,18,1*76
$GBGSV,2,1,05,45,79,317,36,29,78,166,42,36,45,128,46,30,37,049,40,5*7B
$GBGSV,2,2,05,26,22,310,39,5*4B
$GNGGA,172917.000,4005.098416,N,10513.207620,W,2,47,0.47,1584.105,M,-20.670,M,,*7E
$GPGSV,4,1,13,22,71,021,40,19,65,243,43,14,59,074,41,46,37,214,45,1*64
$GPGSV,4,2,13,30,35,161,46,13,25,240,46,06,23,177,48,24,21,315,27,1*6D
$GPGSV,4,3,13,02,21,044,42,15,12,271,45,21,07,036,32,07,06,151,51,1*64
$GPGSV,4,4,13,03,01,091,38,1*57
$GPGSV,2,1,05,14,59,074,28,30,35,161,47,06,23,177,45,24,21,315,35,8*68
$GPGSV,2,2,05,03,01,091,37,8*56
$GLGSV,2,1,08,85,78,122,40,75,71,035,34,86,32,194,47,84,30,032,31,1*7D
$GLGSV,2,2,08,74,30,114,34,76,26,319,36,66,08,295,36,67,04,343,37,1*7E
$GAGSV,3,1,09,31,69,050,35,33,51,091,39,24,45,303,39,12,33,167,41,7*7B
$GAGSV,3,2,09,05,21,283,41,26,21,041,39,09,17,229,46,10,15,183,47,7*71
$GAGSV,3,3,09,03,04,329,25,7*42
$GAGSV,3,1,09,31,69,050,26,33,51,091,41,24,45,303,34,12,33,167,43,1*7F
$GAGSV,3,2,09,05,21,283,40,26,21,041,37,09,17,229,43,10,15,183,42,1*78
$GAGSV,3,3,09,03,04,329,18,1*4A
$GBGSV,2,1,07,45,79,317,40,29,78,166,45,36,45,128,41,30,37,049,47,1*7B
$GBGSV,2,2,07,26,22,310,40,57,05,204,,58,,,18,1*76
$GBGSV,2,1,05,45,79,317,35,29,78,166,42,36,45,128,46,30,37,049,40,5*78
$GBGSV,2,2,05,26,22,310,39,5*4B
$GNGGA,172922.000,4005.098428,N,10513.207674,W,2,47,0.47,1584.060,M,-20.670,M,,*76
$GPGSV,4,1,13,22,71,021,40,19,65,243,43,14,59,074,41,46,37,214,44,1*65
$GPGSV,4,2,13,30,35,161,46,13,25,240,46,06,23,177,48,24,21,315,23,1*69
$GPGSV,4,3,13,02,21,044,42,15,12,271,45,21,07,036,31,07,06,151,51,1*67
$GPGSV,4,4,13,03,01,091,37,1*58
$GPGSV,2,1,05,14,59,074,27,30,35,161,47,06,23,177,45,24,21,315,32,8*60
$GPGSV,2,2,05,03,01,091,37,8*56
$GLGSV,2,1,08,85,78,122,40,75,71,035,34,86,32,194,47,84,30,032,31,1*7D
$GLGSV,2,2,08,74,30,114,34,76,26,319,36,66,08,295,37,67,04,343,37,1*7F
$GAGSV,3,1,09,31,69,050,35,33,51,091,39,24,45,303,39,12,33,167,41,7*7B
$GAGSV,3,2,09,05,21,283,41,26,21,041,39,09,17,229,46,10,15,183,47,7*71
$GAGSV,3,3,09,03,04,329,26,7*41
$GAGSV,3,1,09,31,69,050,27,33,51,091,41,24,45,303,34,12,33,167,43,1*7E
$GAGSV,3,2,09,05,21,283,40,26,21,041,37,09,17,229,43,10,15,183,42,1*78
$GAGSV,3,3,09,03,04,329,17,1*45
$GBGSV,2,1,07,45,79,317,40,29,78,166,45,36,45,128,41,30,37,049,47,1*7B
$GBGSV,2,2,07,26,22,310,40,57,05,204,,58,,,18,1*76
$GBGSV,2,1,05,45,79,317,35,29,78,166,42,36,45,128,46,30,37,049,40,5*78
$GBGSV,2,2,05,26,22,310,39,5*4B
$GNGGA,172927.000,4005.098452,N,10513.207644,W,2,47,0.47,1583.989,M,-20.670,M,,*74
$GPGSV,4,1,13,22,71,021,40,19,65,243,43,14,59,074,41,46,37,214,44,1*65
$GPGSV,4,2,13,30,35,161,46,13,25,240,46,06,23,177,48,24,21,315,25,1*6F
$GPGSV,4,3,13,02,21,044,42,15,12,271,45,21,07,036,32,07,06,151,51,1*64
$GPGSV,4,4,13,03,01,091,36,1*59
$GPGSV,2,1,05,14,59,074,28,30,35,161,47,06,23,177,45,24,21,315,31,8*6C
$GPGSV,2,2,05,03,01,091,37,8*56
$GLGSV,2,1,08,85,78,122,41,75,71,035,33,86,32,194,47,84,30,032,31,1*7B
$GLGSV,2,2,08,74,30,114,34,76,26,319,35,66,08,295,36,67,04,343,37,1*7D
$GAGSV,3,1,09,31,69,050,34,33,51,091,39,24,46,304,39,12,33,167,41,7*7E
$GAGSV,3,2,09,05,21,283,41,26,21,041,39,09,17,229,46,10,15,183,47,7*71
$GAGSV,3,3,09,03,04,329,25,7*42
$GAGSV,3,1,09,31,69,050,27,33,51,091,41,24,46,304,33,12,33,167,43,1*7D
$GAGSV,3,2,09,05,21,283,40,26,21,041,37,09,17,229,43,10,15,183,42,1*78
$GAGSV,3,3,09,03,04,329,15,1*47
$GBGSV,2,1,07,45,79,317,39,29,78,166,45,36,45,128,41,30,37,049,46,1*74
$GBGSV,2,2,07,26,22,310,40,57,05,204,,58,,,18,1*76
$GBGSV,2,1,05,45,79,317,36,29,78,166,42,36,45,128,46,30,37,049,40,5*7B
$GBGSV,2,2,05,26,22,310,39,5*4B
$GNGGA,172932.000,4005.098488,N,10513.207596,W,2,48,0.47,1583.880,M,-20.670,M,,*7C
$GPGSV,4,1,13,22,71,021,40,19,65,243,43,14,59,074,41,46,37,214,44,1*65
$GPGSV,4,2,13,30,35,161,46,13,25,240,47,06,23,177,48,24,21,315,26,1*6D
$GPGSV,4,3,13,02,21,044,42,15,12,271,45,21,07,036,33,07,06,151,51,1*65
$GPGSV,4,4,13,03,01,091,36,1*59
$GPGSV,2,1,05,14,59,074,28,30,35,161,47,06,23,177,45,24,21,315,34,8*69
$GPGSV,2,2,05,03,01,091,38,8*59
$GLGSV,2,1,08,85,78,122,41,75,71,035,35,86,32,194,47,84,30,032,31,1*7D
$GLGSV,2,2,08,74,30,114,34,76,26,319,33,66,08,295,36,67,04,343,36,1*7A
$GAGSV,3,1,09,31,69,050,34,33,51,091,39,24,46,304,39,12,33,167,42,7*7D
$GAGSV,3,2,09,05,21,283,41,26,20,041,39,09,17,229,45,10,15,183,47,7*73
$GAGSV,3,3,09,03,04,329,24,7*43
$GAGSV,2,1,08,31,69,050,26,33,51,091,41,24,46,304,33,12,33,167,43,1*7C
$GAGSV,2,2,08,05,21,283,40,26,20,041,37,09,17,229,43,10,15,183,43,1*78
$GBGSV,2,1,07,45,79,317,38,29,78,166,45,36,45,128,41,30,37,049,46,1*75
$GBGSV,2,2,07,26,22,310,40,57,05,204,,58,,,18,1*76
$GBGSV,2,1,05,45,79,317,36,29,78,166,42,36,45,128,46,30,37,049,40,5*7B
$GBGSV,2,2,05,26,22,310,39,5*4B
$GNGGA,172937.000,4005.098530,N,10513.207542,W,2,47,0.47,1583.886,M,-20.670,M,,*7B
$GPGSV,4,1,13,22,71,021,40,19,65,243,43,14,59,074,41,46,37,214,44,1*65
$GPGSV,4,2,13,30,35,161,46,13,25,240,48,06,23,177,48,24,21,315,26,1*62
$GPGSV,4,3,13,02,21,044,42,15,12,271,45,21,07,036,33,07,06,151,51,1*65
$GPGSV,4,4,13,03,01,091,36,1*59
$GPGSV,2,1,05,14,59,074,28,30,35,161,47,06,23,177,45,24,21,315,37,8*6A
$GPGSV,2,2,05,03,01,091,38,8*59
$GLGSV,2,1,08,85,78,122,41,75,71,035,36,86,32,194,46,84,30,032,31,1*7F
$GLGSV,2,2,08,74,30,114,34,76,26,319,33,66,08,295,36,67,04,343,36,1*7A
$GAGSV,3,1,09,31,68,053,34,33,51,090,39,24,46,304,39,12,33,167,42,7*7E
$GAGSV,3,2,09,05,21,283,41,26,20,041,39,09,17,229,45,10,15,183,47,7*73
$GAGSV,3,3,09,03,04,329,24,7*43
$GAGSV,2,1,08,31,68,053,26,33,51,090,41,24,46,304,32,12,33,167,43,1*7E
$GAGSV,2,2,08,05,21,283,39,26,20,041,36,09,17,229,43,10,15,183,43,1*77
$GBGSV,2,1,07,45,79,317,38,29,78,166,45,36,45,128,41,30,37,049,46,1*75
$GBGSV,2,2,07,26,22,310,40,57,05,204,,58,,,18,1*76
$GBGSV,2,1,05,45,79,317,36,29,78,166,42,36,45,128,46,30,37,049,40,5*7B
$GBGSV,2,2,05,26,22,310,39,5*4B
$GNGGA,172942.000,4005.098494,N,10513.207500,W,2,48,0.47,1583.892,M,-20.670,M,,*7A
$GPGSV,4,1,13,22,71,021,40,19,65,243,43,14,59,074,41,46,37,214,44,1*65
$GPGSV,4,2,13,30,35,161,46,13,25,240,48,06,23,177,48,24,21,315,26,1*62
$GPGSV,4,3,13,02,21,044,42,15,12,271,45,21,07,036,34,07,06,151,51,1*62
$GPGSV,4,4,13,03,01,091,36,1*59
$GPGSV,2,1,05,14,59,074,28,30,35,161,48,06,23,177,46,24,21,315,39,8*68
$GPGSV,2,2,05,03,01,091,39,8*58
$GLGSV,2,1,08,85,78,122,41,75,71,035,37,86,32,194,46,84,30,032,30,1*7F
$GLGSV,2,2,08,74,30,114,33,76,26,319,35,66,08,294,35,67,04,342,35,1*7B
$GAGSV,3,1,09,31,68,053,33,33,51,090,39,24,46,304,39,12,33,167,42,7*79
$GAGSV,3,2,09,05,21,283,41,26,20,041,39,09,17,229,45,10,15,183,46,7*72
$GAGSV,3,3,09,03,04,329,24,7*43
$GAGSV,2,1,08,31,68,053,27,33,51,090,41,24,46,304,32,12,33,167,43,1*7F
$GAGSV,2,2,08,05,21,283,40,26,20,041,36,09,17,229,44,10,15,183,44,1*79
$GBGSV,2,1,07,45,79,317,38,29,78,166,45,36,45,128,41,30,37,049,46,1*75
$GBGSV,2,2,07,26,22,310,40,57,05,204,,58,,,18,1*76
$GBGSV,2,1,05,45,79,317,37,29,78,166,42,36,45,128,46,30,37,049,41,5*7B
$GBGSV,2,2,05,26,22,310,39,5*4B
$GNGGA,172947.000,4005.098476,N,10513.207476,W,2,47,0.47,1583.913,M,-20.670,M,,*74
$GPGSV,4,1,13,22,71,021,40,19,65,243,43,14,59,074,41,46,37,214,44,1*65
$GPGSV,4,2,13,30,35,161,46,13,25,240,48,06,23,177,48,24,21,315,27,1*63
$GPGSV,4,3,13,02,21,044,42,15,12,271,45,21,07,036,34,07,06,151,51,1*62
$GPGSV,4,4,13,03,01,091,36,1*59
$GPGSV,2,1,05,14,59,074,28,30,35,161,48,06,23,177,46,24,21,315,39,8*68
$GPGSV,2,2,05,03,01,091,39,8*58
$GLGSV,2,1,08,85,78,122,40,75,71,035,35,86,32,194,46,84,30,032,28,1*75
$GLGSV,2,2,08,74,30,114,32,76,26,319,34,66,08,294,39,67,04,342,35,1*77
$GAGSV,3,1,09,31,68,053,33,33,51,090,39,24,46,304,39,12,33,167,42,7*79
$GAGSV,3,2,09,05,21,283,41,26,20,041,39,09,17,229,45,10,15,183,46,7*72
$GAGSV,3,3,09,03,04,329,24,7*43
$GAGSV,2,1,08,31,68,053,25,33,51,090,41,24,46,304,31,12,33,167,43,1*7E
$GAGSV,2,2,08,05,21,283,39,26,20,041,36,09,17,229,44,10,15,183,44,1*77
$GBGSV,2,1,07,45,79,317,39,29,78,166,45,36,45,128,41,30,37,049,46,1*74
$GBGSV,2,2,07,26,22,310,39,57,05,204,,58,,,18,1*78
$GBGSV,2,1,05,45,79,317,36,29,78,166,42,36,45,128,46,30,37,049,41,5*7A
$GBGSV,2,2,05,26,22,310,39,5*4B
$GNGGA,172952.000,4005.098482,N,10513.207452,W,2,47,0.47,1583.980,M,-20.670,M,,*77
$GPGSV,4,1,13,22,71,021,40,19,65,243,43,14,59,074,41,46,37,214,45,1*64
$GPGSV,4,2,13,30,35,161,46,13,25,240,48,06,23,177,48,24,21,315,28,1*6C
$GPGSV,4,3,13,02,21,044,42,15,12,271,45,21,07,036,35,07,06,151,50,1*62
$GPGSV,4,4,13,03,01,091,34,1*5B
$GPGSV,2,1,05,14,59,074,28,30,35,161,48,06,23,177,46,24,21,315,39,8*68
$GPGSV,2,2,05,03,01,091,39,8*58
$GLGSV,2,1,08,85,78,122,40,75,71,040,33,86,32,194,46,84,30,032,28,1*71
$GLGSV,2,2,08,74,29,115,33,76,27,320,33,66,08,294,40,67,04,342,34,1*7C
$GAGSV,3,1,09,31,68,053,33,33,51,090,39,24,46,304,39,12,33,167,42,7*79
$GAGSV,3,2,09,05,21,283,41,26,20,041,39,09,17,229,45,10,15,183,46,7*72
$GAGSV,3,3,09,03,04,329,22,7*45
$GAGSV,2,1,08,31,68,053,25,33,51,090,41,24,46,304,31,12,33,167,43,1*7E
$GAGSV,2,2,08,05,21,283,39,26,20,041,35,09,17,229,44,10,15,183,44,1*74
$GBGSV,2,1,07,45,79,317,39,29,78,166,45,36,45,128,41,30,37,049,46,1*74
$GBGSV,2,2,07,26,22,310,39,57,05,204,,58,,,19,1*79
$GBGSV,2,1,05,45,79,317,36,29,78,166,42,36,45,128,46,30,37,049,41,5*7A
$GBGSV,2,2,05,26,22,310,39,5*4B
$GNGGA,172957.000,4005.098506,N,10513.207488,W,2,48,0.47,1584.071,M,-20.670,M,,*77
$GPGSV,4,1,13,22,71,021,40,19,65,243,43,14,59,074,41,46,37,214,44,1*65
$GPGSV,4,2,13,30,35,161,46,13,25,240,48,06,23,177,48,24,21,315,28,1*6C
$GPGSV,4,3,13,02,21,044,42,15,12,271,45,21,07,036,35,07,06,151,50,1*62
$GPGSV,4,4,13,03,01,091,34,1*5B
$GPGSV,2,1,05,14,59,074,27,30,35,161,48,06,23,177,46,24,21,315,37,8*69
$GPGSV,2,2,05,03,01,091,39,8*58
$GLGSV,2,1,08,85,78,122,39,75,71,040,32,86,32,194,46,84,30,032,27,1*71
$GLGSV,2,2,08,74,29,115,34,76,27,320,32,66,08,294,40,67,04,342,35,1*7B
$GAGSV,3,1,09,31,68,053,33,33,51,090,39,24,46,304,39,12,33,167,42,7*79
$GAGSV,3,2,09,05,21,283,41,26,20,041,39,09,17,229,45,10,15,183,46,7*72
$GAGSV,3,3,09,03,04,329,21,7*46
$GAGSV,2,1,08,31,68,053,25,33,51,090,41,24,46,304,30,12,33,167,43,1*7F
$GAGSV,2,2,08,05,21,283,39,26,20,041,36,09,17,229,44,10,15,183,44,1*77
$GBGSV,2,1,07,45,79,317,39,29,78,166,45,36,45,128,41,30,37,049,46,1*74
$GBGSV,2,2,07,26,22,310,40,57,05,204,,58,,,19,1*77
$GBGSV,2,1,05,45,79,317,36,29,78,166,42,36,45,128,46,30,37,049,41,5*7A
$GBGSV,2,2,05,26,22,310,39,5*4B
$GNGGA,173002.000,4005.098530,N,10513.207512,W,2,48,0.47,1584.133,M,-20.670,M,,*7F
$GPGSV,4,1,13,22,71,021,40,19,65,243,43,14,59,074,41,46,37,214,45,1*64
$GPGSV,4,2,13,30,35,161,46,13,25,240,48,06,23,177,48,24,21,315,28,1*6C
$GPGSV,4,3,13,02,21,044,42,15,12,271,45,21,07,036,36,07,06,151,50,1*61
$GPGSV,4,4,13,03,01,091,35,1*5A
$GPGSV,2,1,05,14,59,074,26,30,35,161,48,06,23,177,46,24,21,315,37,8*68
$GPGSV,2,2,05,03,01,091,39,8*58
$GLGSV,2,1,08,85,79,114,39,75,71,040,32,86,33,194,46,84,29,032,27,1*7C
$GLGSV,2,2,08,74,29,115,35,76,27,320,32,66,08,294,40,67,04,342,35,1*7A
$GAGSV,3,1,09,31,68,053,33,33,51,090,39,24,46,304,39,12,33,167,42,7*79
$GAGSV,3,2,09,05,21,283,41,26,20,041,38,09,17,229,44,10,15,183,46,7*72
$GAGSV,3,3,09,03,04,329,21,7*46
$GAGSV,3,1,09,31,68,053,25,33,51,090,41,24,46,304,30,12,33,167,43,1*7F
$GAGSV,3,2,09,05,21,283,39,26,20,041,36,09,17,229,44,10,15,183,44,1*77
$GAGSV,3,3,09,03,04,329,17,1*45
$GBGSV,2,1,07,45,79,317,39,29,78,166,45,36,45,128,42,30,37,049,46,1*77
$GBGSV,2,2,07,26,22,310,40,57,05,204,,58,,,19,1*77
$GBGSV,2,1,05,45,79,317,36,29,78,166,42,36,45,128,46,30,37,049,41,5*7A
$GBGSV,2,2,05,26,22,310,38,5*4A
$GNGGA,173007.000,4005.098566,N,10513.207566,W,2,48,0.47,1584.020,M,-20.669,M,,*71
$GPGSV,4,1,13,22,71,021,40,19,65,243,43,14,59,074,41,46,37,214,45,1*64
$GPGSV,4,2,13,30,35,161,46,13,25,240,48,06,23,177,48,24,21,315,29,1*6D
$GPGSV,4,3,13,02,21,044,42,15,12,271,45,21,07,036,36,07,06,151,50,1*61
$GPGSV,4,4,13,03,01,091,35,1*5A
$GPGSV,2,1,05,14,59,074,25,30,35,161,48,06,23,177,47,24,21,315,38,8*65
$GPGSV,2,2,05,03,01,091,39,8*58
$GLGSV,2,1,08,85,79,114,39,75,71,040,35,86,33,194,46,84,29,032,27,1*7B
$GLGSV,2,2,08,74,29,115,35,76,27,320,33,66,08,294,39,67,04,342,35,1*75
$GAGSV,3,1,09,31,68,053,33,33,51,090,39,24,46,304,39,12,33,167,42,7*79
$GAGSV,3,2,09,05,21,283,41,26,20,041,38,09,17,229,44,10,15,183,45,7*71
$GAGSV,3,3,09,03,04,329,21,7*46
$GAGSV,3,1,09,31,68,053,25,33,51,090,41,24,46,304,29,12,33,167,43,1*77
$GAGSV,3,2,09,05,21,283,39,26,20,041,37,09,17,229,44,10,15,183,44,1*76
$GAGSV,3,3,09,03,04,329,17,1*45
$GBGSV,2,1,07,45,79,317,40,29,78,166,45,36,45,128,42,30,37,049,46,1*79
$GBGSV,2,2,07,26,22,310,40,57,05,204,,58,,,19,1*77
$GBGSV,2,1,05,45,79,317,36,29,78,166,42,36,45,128,46,30,37,049,41,5*7A
$GBGSV,2,2,05,26,22,310,37,5*45
$GNGGA,173012.000,4005.098572,N,10513.207596,W,2,48,0.47,1583.827,M,-20.670,M,,*7F
$GPGSV,4,1,13,22,71,021,40,19,65,243,43,14,59,074,41,46,37,214,44,1*65
$GPGSV,4,2,13,30,35,161,46,13,25,240,48,06,23,177,48,24,21,315,31,1*64
$GPGSV,4,3,13,02,21,044,42,15,12,271,45,21,07,036,37,07,06,151,49,1*68
$GPGSV,4,4,13,03,01,091,34,1*5B
$GPGSV,2,1,05,14,59,074,24,30,35,161,48,06,23,177,47,24,21,315,39,8*65
$GPGSV,2,2,05,03,01,091,39,8*58
$GLGSV,2,1,08,85,79,114,40,75,71,040,36,86,33,194,46,84,29,032,27,1*76
$GLGSV,2,2,08,74,29,115,35,76,27,320,36,66,08,294,39,67,04,342,35,1*70
$GAGSV,3,1,09,31,68,053,34,33,51,090,40,24,46,304,39,12,33,167,42,7*70
$GAGSV,3,2,09,05,21,283,41,26,20,041,38,09,17,229,44,10,15,183,45,7*71
$GAGSV,3,3,09,03,04,329,21,7*46
$GAGSV,3,1,09,31,68,053,26,33,51,090,41,24,46,304,29,12,33,167,43,1*74
$GAGSV,3,2,09,05,21,283,39,26,20,041,37,09,17,229,44,10,15,183,44,1*76
$GAGSV,3,3,09,03,04,329,17,1*45
$GBGSV,2,1,07,45,79,317,40,29,78,166,45,36,45,128,42,30,37,049,46,1*79
$GBGSV,2,2,07,26,22,310,39,57,05,204,,58,,,19,1*79
$GBGSV,2,1,05,45,79,317,36,29,78,166,42,36,45,128,46,30,37,049,41,5*7A
$GBGSV,2,2,05,26,22,310,37,5*45
$GNGGA,173017.000,4005.098518,N,10513.207674,W,2,48,0.47,1583.757,M,-20.670,M,,*71
$GPGSV,4,1,13,22,71,021,40,19,65,243,43,14,59,074,41,46,37,214,45,1*64
$GPGSV,4,2,13,30,35,161,46,13,25,240,48,06,23,177,48,24,21,315,32,1*67
$GPGSV,4,3,13,02,21,044,42,15,12,271,45,21,07,036,37,07,06,151,49,1*68
$GPGSV,4,4,13,03,01,091,33,1*5C
$GPGSV,2,1,05,14,59,074,24,30,35,161,48,06,23,177,47,24,21,315,40,8*6B
$GPGSV,2,2,05,03,01,091,38,8*59
$GLGSV,2,1,08,85,79,114,39,75,71,040,35,86,33,194,46,84,29,032,27,1*7B
$GLGSV,2,2,08,74,29,115,34,76,27,320,37,66,08,294,39,67,04,342,34,1*71
$GAGSV,3,1,09,31,68,053,34,33,51,090,40,24,46,304,39,12,33,167,42,7*70
$GAGSV,3,2,09,05,21,283,41,26,20,041,38,09,17,229,44,10,15,183,45,7*71
$GAGSV,3,3,09,03,04,329,20,7*47
$GAGSV,3,1,09,31,68,053,26,33,51,090,40,24,46,304,29,12,33,167,43,1*75
$GAGSV,3,2,09,05,21,283,39,26,20,041,37,09,17,229,43,10,15,183,44,1*71
$GAGSV,3,3,09,03,04,329,17,1*45
$GBGSV,2,1,07,45,79,317,40,29,78,166,45,36,45,128,42,30,37,049,46,1*79
$GBGSV,2,2,07,26,22,310,39,57,05,204,,58,,,19,1*79
$GBGSV,2,1,05,45,79,317,36,29,78,166,42,36,45,128,45,30,37,049,41,5*79
$GBGSV,2,2,05,26,22,310,37,5*45
$GNGGA,173022.000,4005.098482,N,10513.207794,W,2,48,0.47,1583.897,M,-20.670,M,,*79
$GPGSV,4,1,13,22,71,021,40,19,65,243,43,14,59,074,41,46,37,214,45,1*64
$GPGSV,4,2,13,30,35,161,46,13,25,240,48,06,23,177,48,24,21,315,32,1*67
$GPGSV,4,3,13,02,21,044,42,15,12,271,45,21,07,036,37,07,06,151,49,1*68
$GPGSV,4,4,13,03,01,091,33,1*5C
$GPGSV,2,1,05,14,59,074,25,30,35,161,48,06,23,177,47,24,21,315,41,8*6B
$GPGSV,2,2,05,03,01,091,38,8*59
$GLGSV,2,1,08,85,79,114,39,75,71,040,35,86,33,194,46,84,29,032,27,1*7B
$GLGSV,2,2,08,74,29,115,34,76,27,320,37,66,08,294,39,67,04,342,34,1*71
$GAGSV,3,1,09,31,68,053,34,33,51,090,40,24,46,304,39,12,33,167,42,7*70
$GAGSV,3,2,09,05,21,283,41,26,20,041,38,09,17,229,44,10,15,183,45,7*71
$GAGSV,3,3,09,03,04,329,22,7*45
$GAGSV,3,1,09,31,68,053,26,33,51,090,40,24,46,304,27,12,33,167,43,1*7B
$GAGSV,3,2,09,05,21,283,39,26,20,041,37,09,17,229,43,10,15,183,44,1*71
$GAGSV,3,3,09,03,04,329,17,1*45
$GBGSV,2,1,07,45,79,317,40,29,78,166,45,36,45,128,42,30,37,049,46,1*79
$GBGSV,2,2,07,26,22,310,39,57,05,204,,58,,,19,1*79
$GBGSV,2,1,05,45,79,317,36,29,78,166,42,36,45,128,45,30,37,049,41,5*79
$GBGSV,2,2,05,26,22,310,37,5*45
$GNGGA,173027.000,4005.098458,N,10513.207824,W,2,48,0.47,1583.862,M,-20.669,M,,*7D
$GPGSV,4,1,13,22,71,021,40,19,65,243,43,14,59,074,41,46,37,214,44,1*65
$GPGSV,4,2,13,30,35,161,46,13,25,240,48,06,23,177,48,24,21,315,32,1*67
$GPGSV,4,3,13,02,21,044,42,15,12,271,45,21,07,036,37,07,06,151,49,1*68
$GPGSV,4,4,13,03,01,091,33,1*5C
$GPGSV,2,1,05,14,59,074,26,30,35,161,48,06,23,177,47,24,21,315,41,8*68
$GPGSV,2,2,05,03,01,091,38,8*59
$GLGSV,2,1,08,85,79,114,40,75,71,040,33,86,33,194,46,84,29,032,28,1*7C
$GLGSV,2,2,08,74,29,115,34,76,27,320,37,66,08,294,41,67,04,342,34,1*7E
$GAGSV,3,1,09,31,68,053,34,33,51,090,41,24,46,304,39,12,33,167,42,7*71
$GAGSV,3,2,09,05,21,283,41,26,20,041,38,09,17,229,44,10,15,183,45,7*71
$GAGSV,3,3,09,03,04,329,22,7*45
$GAGSV,3,1,09,31,68,053,26,33,51,090,40,24,46,304,27,12,33,167,43,1*7B
$GAGSV,3,2,09,05,21,283,39,26,20,041,37,09,17,229,43,10,15,183,44,1*71
$GAGSV,3,3,09,03,04,329,17,1*45
$GBGSV,2,1,07,45,79,317,40,29,78,166,45,36,45,128,43,30,37,049,45,1*7B
$GBGSV,2,2,07,26,22,310,40,57,05,204,,58,,,19,1*77
$GBGSV,2,1,05,45,79,317,36,29,78,166,42,36,45,128,45,30,37,049,41,5*79
$GBGSV,2,2,05,26,22,310,37,5*45
$GNGGA,173032.000,4005.098500,N,10513.207818,W,2,48,0.47,1583.887,M,-20.670,M,,*79
$GPGSV,4,1,13,22,71,021,40,19,65,243,43,14,59,074,41,46,37,214,45,1*64
$GPGSV,4,2,13,30,35,161,46,13,25,240,48,06,23,177,48,24,21,315,34,1*61
$GPGSV,4,3,13,02,21,044,41,15,12,271,45,21,07,036,37,07,06,151,49,1*6B
$GPGSV,4,4,13,03,01,091,33,1*5C
$GPGSV,2,1,05,14,59,074,28,30,35,161,48,06,23,177,47,24,21,315,40,8*67
$GPGSV,2,2,05,03,01,091,38,8*59
$GLGSV,2,1,08,85,79,114,40,75,71,040,33,86,33,194,46,84,29,032,28,1*7C
$GLGSV,2,2,08,74,29,115,33,76,27,320,38,66,08,294,40,67,04,342,34,1*77
$GAGSV,3,1,09,31,68,053,35,33,51,090,41,24,46,304,39,12,33,167,42,7*70
$GAGSV,3,2,09,05,21,283,41,26,20,041,38,09,17,229,43,10,15,183,45,7*76
$GAGSV,3,3,09,03,04,329,21,7*46
$GAGSV,3,1,09,31,68,053,27,33,51,090,41,24,46,304,27,12,33,167,43,1*7B
$GAGSV,3,2,09,05,21,283,39,26,20,041,37,09,17,229,44,10,15,183,45,1*77
$GAGSV,3,3,09,03,04,329,17,1*45
$GBGSV,2,1,07,29,79,163,45,45,79,317,41,36,45,128,43,30,37,049,45,1*7E
$GBGSV,2,2,07,26,23,310,40,57,05,204,,58,,,19,1*76
$GBGSV,2,1,05,29,79,163,42,45,79,317,36,36,45,128,45,30,37,049,41,5*7D
$GBGSV,2,2,05,26,23,310,37,5*44
$GNGGA,173037.000,4005.098560,N,10513.207716,W,2,48,0.47,1583.968,M,-20.670,M,,*7B
$GPGSV,4,1,13,22,71,021,40,19,65,243,43,14,59,074,41,46,37,214,45,1*64
$GPGSV,4,2,13,30,35,161,46,13,25,240,49,06,23,177,48,24,21,315,34,1*60
$GPGSV,4,3,13,02,21,044,41,15,12,271,45,21,07,036,37,07,06,151,48,1*6A
$GPGSV,4,4,13,03,01,091,33,1*5C
$GPGSV,2,1,05,14,59,074,28,30,35,161,48,06,23,177,47,24,21,315,39,8*69
$GPGSV,2,2,05,03,01,091,38,8*59
$GLGSV,2,1,08,85,79,114,39,75,71,040,34,86,33,194,46,84,29,032,28,1*75
$GLGSV,2,2,08,74,29,115,34,76,27,320,38,66,08,294,40,67,04,342,34,1*70
$GAGSV,3,1,09,31,68,053,35,33,51,090,41,24,46,304,39,12,33,167,42,7*70
$GAGSV,3,2,09,05,21,283,41,26,20,041,38,09,17,229,43,10,15,183,44,7*77
$GAGSV,3,3,09,03,04,329,20,7*47
$GAGSV,3,1,09,31,68,053,27,33,51,090,41,24,46,304,27,12,33,167,43,1*7B
$GAGSV,3,2,09,05,21,283,39,26,20,041,37,09,17,229,44,10,15,183,45,1*77
$GAGSV,3,3,09,03,04,329,18,1*4A
$GBGSV,2,1,07,29,79,163,45,45,79,317,41,36,45,128,43,30,36,048,45,1*7E
$GBGSV,2,2,07,26,23,310,40,57,05,204,,58,,,19,1*76
$GBGSV,2,1,05,29,79,163,42,45,79,317,36,36,45,128,45,30,36,048,41,5*7D
$GBGSV,2,2,05,26,23,310,37,5*44
$GNGGA,173042.000,4005.098620,N,10513.207656,W,2,48,0.47,1584.039,M,-20.670,M,,*71
$GPGSV,4,1,13,22,71,021,40,19,65,243,43,14,59,074,41,46,37,214,45,1*64
$GPGSV,4,2,13,30,35,161,46,13,25,240,49,06,23,177,48,24,21,315,34,1*60
$GPGSV,4,3,13,02,21,044,42,15,12,271,45,21,07,036,36,07,06,151,48,1*68
$GPGSV,4,4,13,03,01,091,31,1*5E
$GPGSV,2,1,05,14,59,074,29,30,35,161,48,06,23,177,47,24,21,315,40,8*66
$GPGSV,2,2,05,03,01,091,37,8*56
$GLGSV,2,1,08,85,79,114,39,75,71,040,35,86,33,194,46,84,29,032,27,1*7B
$GLGSV,2,2,08,74,29,115,35,76,27,320,38,66,08,294,40,67,04,342,35,1*70
$GAGSV,3,1,09,31,68,053,35,33,51,090,41,24,46,304,39,12,33,167,42,7*70
$GAGSV,3,2,09,05,21,283,41,26,20,041,38,09,17,229,43,10,15,183,44,7*77
$GAGSV,3,3,09,03,04,329,19,7*4D
$GAGSV,3,1,09,31,68,053,27,33,51,090,41,24,46,304,25,12,33,167,43,1*79
$GAGSV,3,2,09,05,21,283,39,26,20,041,37,09,17,229,44,10,15,183,45,1*77
$GAGSV,3,3,09,03,04,329,18,1*4A
$GBGSV,2,1,07,29,79,163,45,45,79,317,41,36,44,128,43,30,36,048,45,1*7F
$GBGSV,2,2,07,26,23,310,38,57,05,204,,58,,,19,1*79
$GBGSV,2,1,05,29,79,163,42,45,79,317,36,36,44,128,45,30,36,048,41,5*7C
$GBGSV,2,2,05,26,23,310,37,5*44
$GNGGA,173047.000,4005.098638,N,10513.207686,W,2,48,0.47,1584.169,M,-20.670,M,,*74
$GPGSV,4,1,13,22,71,021,40,19,65,243,43,14,59,074,41,46,37,214,45,1*64
$GPGSV,4,2,13,30,35,161,46,13,25,240,49,06,23,177,48,24,21,315,34,1*60
$GPGSV,4,3,13,02,21,044,42,15,12,271,44,21,07,036,36,07,06,151,48,1*69
$GPGSV,4,4,13,03,01,091,31,1*5E
$GPGSV,2,1,05,14,59,074,29,30,35,161,48,06,23,177,48,24,21,315,41,8*68
$GPGSV,2,2,05,03,01,091,37,8*56
$GLGSV,2,1,08,85,79,114,40,75,71,040,35,86,33,194,46,84,29,032,25,1*77
$GLGSV,2,2,08,74,29,115,35,76,27,320,38,66,08,294,39,67,04,342,34,1*7F
$GAGSV,3,1,09,31,68,053,35,33,51,090,40,24,46,304,39,12,33,167,42,7*71
$GAGSV,3,2,09,05,21,283,41,26,20,041,38,09,17,229,43,10,15,183,44,7*77
$GAGSV,3,3,09,03,04,329,19,7*4D
$GAGSV,3,1,09,31,68,053,28,33,51,090,41,24,46,304,24,12,33,167,43,1*77
$GAGSV,3,2,09,05,21,283,39,26,20,041,38,09,17,229,44,10,15,183,45,1*78
$GAGSV,3,3,09,03,04,329,17,1*45
$GBGSV,2,1,07,29,79,163,45,45,79,317,41,36,44,128,43,30,36,048,45,1*7F
$GBGSV,2,2,07,26,23,310,38,57,05,204,,58,,,20,1*73
$GBGSV,2,1,05,29,79,163,42,45,79,317,37,36,44,128,45,30,36,048,41,5*7D
$GBGSV,2,2,05,26,23,310,36,5*45
$GNGGA,173052.000,4005.098620,N,10513.207740,W,2,48,0.47,1584.106,M,-20.670,M,,*7B
$GPGSV,4,1,13,22,71,021,40,19,65,243,43,14,59,074,41,46,37,214,45,1*64
$GPGSV,4,2,13,30,35,161,46,13,25,240,49,06,23,177,48,24,21,315,34,1*60
$GPGSV,4,3,13,02,21,044,42,15,12,271,44,21,07,036,35,07,06,151,46,1*64
$GPGSV,4,4,13,03,01,091,31,1*5E
$GPGSV,2,1,05,14,59,074,29,30,35,161,48,06,23,177,48,24,21,315,42,8*6B
$GPGSV,2,2,05,03,01,091,38,8*59
$GLGSV,2,1,08,85,79,114,41,75,71,040,34,86,33,194,46,84,29,032,23,1*71
$GLGSV,2,2,08,74,29,115,34,76,27,320,38,66,08,294,40,67,04,342,32,1*76
$GAGSV,3,1,09,31,68,053,35,33,51,090,40,24,46,304,39,12,33,167,42,7*71
$GAGSV,3,2,09,05,21,283,41,26,20,041,38,09,17,229,43,10,15,183,44,7*77
$GAGSV,3,3,09,03,04,329,15,7*41
$GAGSV,3,1,09,31,68,053,28,33,51,090,41,24,46,304,24,12,33,167,43,1*77
$GAGSV,3,2,09,05,21,283,38,26,20,041,38,09,17,229,44,10,15,183,45,1*79
$GAGSV,3,3,09,03,04,329,17,1*45
$GBGSV,2,1,07,45,80,316,41,29,79,163,45,36,44,128,43,30,36,048,44,1*79
$GBGSV,2,2,07,26,23,310,38,57,05,204,,58,,,20,1*73
$GBGSV,2,1,05,45,80,316,37,29,79,163,42,36,44,128,45,30,36,048,41,5*7A
