$PAIR001,062,0*3F
$PAIR001,062,0*3F
$PAIR001,062,0*3F
$PAIR001,062,0*3F
$PAIR001,062,0*3F
$PAIR001,062,0*3F
$PAIR001,062,0*3F
$PAIR001,062,0*3F
$PAIR001,062,0*3F
$GNGGA,022637.000,4005.098332,N,10513.208280,W,2,52,0.46,1583.828,M,-20.670,M,,*73
$GPGSV,4,1,13,18,76,030,39,23,63,283,42,15,53,066,43,46,37,214,46,1*6F
$GPGSV,4,2,13,10,30,257,48,29,30,170,48,13,24,046,41,27,21,316,36,1*68
$GPGSV,4,3,13,24,13,123,37,16,13,284,41,05,11,063,36,26,04,254,48,1*65
$GPGSV,4,4,13,32,03,203,51,1*51
$GPGSV,2,1,07,18,76,030,28,23,63,283,40,10,30,257,39,27,21,316,41,8*6E
$GPGSV,2,2,07,24,13,123,46,26,04,254,38,32,03,203,43,8*50
$GLGSV,2,1,08,88,67,111,42,65,63,032,35,66,60,214,43,81,50,332,32,1*7D
$GLGSV,2,2,08,87,13,132,41,67,08,214,48,72,07,034,33,82,04,320,28,1*7A
$GAGSV,2,1,07,13,71,347,39,08,63,133,40,15,43,100,44,03,37,053,42,7*74
$GAGSV,2,2,07,07,25,192,45,26,22,304,26,21,10,252,39,7*45
$GAGSV,2,1,07,13,71,347,36,08,63,133,33,15,43,100,43,03,37,053,41,1*7D
$GAGSV,2,2,07,07,25,192,40,26,22,304,37,21,10,252,36,1*49
$GBGSV,3,1,09,14,76,048,37,33,74,228,45,28,57,306,39,43,55,152,48,1*71
$GBGSV,3,2,09,42,48,047,40,11,32,141,46,41,22,227,46,27,11,315,35,1*70
$GBGSV,3,3,09,34,09,142,50,1*43
$GBGSV,2,1,07,33,74,228,41,28,57,306,34,43,55,152,38,42,48,047,40,5*75
$GBGSV,2,2,07,41,22,227,31,27,11,315,27,34,09,142,44,5*4B
$GNGGA,022642.000,4005.098344,N,10513.208382,W,2,52,0.46,1583.620,M,-20.670,M,,*75
$GPGSV,4,1,13,18,76,030,38,23,63,283,42,15,53,066,43,46,37,214,46,1*6E
$GPGSV,4,2,13,10,30,257,47,29,30,170,47,13,24,046,40,27,21,316,37,1*68
$GPGSV,4,3,13,24,13,123,37,16,13,284,41,05,10,064,36,26,04,254,48,1*63
$GPGSV,4,4,13,32,03,203,51,1*51
$GPGSV,2,1,07,18,76,030,28,23,63,283,40,10,30,257,39,27,21,316,41,8*6E
$GPGSV,2,2,07,24,13,123,46,26,04,254,38,32,03,203,43,8*50
$GLGSV,2,1,08,88,67,111,42,65,63,032,35,66,60,214,44,81,50,332,35,1*7D
$GLGSV,2,2,08,87,13,132,42,67,08,214,48,72,07,034,33,82,04,320,30,1*70
$GAGSV,2,1,07,13,71,347,39,08,63,133,40,15,43,100,44,03,37,053,42,7*74
$GAGSV,2,2,07,07,25,192,45,26,22,304,26,21,10,252,41,7*4A
$GAGSV,2,1,07,13,71,347,36,08,63,133,33,15,43,100,43,03,37,053,41,1*7D
$GAGSV,2,2,07,07,25,192,40,26,22,304,37,21,10,252,37,1*48
$GBGSV,3,1,09,14,76,048,38,33,74,228,45,28,57,306,39,43,55,152,48,1*7E
$GBGSV,3,2,09,42,48,047,39,11,32,141,46,41,22,227,46,27,11,315,35,1*7E
$GBGSV,3,3,09,34,09,142,50,1*43
$GBGSV,2,1,07,33,74,228,41,28,57,306,34,43,55,152,38,42,48,047,40,5*75
$GBGSV,2,2,07,41,22,227,31,27,11,315,27,34,09,142,44,5*4B
$GNGGA,022647.000,4005.098398,N,10513.208430,W,2,52,0.46,1583.457,M,-20.669,M,,*75
$GPGSV,4,1,13,18,76,030,38,23,63,283,42,15,53,066,43,46,37,214,46,1*6E
$GPGSV,4,2,13,10,31,258,47,29,30,170,47,13,24,046,40,27,21,316,37,1*66
$GPGSV,4,3,13,24,13,123,37,16,13,284,41,05,10,064,36,26,04,254,48,1*63
$GPGSV,4,4,13,32,03,203,51,1*51
$GPGSV,2,1,07,18,76,030,28,23,63,283,40,10,31,258,39,27,21,316,40,8*61
$GPGSV,2,2,07,24,13,123,46,26,04,254,40,32,03,203,44,8*58
$GLGSV,2,1,08,88,67,111,42,65,63,032,35,66,60,214,44,81,50,332,36,1*7E
$GLGSV,2,2,08,87,13,132,42,67,08,214,48,72,07,034,33,82,04,320,29,1*78
$GAGSV,2,1,07,13,71,347,39,08,63,133,40,15,43,100,44,03,37,053,42,7*74
$GAGSV,2,2,07,07,25,192,45,26,22,304,29,21,10,252,41,7*45
$GAGSV,2,1,07,13,71,347,36,08,63,133,33,15,43,100,43,03,37,053,41,1*7D
$GAGSV,2,2,07,07,25,192,39,26,22,304,36,21,10,252,36,1*46
$GBGSV,3,1,09,14,76,048,38,33,74,228,45,28,57,306,39,43,55,152,48,1*7E
$GBGSV,3,2,09,42,48,047,39,11,32,141,46,41,22,227,46,27,11,315,36,1*7D
$GBGSV,3,3,09,34,09,142,50,1*43
$GBGSV,2,1,07,33,74,228,42,28,57,306,33,43,55,152,38,42,48,047,40,5*71
$GBGSV,2,2,07,41,22,227,30,27,11,315,26,34,09,142,44,5*4B
$GNGGA,022652.000,4005.098398,N,10513.208478,W,2,52,0.46,1583.302,M,-20.669,M,,*7A
$GPGSV,4,1,13,18,76,030,38,23,63,283,42,15,52,064,42,46,37,214,46,1*6C
$GPGSV,4,2,13,10,31,258,47,29,30,170,47,13,23,045,40,27,21,316,36,1*63
$GPGSV,4,3,13,24,13,123,37,16,12,283,41,05,10,064,36,26,04,254,48,1*65
$GPGSV,4,4,13,32,03,203,51,1*51
$GPGSV,2,1,07,18,76,030,27,23,63,283,40,10,31,258,39,27,21,316,39,8*60
$GPGSV,2,2,07,24,13,123,46,26,04,254,40,32,03,203,44,8*58
$GLGSV,2,1,08,88,67,111,42,65,63,032,34,66,60,214,44,81,50,332,38,1*71
$GLGSV,2,2,08,87,13,132,42,67,08,214,48,72,07,034,33,82,04,320,28,1*79
$GAGSV,2,1,07,13,71,347,40,08,63,133,40,15,43,100,44,03,37,053,42,7*7A
$GAGSV,2,2,07,07,25,192,45,26,22,304,29,21,10,252,42,7*46
$GAGSV,2,1,07,13,71,347,36,08,63,133,33,15,43,100,43,03,37,053,41,1*7D
$GAGSV,2,2,07,07,25,192,39,26,22,304,36,21,10,252,36,1*46
$GBGSV,3,1,09,14,76,048,38,33,74,228,45,28,57,306,39,43,55,152,48,1*7E
$GBGSV,3,2,09,42,48,047,39,11,32,141,46,41,22,227,46,27,11,315,36,1*7D
$GBGSV,3,3,09,34,09,142,50,1*43
$GBGSV,2,1,07,33,74,228,42,28,57,306,33,43,55,152,38,42,48,047,40,5*71
$GBGSV,2,2,07,41,22,227,30,27,11,315,26,34,09,142,44,5*4B
$GNGGA,022657.000,4005.098398,N,10513.208496,W,2,51,0.46,1583.415,M,-20.670,M,,*75
$GPGSV,4,1,13,18,76,035,38,23,63,283,42,15,52,064,42,46,37,214,46,1*69
$GPGSV,4,2,13,10,31,258,47,29,30,170,47,13,23,045,40,27,21,316,36,1*63
$GPGSV,4,3,13,24,13,123,37,16,12,283,41,05,10,064,36,26,04,254,48,1*65
$GPGSV,4,4,13,32,03,203,51,1*51
$GPGSV,2,1,07,18,76,035,26,23,63,283,40,10,31,258,39,27,21,316,39,8*64
$GPGSV,2,2,07,24,13,123,46,26,04,254,40,32,03,203,44,8*58
$GLGSV,2,1,08,88,67,111,42,65,63,032,34,66,60,214,44,81,50,332,38,1*71
$GLGSV,2,2,08,87,13,132,42,67,08,214,47,72,07,034,31,82,04,320,28,1*74
$GAGSV,2,1,07,13,71,347,40,08,63,133,40,15,43,100,44,03,37,053,42,7*7A
$GAGSV,2,2,07,07,25,192,45,26,22,304,29,21,10,252,43,7*47
$GAGSV,2,1,07,13,71,347,36,08,63,133,33,15,43,100,43,03,37,053,41,1*7D
$GAGSV,2,2,07,07,25,192,39,26,22,304,36,21,10,252,37,1*47
$GBGSV,3,1,09,14,76,048,38,33,74,228,45,28,57,306,40,43,55,152,47,1*7F
$GBGSV,3,2,09,42,48,047,39,11,32,141,46,41,22,227,45,27,11,315,36,1*7E
$GBGSV,3,3,09,34,09,142,50,1*43
$GBGSV,2,1,07,33,74,228,42,28,57,306,33,43,55,152,38,42,48,047,40,5*71
$GBGSV,2,2,07,41,22,227,29,27,11,315,25,34,09,142,44,5*40
$GNGGA,022702.000,4005.098392,N,10513.208484,W,2,51,0.46,1583.430,M,-20.670,M,,*7A
$GPGSV,4,1,13,18,76,035,37,23,64,285,42,15,52,064,42,46,37,214,46,1*67
$GPGSV,4,2,13,10,31,258,47,29,30,170,47,13,23,045,41,27,21,316,36,1*62
$GPGSV,4,3,13,24,13,122,37,16,12,283,41,05,10,064,35,26,03,253,48,1*67
$GPGSV,4,4,13,32,03,203,51,1*51
$GPGSV,2,1,07,18,76,035,27,23,64,285,40,10,31,258,39,27,21,316,40,8*6A
$GPGSV,2,2,07,24,13,122,46,32,03,203,45,26,03,253,40,8*58
$GLGSV,2,1,08,88,67,111,42,65,63,032,34,66,60,214,44,81,50,332,38,1*71
$GLGSV,2,2,08,87,13,132,42,67,08,214,46,72,07,034,31,82,04,320,30,1*7C
$GAGSV,2,1,07,13,71,347,40,08,63,133,40,15,43,100,44,03,37,053,42,7*7A
$GAGSV,2,2,07,07,25,192,46,26,22,304,31,21,10,252,42,7*4C
$GAGSV,2,1,07,13,71,347,37,08,63,133,33,15,43,100,43,03,37,053,41,1*7C
$GAGSV,2,2,07,07,25,192,39,26,22,304,36,21,10,252,37,1*47
$GBGSV,3,1,10,14,76,048,38,33,74,228,45,28,57,306,40,43,55,152,47,1*77
$GBGSV,3,2,10,42,48,047,39,11,32,141,46,41,22,227,45,27,11,315,36,1*76
$GBGSV,3,3,10,34,09,142,50,31,,,27,1*4C
$GBGSV,2,1,07,33,74,228,42,28,57,306,33,43,55,152,38,42,48,047,40,5*71
$GBGSV,2,2,07,41,22,227,29,27,11,315,25,34,09,142,44,5*40
$GNGGA,022707.000,4005.098356,N,10513.208484,W,2,52,0.46,1583.335,M,-20.670,M,,*76
$GPGSV,4,1,13,18,76,035,37,23,64,285,42,15,52,064,42,46,37,214,46,1*67
$GPGSV,4,2,13,10,31,258,46,29,29,170,47,13,23,045,41,27,22,316,36,1*68
$GPGSV,4,3,13,24,13,122,37,16,12,283,41,05,10,064,33,32,03,203,51,1*69
$GPGSV,4,4,13,26,03,253,49,1*58
$GPGSV,2,1,07,18,76,035,27,23,64,285,40,10,31,258,39,27,22,316,40,8*69
$GPGSV,2,2,07,24,13,122,46,32,03,203,45,26,03,253,39,8*56
$GLGSV,2,1,08,88,67,111,42,65,63,032,34,66,60,214,44,81,50,332,38,1*71
$GLGSV,2,2,08,87,13,132,42,67,08,214,46,72,07,034,30,82,04,320,30,1*7D
$GAGSV,2,1,07,13,71,347,40,08,63,133,40,15,43,100,44,03,37,053,42,7*7A
$GAGSV,2,2,07,07,25,192,46,26,22,304,31,21,10,252,43,7*4D
$GAGSV,2,1,07,13,71,347,37,08,63,133,33,15,43,100,43,03,37,053,41,1*7C
$GAGSV,2,2,07,07,25,192,39,26,22,304,36,21,10,252,37,1*47
$GBGSV,3,1,09,14,76,048,38,33,74,228,45,28,57,306,40,43,55,152,47,1*7F
$GBGSV,3,2,09,42,48,047,39,11,32,141,46,41,22,227,45,27,11,315,36,1*7E
$GBGSV,3,3,09,34,09,142,50,1*43
$GBGSV,2,1,07,33,74,228,42,28,57,306,34,43,55,152,38,42,48,047,40,5*76
$GBGSV,2,2,07,41,22,227,29,27,11,315,25,34,09,142,44,5*40
$GNGGA,022712.000,4005.098338,N,10513.208460,W,2,51,0.46,1583.212,M,-20.670,M,,*77
$GPGSV,4,1,13,18,76,035,37,23,64,285,42,15,52,064,42,46,37,214,46,1*67
$GPGSV,4,2,13,10,31,258,46,29,29,170,47,13,23,045,41,27,22,316,37,1*69
$GPGSV,4,3,13,24,13,122,35,16,12,283,41,05,10,064,31,32,04,203,51,1*6E
$GPGSV,4,4,13,26,03,253,49,1*58
$GPGSV,2,1,07,18,76,035,27,23,64,285,40,10,31,258,39,27,22,316,40,8*69
$GPGSV,2,2,07,24,13,122,46,32,04,203,45,26,03,253,39,8*51
$GLGSV,2,1,08,88,67,111,42,65,63,032,33,66,60,214,44,81,50,332,38,1*76
$GLGSV,2,2,08,87,13,132,43,67,08,214,46,72,07,034,29,82,04,320,31,1*75
$GAGSV,2,1,07,13,71,347,40,08,63,133,40,15,43,100,44,03,37,053,42,7*7A
$GAGSV,2,2,07,07,25,192,46,26,22,304,31,21,10,252,43,7*4D
$GAGSV,2,1,07,13,71,347,37,08,63,133,33,15,43,100,43,03,37,053,41,1*7C
$GAGSV,2,2,07,07,25,192,39,26,22,304,36,21,10,252,37,1*47
$GBGSV,3,1,10,14,76,048,38,33,74,228,45,28,57,306,41,43,55,152,47,1*76
$GBGSV,3,2,10,42,48,047,39,11,32,141,46,41,22,227,45,27,11,315,36,1*76
$GBGSV,3,3,10,34,09,142,50,63,,,28,1*44
$GBGSV,2,1,07,33,74,228,42,28,57,306,34,43,55,152,38,42,48,047,41,5*77
$GBGSV,2,2,07,41,22,227,29,27,11,315,26,34,09,142,44,5*43
$GNGGA,022717.000,4005.098308,N,10513.208376,W,2,52,0.46,1583.341,M,-20.669,M,,*7D
$GPGSV,4,1,13,18,76,035,37,23,64,285,42,15,52,064,42,46,37,214,46,1*67
$GPGSV,4,2,13,10,31,258,46,29,29,170,47,13,23,045,41,27,22,316,37,1*69
$GPGSV,4,3,13,24,13,122,36,16,12,283,41,05,10,064,31,32,04,203,51,1*6D
$GPGSV,4,4,13,26,03,253,49,1*58
$GPGSV,2,1,07,18,76,035,26,23,64,285,40,10,31,258,39,27,22,316,40,8*68
$GPGSV,2,2,07,24,13,122,46,32,04,203,45,26,03,253,36,8*5E
$GLGSV,2,1,08,88,67,111,42,65,63,032,34,66,60,214,45,81,50,332,37,1*7F
$GLGSV,2,2,08,87,13,132,43,67,08,214,46,72,07,034,28,82,04,320,31,1*74
$GAGSV,2,1,07,13,71,347,40,08,63,133,40,15,43,100,44,03,37,053,42,7*7A
$GAGSV,2,2,07,07,25,192,46,26,22,304,31,21,10,252,43,7*4D
$GAGSV,2,1,07,13,71,347,37,08,63,133,32,15,43,100,43,03,37,053,40,1*7C
$GAGSV,2,2,07,07,25,192,39,26,22,304,36,21,10,252,37,1*47
$GBGSV,3,1,10,14,76,048,38,33,74,228,45,28,57,306,41,43,55,152,47,1*76
$GBGSV,3,2,10,42,48,047,39,11,32,141,46,41,22,227,45,27,11,315,36,1*76
$GBGSV,3,3,10,34,09,142,50,63,,,27,1*4B
$GBGSV,2,1,07,33,74,228,42,28,57,306,34,43,55,152,38,42,48,047,41,5*77
$GBGSV,2,2,07,41,22,227,30,27,11,315,27,34,09,142,44,5*4A
$GNGGA,022722.000,4005.098260,N,10513.208346,W,2,51,0.46,1583.356,M,-20.670,M,,*7A
$GPGSV,4,1,13,18,76,035,37,23,64,285,42,15,52,064,43,46,37,214,46,1*66
$GPGSV,4,2,13,10,31,258,46,29,29,170,46,13,23,045,41,27,22,316,37,1*68
$GPGSV,4,3,13,24,13,122,34,16,12,283,41,05,10,064,30,32,04,203,51,1*6E
$GPGSV,4,4,13,26,03,253,49,1*58
$GPGSV,2,1,07,18,76,035,27,23,64,285,40,10,31,258,39,27,22,316,40,8*69
$GPGSV,2,2,07,24,13,122,46,32,04,203,46,26,03,253,34,8*5F
$GLGSV,2,1,08,88,67,111,42,65,63,032,35,66,60,214,45,81,50,332,37,1*7E
$GLGSV,2,2,08,87,13,132,43,67,08,214,44,72,07,034,27,82,04,320,31,1*79
$GAGSV,2,1,07,13,71,347,40,08,63,133,40,15,43,100,44,03,36,052,42,7*7A
$GAGSV,2,2,07,07,26,192,46,26,22,304,31,21,10,252,44,7*49
$GAGSV,2,1,07,13,71,347,37,08,63,133,32,15,43,100,43,03,36,052,40,1*7C
$GAGSV,2,2,07,07,26,192,39,26,22,304,36,21,10,252,37,1*44
$GBGSV,3,1,11,14,76,048,38,33,74,228,45,28,57,306,41,43,55,152,47,1*77
$GBGSV,3,2,11,42,48,047,39,11,32,141,46,41,22,227,45,27,11,315,35,1*74
$GBGSV,3,3,11,34,09,142,50,31,,,26,63,,,27,1*4C
$GBGSV,2,1,07,33,74,228,42,28,57,306,34,43,55,152,38,42,48,047,41,5*77
$GBGSV,2,2,07,41,22,227,31,27,11,315,28,34,09,142,45,5*45
$GNGGA,022727.000,4005.098170,N,10513.208382,W,2,52,0.46,1583.292,M,-20.670,M,,*7F
$GPGSV,4,1,13,18,76,035,38,23,64,285,42,15,52,064,43,46,37,214,46,1*69
$GPGSV,4,2,13,10,31,258,46,29,29,170,46,13,23,045,41,27,22,316,37,1*68
$GPGSV,4,3,13,24,13,122,36,16,12,283,41,05,10,064,30,32,04,203,51,1*6C
$GPGSV,4,4,13,26,03,253,48,1*59
$GPGSV,2,1,07,18,76,035,27,23,64,285,40,10,31,258,39,27,22,316,40,8*69
$GPGSV,2,2,07,24,13,122,46,32,04,203,46,26,03,253,35,8*5E
$GLGSV,2,1,08,88,67,111,42,65,63,032,35,66,60,214,45,81,50,332,37,1*7E
$GLGSV,2,2,08,87,13,132,43,67,08,214,44,72,07,034,25,82,04,320,31,1*7B
$GAGSV,2,1,07,13,71,347,40,08,63,131,39,15,43,100,44,03,36,052,42,7*76
$GAGSV,2,2,07,07,26,192,46,26,22,304,30,21,10,252,41,7*4D
$GAGSV,2,1,07,13,71,347,37,08,63,131,32,15,43,100,43,03,36,052,40,1*7E
$GAGSV,2,2,07,07,26,192,39,26,22,304,36,21,10,252,37,1*44
$GBGSV,3,1,10,14,76,048,39,33,74,228,45,28,57,306,41,43,55,152,47,1*77
$GBGSV,3,2,10,42,48,047,39,11,32,141,46,41,22,227,45,27,11,315,34,1*74
$GBGSV,3,3,10,34,09,142,51,31,,,27,1*4D
$GBGSV,2,1,07,33,74,228,42,28,57,306,34,43,55,152,38,42,48,047,41,5*77
$GBGSV,2,2,07,41,22,227,31,27,11,315,28,34,09,142,45,5*45
$GNGGA,022732.000,4005.098128,N,10513.208376,W,2,52,0.46,1583.234,M,-20.670,M,,*71
$GPGSV,4,1,13,18,76,035,38,23,64,285,42,15,52,064,43,46,37,214,46,1*69
$GPGSV,4,2,13,10,31,258,46,29,29,170,46,13,23,045,41,27,22,316,39,1*66
$GPGSV,4,3,13,24,13,122,36,16,12,283,41,05,10,064,29,32,04,203,51,1*64
$GPGSV,4,4,13,26,03,253,48,1*59
$GPGSV,2,1,07,18,76,035,27,23,64,285,40,10,31,258,39,27,22,316,40,8*69
$GPGSV,2,2,07,24,13,122,46,32,04,203,46,26,03,253,36,8*5D
$GLGSV,2,1,08,88,67,111,42,65,63,032,34,66,60,214,45,81,50,332,39,1*71
$GLGSV,2,2,08,87,13,132,43,67,08,214,44,72,07,034,25,82,04,320,32,1*78
$GAGSV,2,1,07,13,71,349,40,08,63,131,39,15,42,101,44,03,36,052,42,7*78
$GAGSV,2,2,07,07,26,192,46,26,22,304,29,21,10,252,43,7*47
$GAGSV,2,1,07,13,71,349,37,08,63,131,33,15,42,101,43,03,36,052,40,1*71
$GAGSV,2,2,07,07,26,192,39,26,22,304,36,21,10,252,38,1*4B
$GBGSV,3,1,11,14,76,048,39,33,74,228,45,28,57,306,41,43,55,152,47,1*76
$GBGSV,3,2,11,42,48,047,39,11,32,141,46,41,22,227,45,27,11,315,31,1*70
$GBGSV,3,3,11,34,09,142,51,31,,,26,63,,,27,1*4D
$GBGSV,2,1,07,33,74,228,42,28,57,306,34,43,55,152,38,42,48,047,41,5*77
$GBGSV,2,2,07,41,22,227,31,27,11,315,29,34,09,142,45,5*44
$GNGGA,022737.000,4005.098146,N,10513.208328,W,2,51,0.46,1583.196,M,-20.670,M,,*7F
$GPGSV,4,1,13,18,76,035,38,23,64,285,42,15,52,064,43,46,37,214,46,1*69
$GPGSV,4,2,13,10,31,258,46,29,29,170,46,13,23,045,41,27,22,316,40,1*68
$GPGSV,4,3,13,24,13,122,36,16,12,283,41,05,10,064,30,32,04,203,51,1*6C
$GPGSV,4,4,13,26,03,253,48,1*59
$GPGSV,2,1,07,18,76,035,27,23,64,285,40,10,31,258,40,27,22,316,42,8*65
$GPGSV,2,2,07,24,13,122,46,32,04,203,46,26,03,253,37,8*5C
$GLGSV,2,1,08,88,67,111,43,65,63,032,34,66,60,214,45,81,50,332,40,1*7E
$GLGSV,2,2,08,87,13,132,43,67,08,214,44,72,07,034,24,82,04,320,32,1*79
$GAGSV,2,1,07,13,71,349,40,08,63,131,39,15,42,101,44,03,36,052,42,7*78
$GAGSV,2,2,07,07,26,192,46,26,22,304,29,21,10,251,44,7*43
$GAGSV,2,1,07,13,71,349,37,08,63,131,33,15,42,101,43,03,36,052,40,1*71
$GAGSV,2,2,07,07,26,192,39,26,22,304,36,21,10,251,39,1*49
$GBGSV,3,1,11,14,76,048,39,33,74,228,45,28,57,306,41,43,55,152,47,1*76
$GBGSV,3,2,11,42,48,047,39,11,32,141,46,41,22,227,45,27,11,315,30,1*71
$GBGSV,3,3,11,34,09,142,51,31,,,27,63,,,28,1*43
$GBGSV,2,1,07,33,74,228,42,28,57,306,34,43,55,152,39,42,48,047,41,5*76
$GBGSV,2,2,07,41,22,227,32,27,11,315,29,34,09,142,45,5*47
$GNGGA,022742.000,4005.098164,N,10513.208304,W,2,52,0.46,1583.236,M,-20.670,M,,*79
$GPGSV,4,1,13,18,76,035,38,23,64,285,42,15,52,064,43,46,37,214,46,1*69
$GPGSV,4,2,13,10,31,258,46,29,29,170,46,13,23,045,41,27,22,316,40,1*68
$GPGSV,4,3,13,24,13,122,36,16,12,283,40,05,10,064,31,32,04,203,50,1*6D
$GPGSV,4,4,13,26,03,253,49,1*58
$GPGSV,2,1,07,18,76,035,27,23,64,285,40,10,31,258,40,27,22,316,42,8*65
$GPGSV,2,2,07,24,13,122,46,32,04,203,46,26,03,253,37,8*5C
$GLGSV,2,1,08,88,67,111,43,65,63,032,34,66,60,214,45,81,50,332,40,1*7E
$GLGSV,2,2,08,87,13,132,44,67,08,214,43,72,07,034,22,82,04,320,32,1*7F
$GAGSV,2,1,07,13,71,349,40,08,63,131,39,15,42,101,44,03,36,052,42,7*78
$GAGSV,2,2,07,07,26,192,46,26,23,304,29,21,10,251,42,7*44
$GAGSV,2,1,07,13,71,349,37,08,63,131,33,15,42,101,44,03,36,052,40,1*76
$GAGSV,2,2,07,07,26,192,39,26,23,304,36,21,10,251,39,1*48
$GBGSV,3,1,10,14,76,048,39,33,74,228,45,28,57,306,41,43,55,152,47,1*77
$GBGSV,3,2,10,42,48,047,38,11,32,141,46,41,22,227,45,27,11,315,29,1*79
$GBGSV,3,3,10,34,09,142,51,31,,,27,1*4D
$GBGSV,2,1,07,33,74,228,42,28,57,306,34,43,55,152,39,42,48,047,41,5*76
$GBGSV,2,2,07,41,22,227,33,27,11,315,29,34,09,142,46,5*45
$GNGGA,022747.000,4005.098170,N,10513.208334,W,2,52,0.46,1583.282,M,-20.670,M,,*75
$GPGSV,4,1,13,18,76,035,38,23,64,285,42,15,52,064,43,46,37,214,46,1*69
$GPGSV,4,2,13,10,31,258,46,29,29,170,46,13,23,045,41,27,22,316,40,1*68
$GPGSV,4,3,13,24,13,122,36,16,12,283,40,05,10,064,31,32,04,203,50,1*6D
$GPGSV,4,4,13,26,03,253,49,1*58
$GPGSV,2,1,07,18,76,035,27,23,64,285,40,10,31,258,40,27,22,316,42,8*65
$GPGSV,2,2,07,24,13,122,46,32,04,203,46,26,03,253,37,8*5C
$GLGSV,2,1,08,88,67,111,42,65,63,032,34,66,60,214,45,81,50,332,40,1*7F
$GLGSV,2,2,08,87,13,132,44,67,08,214,41,72,07,034,22,82,04,320,34,1*7B
$GAGSV,2,1,07,13,71,349,40,08,63,131,39,15,42,101,44,03,36,052,42,7*78
$GAGSV,2,2,07,07,26,192,46,26,23,304,27,21,10,251,44,7*4C
$GAGSV,2,1,07,13,71,349,37,08,63,131,32,15,42,101,44,03,36,052,40,1*77
$GAGSV,2,2,07,07,26,192,39,26,23,304,36,21,10,251,39,1*48
$GBGSV,3,1,10,14,76,048,39,33,74,228,45,28,57,306,41,43,55,152,47,1*77
$GBGSV,3,2,10,42,48,047,37,11,32,141,46,41,22,227,45,27,11,315,29,1*76
$GBGSV,3,3,10,34,09,142,51,63,,,29,1*44
$GBGSV,2,1,07,33,74,228,42,28,57,306,34,43,55,152,39,42,48,047,41,5*76
$GBGSV,2,2,07,41,22,227,33,27,11,315,29,34,09,142,46,5*45
$GNGGA,022752.000,4005.098218,N,10513.208286,W,2,52,0.46,1583.359,M,-20.670,M,,*73
$GPGSV,4,1,13,18,76,035,38,23,64,285,42,15,52,064,43,46,37,214,46,1*69
$GPGSV,4,2,13,10,31,258,46,29,29,170,46,13,23,045,41,27,22,316,39,1*66
$GPGSV,4,3,13,24,13,122,36,16,12,283,38,05,10,064,31,32,04,203,49,1*6A
$GPGSV,4,4,13,26,03,253,49,1*58
$GPGSV,2,1,07,18,76,035,26,23,64,285,40,10,31,258,40,27,22,316,42,8*64
$GPGSV,2,2,07,24,13,122,46,32,04,203,47,26,03,253,37,8*5D
$GLGSV,2,1,08,88,67,111,42,65,61,032,35,66,60,214,46,81,50,332,40,1*7F
$GLGSV,2,2,08,87,13,132,44,67,08,214,42,72,07,034,22,82,04,320,34,1*78
$GAGSV,2,1,07,13,71,349,40,08,63,131,39,15,42,101,44,03,36,052,42,7*78
$GAGSV,2,2,07,07,26,192,47,26,23,304,26,21,10,251,43,7*4B
$GAGSV,2,1,07,13,71,349,37,08,63,131,32,15,42,101,44,03,36,052,40,1*77
$GAGSV,2,2,07,07,26,192,39,26,23,304,35,21,10,251,39,1*4B
$GBGSV,3,1,10,14,76,048,39,33,74,228,45,28,57,306,42,43,55,152,47,1*74
$GBGSV,3,2,10,42,48,047,37,11,32,141,46,41,22,227,45,27,11,315,31,1*7F
$GBGSV,3,3,10,34,09,142,51,63,,,28,1*45
$GBGSV,2,1,07,33,74,228,42,28,57,306,34,43,55,152,39,42,48,047,41,5*76
$GBGSV,2,2,07,41,22,227,33,27,11,315,28,34,09,142,46,5*44
$GNGGA,022757.000,4005.098248,N,10513.208262,W,2,52,0.46,1583.346,M,-20.670,M,,*77
$GPGSV,4,1,13,18,76,035,38,23,64,285,42,15,52,064,42,46,37,214,46,1*68
$GPGSV,4,2,13,10,31,258,45,29,29,170,46,13,23,045,41,27,22,316,39,1*65
$GPGSV,4,3,13,24,13,122,36,16,12,283,38,05,10,064,31,32,04,203,49,1*6A
$GPGSV,4,4,13,26,03,253,49,1*58
$GPGSV,2,1,07,18,76,035,27,23,64,285,40,10,31,258,40,27,22,316,42,8*65
$GPGSV,2,2,07,24,13,122,46,32,04,203,47,26,03,253,37,8*5D
$GLGSV,2,1,08,88,67,111,43,66,62,216,46,65,61,032,35,81,50,332,40,1*7E
$GLGSV,2,2,08,87,13,132,44,67,10,215,42,72,07,034,22,82,04,320,33,1*77
$GAGSV,2,1,07,13,71,349,40,08,63,131,39,15,42,101,44,03,36,052,42,7*78
$GAGSV,2,2,07,07,26,192,47,26,23,304,25,21,10,251,43,7*48
$GAGSV,2,1,07,13,71,349,37,08,63,131,32,15,42,101,44,03,36,052,40,1*77
$GAGSV,2,2,07,07,26,192,39,26,23,304,35,21,10,251,39,1*4B
$GBGSV,3,1,11,14,76,048,39,33,74,228,45,28,57,306,43,43,55,152,47,1*74
$GBGSV,3,2,11,42,48,047,37,11,32,141,46,41,22,227,45,27,11,315,32,1*7D
$GBGSV,3,3,11,34,09,142,51,31,,,24,63,,,29,1*41
$GBGSV,2,1,07,33,74,228,42,28,57,306,34,43,55,152,39,42,48,047,41,5*76
$GBGSV,2,2,07,41,22,227,34,27,11,315,28,34,09,142,46,5*43
$GNGGA,022802.000,4005.098200,N,10513.208304,W,2,52,0.46,1583.157,M,-20.670,M,,*77
$GPGSV,4,1,13,18,76,035,38,23,64,285,42,15,52,064,42,46,37,214,46,1*68
$GPGSV,4,2,13,10,31,258,45,29,29,170,46,13,23,045,41,27,22,316,40,1*6B
$GPGSV,4,3,13,24,13,122,36,16,12,283,39,05,10,064,32,32,04,203,49,1*68
$GPGSV,4,4,13,26,03,253,49,1*58
$GPGSV,2,1,07,18,76,035,27,23,64,285,40,10,31,258,40,27,22,316,42,8*65
$GPGSV,2,2,07,24,13,122,46,32,04,203,47,26,03,253,35,8*5F
$GLGSV,2,1,08,88,67,111,43,66,62,216,45,65,61,032,36,81,50,332,40,1*7E
$GLGSV,2,2,08,87,13,132,44,67,10,215,42,72,06,034,21,82,04,320,34,1*72
$GAGSV,2,1,07,13,71,349,40,08,63,131,39,15,42,101,44,03,36,052,42,7*78
$GAGSV,2,2,07,07,26,192,47,26,23,304,23,21,10,251,45,7*48
$GAGSV,2,1,07,13,71,349,37,08,63,131,32,15,42,101,44,03,36,052,40,1*77
$GAGSV,2,2,07,07,26,192,39,26,23,304,35,21,10,251,39,1*4B
$GBGSV,3,1,10,14,76,048,39,33,74,228,45,28,57,306,43,43,55,152,47,1*75
$GBGSV,3,2,10,42,48,047,37,11,32,141,46,41,22,227,45,27,11,315,33,1*7D
$GBGSV,3,3,10,34,09,142,51,31,,,26,1*4C
$GBGSV,2,1,07,33,74,228,42,28,57,306,33,43,55,152,39,42,48,047,41,5*71
$GBGSV,2,2,07,41,22,227,34,27,11,315,28,34,09,142,46,5*43
$GNGGA,022807.000,4005.098140,N,10513.208298,W,2,52,0.46,1583.133,M,-20.669,M,,*7B
$GPGSV,4,1,13,18,76,035,38,23,64,285,42,15,52,064,42,46,37,214,46,1*68
$GPGSV,4,2,13,10,31,258,45,29,29,170,46,13,23,045,41,27,22,316,40,1*6B
$GPGSV,4,3,13,24,13,122,36,16,12,283,40,05,10,064,32,32,04,203,47,1*68
$GPGSV,4,4,13,26,03,253,48,1*59
$GPGSV,2,1,07,18,76,035,27,23,64,285,40,10,31,258,40,27,22,316,41,8*66
$GPGSV,2,2,07,24,13,122,46,32,04,203,47,26,03,253,32,8*58
$GLGSV,2,1,08,88,67,111,43,66,62,216,45,65,61,032,35,81,50,332,40,1*7D
$GLGSV,2,2,08,87,13,132,45,67,10,215,41,72,06,034,23,82,04,320,34,1*72
$GAGSV,2,1,07,13,71,349,40,08,63,131,39,15,42,101,44,03,36,052,42,7*78
$GAGSV,2,2,07,07,26,192,47,26,23,304,22,21,10,251,44,7*48
$GAGSV,2,1,07,13,71,349,37,08,63,131,32,15,42,101,44,03,36,052,40,1*77
$GAGSV,2,2,07,07,26,192,39,26,23,304,35,21,10,251,39,1*4B
$GBGSV,3,1,09,14,76,048,39,33,74,228,45,28,57,306,44,43,55,152,46,1*7B
$GBGSV,3,2,09,42,48,047,37,11,32,141,46,41,22,227,45,27,11,315,33,1*75
$GBGSV,3,3,09,34,09,142,51,1*42
$GBGSV,2,1,07,33,74,228,42,28,57,306,33,43,55,152,39,42,48,047,40,5*70
$GBGSV,2,2,07,41,22,227,34,27,11,315,27,34,09,142,46,5*4C
$GNGGA,022812.000,4005.098158,N,10513.208226,W,2,53,0.45,1583.082,M,-20.670,M,,*72
$GPGSV,4,1,13,18,76,035,38,23,64,285,42,15,52,064,42,46,37,214,46,1*68
$GPGSV,4,2,13,10,31,258,45,29,29,170,46,13,23,045,40,27,22,316,40,1*6A
$GPGSV,4,3,13,24,13,122,37,16,12,283,40,05,10,064,29,32,04,203,46,1*62
$GPGSV,4,4,13,26,03,253,47,1*56
$GPGSV,2,1,07,18,76,035,27,23,64,285,40,10,31,258,40,27,22,316,41,8*66
$GPGSV,2,2,07,24,13,122,46,32,04,203,47,26,03,253,30,8*5A
$GLGSV,2,1,08,88,67,111,44,66,62,216,45,65,61,032,34,81,51,332,40,1*7A
$GLGSV,2,2,08,87,13,132,45,67,10,215,42,72,06,034,24,82,05,321,34,1*76
$GAGSV,2,1,07,13,71,349,40,08,63,131,39,15,42,101,44,03,36,052,42,7*78
$GAGSV,2,2,07,07,26,192,47,26,23,304,20,21,10,251,45,7*4B
$GAGSV,2,1,07,13,71,349,37,08,63,131,32,15,42,101,44,03,36,052,40,1*77
$GAGSV,2,2,07,07,26,192,39,26,23,304,35,21,10,251,39,1*4B
$GBGSV,3,1,10,14,76,048,39,33,74,228,45,28,57,306,44,43,55,152,46,1*73
$GBGSV,3,2,10,42,48,047,37,11,32,141,46,41,22,227,46,27,11,315,34,1*79
$GBGSV,3,3,10,34,09,142,51,63,,,27,1*4A
$GBGSV,2,1,07,33,74,228,42,28,57,306,33,43,55,152,39,42,48,047,40,5*70
$GBGSV,2,2,07,41,22,227,36,27,11,315,26,34,09,142,46,5*4F
$GNGGA,022817.000,4005.098224,N,10513.208172,W,2,53,0.45,1582.982,M,-20.670,M,,*75
$GPGSV,4,1,13,18,76,035,38,23,64,285,42,15,52,064,42,46,37,214,46,1*68
$GPGSV,4,2,13,10,31,258,45,29,29,170,46,13,23,045,40,27,22,316,40,1*6A
$GPGSV,4,3,13,24,13,122,37,16,12,283,40,05,10,064,29,32,04,203,46,1*62
$GPGSV,4,4,13,26,03,253,47,1*56
$GPGSV,2,1,07,18,76,035,26,23,64,285,40,10,31,258,40,27,22,316,41,8*67
$GPGSV,2,2,07,24,13,122,46,32,04,203,47,26,03,253,27,8*5C
$GLGSV,2,1,08,88,66,114,45,66,62,216,45,65,61,032,33,81,51,332,40,1*78
$GLGSV,2,2,08,87,12,133,45,67,10,215,41,72,06,034,24,82,05,321,33,1*72
$GAGSV,2,1,07,13,71,349,40,08,63,131,39,15,42,101,44,03,36,052,42,7*78
$GAGSV,2,2,07,07,26,192,47,26,23,304,22,21,10,251,45,7*49
$GAGSV,2,1,07,13,71,349,36,08,63,131,32,15,42,101,44,03,36,052,40,1*76
$GAGSV,2,2,07,07,26,192,39,26,23,304,34,21,10,251,39,1*4A
$GBGSV,3,1,10,14,76,048,39,33,74,228,45,28,57,306,44,43,55,152,46,1*73
$GBGSV,3,2,10,42,48,047,37,11,32,141,46,41,22,227,46,27,11,315,34,1*79
$GBGSV,3,3,10,34,09,142,51,63,,,28,1*45
$GBGSV,2,1,07,33,74,228,42,28,57,306,33,43,55,152,39,42,48,047,40,5*70
$GBGSV,2,2,07,41,22,227,36,27,11,315,26,34,09,142,46,5*4F
$GNGGA,022822.000,4005.098284,N,10513.208184,W,2,53,0.45,1582.783,M,-20.669,M,,*77
$GPGSV,4,1,13,18,76,035,38,23,64,285,42,15,52,064,42,46,37,214,46,1*68
$GPGSV,4,2,13,10,31,258,45,29,29,170,46,13,23,045,40,27,22,316,40,1*6A
$GPGSV,4,3,13,24,13,122,37,16,12,283,40,05,10,064,29,32,04,203,45,1*61
$GPGSV,4,4,13,26,03,253,49,1*58
$GPGSV,2,1,07,18,76,035,26,23,64,285,40,10,31,258,40,27,22,316,41,8*67
$GPGSV,2,2,07,24,13,122,46,32,04,203,47,26,03,253,25,8*5E
$GLGSV,2,1,08,88,66,114,44,66,62,216,45,65,61,032,31,81,51,332,41,1*7A
$GLGSV,2,2,08,87,12,133,45,67,10,215,42,72,06,034,25,82,05,321,33,1*70
$GAGSV,2,1,07,13,71,349,40,08,63,131,39,15,42,101,44,03,36,052,42,7*78
$GAGSV,2,2,07,07,26,192,47,26,23,304,25,21,10,251,44,7*4F
$GAGSV,2,1,07,13,71,349,36,08,63,131,32,15,42,101,44,03,36,052,40,1*76
$GAGSV,2,2,07,07,26,192,39,26,23,304,34,21,10,251,39,1*4A
$GBGSV,3,1,10,14,76,048,39,33,74,228,45,28,57,306,44,43,55,152,46,1*73
$GBGSV,3,2,10,42,48,047,37,11,32,141,46,41,22,227,46,27,11,315,34,1*79
$GBGSV,3,3,10,34,09,142,51,63,,,28,1*45
$GBGSV,2,1,07,33,74,228,42,28,57,306,33,43,55,152,39,42,48,047,40,5*70
$GBGSV,2,2,07,41,22,227,36,27,11,315,26,34,09,142,46,5*4F
$GNGGA,022827.000,4005.098362,N,10513.208160,W,2,53,0.45,1582.695,M,-20.670,M,,*7F
$GPGSV,4,1,13,18,76,035,38,23,64,285,42,15,52,064,42,46,37,214,46,1*68
$GPGSV,4,2,13,10,31,258,45,29,29,170,46,13,23,045,40,27,22,316,40,1*6A
$GPGSV,4,3,13,24,13,122,38,16,12,283,39,05,10,064,30,32,04,203,44,1*69
$GPGSV,4,4,13,26,03,253,49,1*58
$GPGSV,2,1,07,18,76,035,26,23,64,285,39,10,31,258,41,27,22,316,41,8*68
$GPGSV,2,2,07,24,13,122,45,32,04,203,47,26,03,253,25,8*5D
$GLGSV,2,1,08,88,66,114,44,66,62,216,46,65,61,032,31,81,51,332,41,1*79
$GLGSV,2,2,08,87,12,133,45,67,10,215,41,72,06,034,26,82,05,321,31,1*72
$GAGSV,2,1,07,13,71,349,40,08,63,131,39,15,42,101,44,03,36,052,41,7*7B
$GAGSV,2,2,07,07,26,192,47,26,23,304,25,21,10,251,45,7*4E
$GAGSV,2,1,07,13,71,349,36,08,63,131,32,15,42,101,44,03,36,052,40,1*76
$GAGSV,2,2,07,07,26,192,39,26,23,304,34,21,10,251,39,1*4A
$GBGSV,3,1,09,14,76,048,39,33,74,228,45,28,57,306,43,43,55,152,46,1*7C
$GBGSV,3,2,09,42,48,047,37,11,31,141,46,41,22,227,46,27,11,315,33,1*75
$GBGSV,3,3,09,34,09,142,51,1*42
$GBGSV,2,1,07,33,74,228,42,28,57,306,33,43,55,152,39,42,48,047,40,5*70
$GBGSV,2,2,07,41,22,227,37,27,11,315,25,34,09,142,46,5*4D
$GNGGA,022832.000,4005.098428,N,10513.208172,W,2,53,0.45,1582.537,M,-20.670,M,,*7A
$GPGSV,4,1,13,18,76,035,38,23,64,285,42,15,52,064,42,46,37,214,46,1*68
$GPGSV,4,2,13,10,31,258,45,29,29,170,46,13,23,045,39,27,22,316,40,1*64
$GPGSV,4,3,13,24,13,122,38,16,12,283,39,05,10,064,29,32,04,203,45,1*60
$GPGSV,4,4,13,26,03,253,50,1*50
$GPGSV,2,1,07,18,76,035,26,23,64,285,39,10,31,258,41,27,22,316,40,8*69
$GPGSV,2,2,07,24,13,122,45,32,04,203,47,26,03,253,26,8*5E
$GLGSV,2,1,08,88,66,114,44,66,62,216,46,65,61,032,31,81,51,332,41,1*79
$GLGSV,2,2,08,87,12,133,45,67,10,215,41,72,06,034,28,82,05,321,32,1*7F
$GAGSV,2,1,07,13,71,349,40,08,63,131,39,15,42,101,44,03,36,052,41,7*7B
$GAGSV,2,2,07,07,26,192,47,26,23,304,25,21,10,251,45,7*4E
$GAGSV,2,1,07,13,71,349,36,08,63,131,32,15,42,101,44,03,36,052,40,1*76
$GAGSV,2,2,07,07,26,192,39,26,23,304,33,21,10,251,39,1*4D
$GBGSV,3,1,10,14,75,046,39,33,74,228,45,28,57,306,43,43,55,152,46,1*79
$GBGSV,3,2,10,42,48,047,37,11,31,141,46,41,22,227,46,27,11,315,32,1*7C
$GBGSV,3,3,10,34,09,142,51,31,,,26,1*4C
$GBGSV,2,1,07,33,74,228,42,28,57,306,33,43,55,152,39,42,48,047,40,5*70
$GBGSV,2,2,07,41,22,227,37,27,11,315,25,34,09,142,46,5*4D
$GNGGA,022837.000,4005.098476,N,10513.208172,W,2,53,0.45,1582.598,M,-20.670,M,,*71
$GPGSV,4,1,13,18,76,035,38,23,64,285,42,15,52,064,42,46,37,214,46,1*68
$GPGSV,4,2,13,10,31,258,45,29,29,170,46,13,23,045,39,27,22,316,39,1*6A
$GPGSV,4,3,13,24,13,122,38,16,12,283,39,05,10,064,30,32,04,203,41,1*6C
$GPGSV,4,4,13,26,03,253,50,1*50
$GPGSV,2,1,07,18,76,035,26,23,64,285,39,10,31,258,41,27,22,316,39,8*67
$GPGSV,2,2,07,24,13,122,45,32,04,203,47,26,03,253,26,8*5E
$GLGSV,2,1,08,88,66,114,43,66,62,216,45,65,61,032,32,81,51,332,41,1*7E
$GLGSV,2,2,08,87,12,133,45,67,10,215,42,72,06,034,28,82,05,321,32,1*7C
$GAGSV,2,1,07,13,71,349,40,08,63,131,39,15,42,101,44,03,36,052,41,7*7B
$GAGSV,2,2,07,07,26,192,47,26,23,304,25,21,10,251,45,7*4E
$GAGSV,2,1,07,13,71,349,36,08,63,131,32,15,42,101,44,03,36,052,40,1*76
$GAGSV,2,2,07,07,26,192,39,26,23,304,33,21,10,251,39,1*4D
$GBGSV,3,1,10,14,75,046,39,33,74,228,45,28,57,306,43,43,55,152,46,1*79
$GBGSV,3,2,10,42,48,047,38,11,31,141,46,41,22,227,46,27,11,315,29,1*79
$GBGSV,3,3,10,34,09,142,51,31,,,27,1*4D
$GBGSV,2,1,07,33,74,228,42,28,57,306,33,43,55,152,39,42,48,047,40,5*70
$GBGSV,2,2,07,41,22,227,37,27,11,315,25,34,09,142,46,5*4D
$GNGGA,022842.000,4005.098536,N,10513.208196,W,2,53,0.45,1582.700,M,-20.670,M,,*7F
$GPGSV,4,1,13,18,76,035,38,23,64,285,42,15,52,064,42,46,37,214,46,1*68
$GPGSV,4,2,13,10,31,258,45,29,29,170,46,13,23,045,40,27,22,316,36,1*6B
$GPGSV,4,3,13,24,13,122,38,16,12,283,39,05,10,064,32,32,04,203,44,1*6B
$GPGSV,4,4,13,26,03,253,49,1*58
$GPGSV,2,1,07,18,76,035,26,23,64,285,39,10,31,258,41,27,22,316,39,8*67
$GPGSV,2,2,07,24,13,122,45,32,04,203,47,26,03,253,25,8*5D
$GLGSV,2,1,08,88,66,114,43,66,62,216,45,65,61,032,32,81,51,332,40,1*7F
$GLGSV,2,2,08,87,12,133,45,67,10,215,42,72,06,034,28,82,05,321,32,1*7C
$GAGSV,2,1,07,13,71,349,40,08,63,131,39,15,42,101,44,03,36,052,40,7*7A
$GAGSV,2,2,07,07,26,192,47,26,23,304,25,21,10,251,45,7*4E
$GAGSV,2,1,07,13,71,349,36,08,63,131,32,15,42,101,44,03,36,052,40,1*76
$GAGSV,2,2,07,07,26,192,40,26,23,304,33,21,10,251,39,1*43
$GBGSV,3,1,10,14,75,046,39,33,74,228,45,28,57,306,43,43,55,152,46,1*79
$GBGSV,3,2,10,42,48,047,38,11,31,141,46,41,22,227,46,27,12,315,26,1*75
$GBGSV,3,3,10,34,09,142,51,31,,,27,1*4D
$GBGSV,2,1,07,33,74,228,42,28,57,306,32,43,55,152,39,42,48,047,40,5*71
$GBGSV,2,2,07,41,22,227,37,27,12,315,25,34,09,142,46,5*4E
$GNGGA,022847.000,4005.098560,N,10513.208178,W,2,53,0.45,1582.740,M,-20.669,M,,*75
$GPGSV,4,1,13,18,76,035,38,23,64,285,42,15,52,064,41,46,37,214,46,1*6B
$GPGSV,4,2,13,10,31,258,45,29,29,170,46,13,23,045,40,27,22,316,34,1*69
$GPGSV,4,3,13,24,13,122,38,16,12,283,38,05,10,064,33,32,04,203,41,1*6E
$GPGSV,4,4,13,26,03,253,47,1*56
$GPGSV,2,1,07,18,76,035,26,23,64,285,39,10,31,258,41,27,22,316,39,8*67
$GPGSV,2,2,07,24,13,122,45,32,04,203,47,26,03,253,24,8*5C
$GLGSV,2,1,08,88,66,114,43,66,62,216,46,65,61,032,31,81,51,332,40,1*7F
$GLGSV,2,2,08,87,12,133,45,67,10,215,42,72,06,034,28,82,05,321,32,1*7C
$GAGSV,2,1,07,13,71,349,40,08,63,131,39,15,42,101,43,03,36,052,40,7*7D
$GAGSV,2,2,07,07,26,192,47,26,23,304,26,21,10,251,45,7*4D
$GAGSV,2,1,07,13,71,349,36,08,63,131,32,15,42,101,44,03,36,052,40,1*76
$GAGSV,2,2,07,07,26,192,40,26,23,304,33,21,10,251,40,1*4D
$GBGSV,3,1,10,14,75,046,39,33,74,228,45,28,58,306,44,43,55,152,46,1*71
$GBGSV,3,2,10,42,48,047,38,11,31,141,46,41,22,227,47,27,12,315,23,1*71
$GBGSV,3,3,10,34,09,142,51,31,,,27,1*4D
$GBGSV,2,1,07,33,74,228,42,28,58,306,32,43,55,152,39,42,48,047,40,5*7E
$GBGSV,2,2,07,41,22,227,38,27,12,315,25,34,09,142,46,5*41
$GNGGA,022852.000,4005.098512,N,10513.208202,W,2,53,0.45,1582.612,M,-20.670,M,,*74
$GPGSV,4,1,13,18,76,035,38,23,64,285,41,15,52,064,41,46,37,214,46,1*68
$GPGSV,4,2,13,10,31,258,45,29,29,170,46,13,23,045,40,27,22,316,34,1*69
$GPGSV,4,3,13,24,13,122,38,16,12,283,37,05,10,064,34,32,04,203,42,1*65
$GPGSV,4,4,13,26,03,253,46,1*57
$GPGSV,2,1,07,18,76,035,26,23,64,285,39,10,31,258,41,27,22,316,39,8*67
$GPGSV,2,2,07,24,13,122,45,32,04,203,48,26,03,253,22,8*55
$GLGSV,2,1,08,88,66,114,43,66,62,216,46,65,61,032,32,81,51,332,40,1*7C
$GLGSV,2,2,08,87,12,133,45,67,10,215,43,72,06,034,28,82,05,321,32,1*7D
$GAGSV,2,1,07,13,71,349,40,08,63,131,39,15,42,101,43,03,36,052,40,7*7D
$GAGSV,2,2,07,07,26,192,47,26,23,304,27,21,10,251,45,7*4C
$GAGSV,2,1,07,13,71,349,36,08,63,131,32,15,42,101,44,03,36,052,40,1*76
$GAGSV,2,2,07,07,26,192,40,26,23,304,33,21,10,251,39,1*43
$GBGSV,3,1,10,14,75,046,39,33,75,230,45,28,58,306,44,43,55,152,46,1*79
$GBGSV,3,2,10,42,48,047,38,11,31,141,46,41,22,227,47,27,12,315,21,1*73
$GBGSV,3,3,10,34,08,142,51,31,,,13,1*4B
$GBGSV,2,1,07,33,75,230,42,28,58,306,33,43,55,152,39,42,48,047,40,5*77
$GBGSV,2,2,07,41,22,227,38,27,12,315,25,34,08,142,46,5*40
$GNGGA,022857.000,4005.098518,N,10513.208166,W,2,53,0.45,1582.586,M,-20.670,M,,*74
$GPGSV,4,1,13,18,76,035,38,23,64,285,41,15,52,064,41,46,37,214,46,1*68
$GPGSV,4,2,13,10,31,258,45,29,29,170,47,13,23,045,39,27,22,316,37,1*65
$GPGSV,4,3,13,24,13,122,38,16,12,283,38,05,10,064,34,32,04,203,40,1*68
$GPGSV,4,4,13,26,03,253,44,1*55
$GPGSV,2,1,07,18,76,035,26,23,64,285,39,10,31,258,41,27,22,316,39,8*67
$GPGSV,2,2,07,24,13,122,45,32,04,203,48,26,03,253,21,8*56
$GLGSV,2,1,08,88,66,114,43,66,62,216,46,65,61,032,32,81,51,332,40,1*7C
$GLGSV,2,2,08,87,12,133,45,67,10,215,43,72,06,034,28,82,05,321,30,1*7F
$GAGSV,2,1,07,13,71,349,40,08,63,131,39,15,42,101,43,03,36,052,40,7*7D
$GAGSV,2,2,07,07,26,192,48,26,23,304,27,21,10,251,45,7*43
$GAGSV,2,1,07,13,71,349,36,08,63,131,32,15,42,101,44,03,36,052,40,1*76
$GAGSV,2,2,07,07,26,192,40,26,23,304,31,21,10,251,39,1*41
$GBGSV,3,1,10,14,75,046,39,33,75,230,45,28,58,306,44,43,55,152,45,1*7A
$GBGSV,3,2,10,42,47,047,38,11,31,141,46,41,23,228,47,27,12,315,22,1*71
$GBGSV,3,3,10,34,08,142,51,31,,,11,1*49
$GBGSV,2,1,07,33,75,230,42,28,58,306,33,43,55,152,39,42,47,047,39,5*76
$GBGSV,2,2,07,41,23,228,39,27,12,315,25,34,08,142,46,5*4F
$GNGGA,022902.000,4005.098512,N,10513.208094,W,2,53,0.45,1582.656,M,-20.670,M,,*7D
$GPGSV,4,1,13,18,76,035,38,23,64,285,41,15,52,064,41,46,37,214,46,1*68
$GPGSV,4,2,13,10,31,258,45,29,29,170,47,13,23,045,39,27,22,316,38,1*6A
$GPGSV,4,3,13,24,13,122,39,16,12,283,39,05,10,064,34,32,04,203,40,1*68
$GPGSV,4,4,13,26,03,253,44,1*55
$GPGSV,2,1,07,18,76,035,26,23,64,285,39,10,31,258,41,27,22,316,39,8*67
$GPGSV,2,2,07,24,13,122,45,32,04,203,48,26,03,253,19,8*5D
$GLGSV,2,1,08,88,66,114,43,66,62,216,46,65,61,032,32,81,51,332,40,1*7C
$GLGSV,2,2,08,87,12,133,46,67,10,215,44,72,06,034,28,82,05,321,30,1*7B
$GAGSV,2,1,07,13,71,349,40,08,63,131,39,15,42,101,43,03,36,052,40,7*7D
$GAGSV,2,2,07,07,26,192,48,26,23,304,26,21,10,251,45,7*42
$GAGSV,2,1,07,13,71,349,36,08,63,131,32,15,42,101,44,03,36,052,40,1*76
$GAGSV,2,2,07,07,26,192,40,26,23,304,30,21,10,251,40,1*4E
$GBGSV,3,1,09,33,75,230,45,14,75,046,39,28,58,306,44,43,54,153,45,1*72
$GBGSV,3,2,09,42,47,047,38,11,31,141,46,41,23,228,47,27,12,315,27,1*7C
$GBGSV,3,3,09,34,08,142,51,1*43
$GBGSV,2,1,07,33,75,230,42,28,58,306,33,43,54,153,39,42,47,047,39,5*76
$GBGSV,2,2,07,41,23,228,39,27,12,315,25,34,08,142,46,5*4F
$GNGGA,022907.000,4005.098524,N,10513.208094,W,2,53,0.45,1582.745,M,-20.670,M,,*7E
$GPGSV,4,1,13,18,76,035,38,23,64,285,41,15,52,064,41,46,37,214,46,1*68
$GPGSV,4,2,13,10,31,258,45,29,29,170,47,13,23,045,39,27,22,316,38,1*6A
$GPGSV,4,3,13,24,13,122,39,16,12,283,39,05,10,064,33,32,04,203,41,1*6E
$GPGSV,4,4,13,26,03,253,43,1*52
$GPGSV,2,1,07,18,76,035,26,23,64,285,39,10,31,258,41,27,22,316,39,8*67
$GPGSV,2,2,07,24,13,122,45,32,04,203,48,26,03,253,19,8*5D
$GLGSV,2,1,08,88,66,114,43,66,62,216,46,65,61,032,32,81,51,332,41,1*7D
$GLGSV,2,2,08,87,12,133,46,67,10,215,44,72,06,034,28,82,05,321,32,1*79
$GAGSV,2,1,07,13,71,349,40,08,63,131,39,15,42,101,43,03,36,052,40,7*7D
$GAGSV,2,2,07,07,26,192,48,26,23,304,26,21,10,251,45,7*42
$GAGSV,2,1,07,13,71,349,36,08,63,131,32,15,42,101,44,03,36,052,39,1*78
$GAGSV,2,2,07,07,26,192,40,26,23,304,29,21,10,251,40,1*46
$GBGSV,3,1,09,33,75,230,45,14,75,046,39,28,58,306,44,43,54,153,45,1*72
$GBGSV,3,2,09,42,47,047,38,11,31,141,46,41,23,228,47,27,12,315,31,1*7B
$GBGSV,3,3,09,34,08,142,50,1*42
$GBGSV,2,1,07,33,75,230,42,28,58,306,32,43,54,153,39,42,47,047,38,5*76
$GBGSV,2,2,07,41,23,228,39,27,12,315,25,34,08,142,46,5*4F
$GNGGA,022912.000,4005.098530,N,10513.208142,W,2,53,0.45,1582.811,M,-20.669,M,,*73
$GPGSV,4,1,13,18,76,035,37,23,64,285,41,15,52,064,41,46,37,214,46,1*67
$GPGSV,4,2,13,10,31,258,45,29,29,170,47,13,23,045,39,27,22,316,38,1*6A
$GPGSV,4,3,13,24,13,122,40,16,12,283,39,05,10,064,33,32,04,203,41,1*60
$GPGSV,4,4,13,26,03,253,40,1*51
$GPGSV,2,1,07,18,76,035,26,23,64,285,39,10,31,258,41,27,22,316,39,8*67
$GPGSV,2,2,07,24,13,122,45,32,04,203,48,26,03,253,18,8*5C
$GLGSV,2,1,08,88,66,114,43,66,62,216,46,65,61,032,32,81,51,332,41,1*7D
$GLGSV,2,2,08,87,12,133,46,67,10,215,45,72,06,034,28,82,05,321,31,1*7B
$GAGSV,2,1,07,13,71,349,40,08,63,131,39,15,42,101,43,03,36,052,40,7*7D
$GAGSV,2,2,07,07,26,192,48,26,23,304,28,21,10,251,45,7*4C
$GAGSV,2,1,07,13,71,349,36,08,63,131,32,15,42,101,44,03,36,052,39,1*78
$GAGSV,2,2,07,07,26,192,40,26,23,304,28,21,10,251,40,1*47
$GBGSV,3,1,09,33,75,230,45,14,75,046,39,28,58,306,44,43,54,153,45,1*72
$GBGSV,3,2,09,42,47,047,38,11,31,141,46,41,23,228,47,27,12,315,33,1*79
$GBGSV,3,3,09,34,08,142,50,1*42
$GBGSV,2,1,07,33,75,230,42,28,58,306,32,43,54,153,39,42,47,047,38,5*76
$GBGSV,2,2,07,41,23,228,39,27,12,315,24,34,08,142,45,5*4D
$GNGGA,022917.000,4005.098548,N,10513.208160,W,2,53,0.45,1582.830,M,-20.670,M,,*72
$GPGSV,4,1,13,18,76,035,36,23,64,285,41,15,52,064,41,46,37,214,46,1*66
$GPGSV,4,2,13,10,31,258,44,29,29,170,47,13,23,045,39,27,22,316,38,1*6B
$GPGSV,4,3,13,24,13,122,40,16,12,283,39,05,10,064,32,32,04,203,41,1*61
$GPGSV,4,4,13,26,03,253,40,1*51
$GPGSV,2,1,07,18,76,035,26,23,64,285,39,10,31,258,41,27,22,316,39,8*67
$GPGSV,2,2,07,24,13,122,44,32,04,203,47,26,03,253,18,8*52
$GLGSV,2,1,08,88,66,114,43,66,62,216,46,65,61,032,31,81,51,332,41,1*7E
$GLGSV,2,2,08,87,12,133,46,67,10,215,46,72,06,034,26,82,05,321,31,1*76
$GAGSV,2,1,07,13,71,349,40,08,63,131,39,15,42,101,43,03,36,052,40,7*7D
$GAGSV,2,2,07,07,26,192,48,26,23,304,29,21,10,251,45,7*4D
$GAGSV,2,1,07,13,71,349,35,08,63,131,32,15,42,101,44,03,36,052,39,1*7B
$GAGSV,2,2,07,07,26,192,41,26,23,304,27,21,10,251,39,1*47
$GBGSV,3,1,09,33,75,230,45,14,75,046,39,28,58,306,44,43,54,153,45,1*72
$GBGSV,3,2,09,42,47,047,38,11,31,141,46,41,23,228,48,27,12,315,35,1*70
$GBGSV,3,3,09,34,08,142,50,1*42
$GBGSV,2,1,07,33,75,230,41,28,58,306,33,43,54,153,39,42,47,047,38,5*74
$GBGSV,2,2,07,41,23,228,40,27,12,315,21,34,08,142,45,5*46
$GNGGA,022922.000,4005.098578,N,10513.208154,W,2,53,0.45,1582.884,M,-20.670,M,,*7F
$GPGSV,4,1,13,18,76,035,36,23,64,285,41,15,52,064,41,46,37,214,46,1*66
$GPGSV,4,2,13,10,31,258,44,29,29,170,48,13,23,045,38,27,22,316,38,1*65
$GPGSV,4,3,13,24,13,122,40,16,12,283,38,05,10,064,32,32,04,203,43,1*62
$GPGSV,4,4,13,26,03,253,38,1*5E
$GPGSV,2,1,07,18,76,035,27,23,64,285,39,10,31,258,42,27,22,316,40,8*6B
$GPGSV,2,2,07,24,13,122,44,32,04,203,48,26,03,253,17,8*52
$GLGSV,2,1,08,88,66,114,44,66,62,216,46,65,61,032,31,81,51,332,41,1*79
$GLGSV,2,2,08,87,12,133,46,67,10,215,46,72,06,034,25,82,05,321,28,1*7D
$GAGSV,2,1,07,13,71,349,40,08,63,131,39,15,42,101,42,03,36,052,40,7*7C
$GAGSV,2,2,07,07,26,192,48,26,23,304,31,21,10,251,45,7*44
$GAGSV,2,1,07,13,71,349,35,08,63,131,32,15,42,101,45,03,36,052,39,1*7A
$GAGSV,2,2,07,07,26,192,41,26,23,304,27,21,10,251,40,1*49
$GBGSV,3,1,09,33,75,230,45,14,75,046,39,28,58,306,44,43,54,153,45,1*72
$GBGSV,3,2,09,42,47,047,38,11,31,141,46,41,23,228,48,27,12,315,36,1*73
$GBGSV,3,3,09,34,08,142,50,1*42
$GBGSV,2,1,07,33,75,230,42,28,58,306,33,43,54,153,40,42,47,047,38,5*79
$GBGSV,2,2,07,41,23,228,41,27,12,315,20,34,08,142,45,5*46
$GNGGA,022927.000,4005.098656,N,10513.208118,W,2,53,0.45,1582.888,M,-20.670,M,,*71
$GPGSV,4,1,13,18,76,035,35,23,64,285,41,15,52,064,41,46,37,214,46,1*65
$GPGSV,4,2,13,10,31,258,44,29,29,170,48,13,23,045,38,27,22,316,38,1*65
$GPGSV,4,3,13,24,13,122,40,16,12,283,38,05,09,064,32,32,04,203,43,1*6A
$GPGSV,4,4,13,26,03,253,36,1*50
$GPGSV,2,1,07,18,76,035,26,23,64,285,39,10,31,258,42,27,22,316,40,8*6A
$GPGSV,2,2,07,24,13,122,44,32,04,203,48,26,03,253,15,8*50
$GLGSV,2,1,08,88,66,114,44,66,62,216,46,65,61,032,31,81,51,332,41,1*79
$GLGSV,2,2,08,87,12,133,46,67,10,215,46,72,06,034,24,82,05,321,28,1*7C
$GAGSV,2,1,07,13,71,349,40,08,63,131,39,15,42,101,42,03,36,052,40,7*7C
$GAGSV,2,2,07,07,26,192,48,26,23,304,31,21,10,251,45,7*44
$GAGSV,2,1,07,13,71,349,35,08,63,131,32,15,42,101,45,03,36,052,39,1*7A
$GAGSV,2,2,07,07,26,192,41,26,23,304,25,21,10,251,40,1*4B
$GBGSV,3,1,09,33,75,230,45,14,75,046,39,28,58,306,44,43,54,153,45,1*72
$GBGSV,3,2,09,42,47,047,39,11,31,141,46,41,23,228,48,27,12,315,36,1*72
$GBGSV,3,3,09,34,08,142,50,1*42
$GBGSV,2,1,07,33,75,230,42,28,58,306,33,43,54,153,40,42,47,047,38,5*79
$GBGSV,2,2,07,41,23,228,41,27,12,315,19,34,08,142,45,5*4C
$GNGGA,022932.000,4005.098668,N,10513.208052,W,2,53,0.45,1582.877,M,-20.670,M,,*77
$GPGSV,4,1,13,18,76,035,35,23,64,285,41,15,52,064,40,46,37,214,46,1*64
$GPGSV,4,2,13,10,32,259,43,29,29,170,48,13,23,044,38,27,22,316,38,1*61
$GPGSV,4,3,13,24,13,122,40,16,12,283,38,05,09,064,34,32,04,203,45,1*6A
$GPGSV,4,4,13,26,03,253,35,1*53
$GPGSV,2,1,07,18,76,035,26,23,64,285,39,10,32,259,42,27,22,316,40,8*68
$GPGSV,2,2,07,24,13,122,44,32,04,203,48,26,03,253,14,8*51
$GLGSV,2,1,08,88,66,114,44,66,62,216,46,65,61,032,31,81,51,332,40,1*78
$GLGSV,2,2,08,87,12,133,46,67,10,215,46,72,06,034,23,82,05,321,28,1*7B
$GAGSV,2,1,07,13,71,349,40,08,63,131,39,15,42,101,42,03,36,052,40,7*7C
$GAGSV,2,2,07,07,26,192,48,26,23,304,31,21,10,251,45,7*44
$GAGSV,2,1,07,13,71,349,35,08,63,131,33,15,42,101,45,03,36,052,39,1*7B
$GAGSV,2,2,07,07,26,192,41,26,23,304,26,21,10,251,40,1*48
$GBGSV,3,1,09,33,75,230,45,14,75,046,39,28,58,306,44,43,54,153,45,1*72
$GBGSV,3,2,09,42,47,047,39,11,31,141,46,41,23,228,48,27,12,315,36,1*72
$GBGSV,3,3,09,34,08,142,49,1*4A
$GBGSV,2,1,07,33,75,230,42,28,58,306,33,43,54,153,40,42,47,047,38,5*79
$GBGSV,2,2,07,41,23,228,41,27,12,315,18,34,08,142,45,5*4D
$GNGGA,022937.000,4005.098668,N,10513.208004,W,2,53,0.45,1582.940,M,-20.670,M,,*74
$GPGSV,4,1,13,18,76,041,35,23,64,285,41,15,51,063,40,46,37,214,46,1*63
$GPGSV,4,2,13,10,32,259,43,29,29,170,48,13,23,044,38,27,22,316,37,1*6E
$GPGSV,4,3,13,24,13,122,40,16,12,282,38,05,09,064,36,32,04,203,44,1*68
$GPGSV,4,4,13,26,03,253,34,1*52
$GPGSV,2,1,07,18,76,041,26,23,64,285,39,10,32,259,42,27,22,316,40,8*6B
$GPGSV,2,2,07,24,13,122,44,32,04,203,48,26,03,253,15,8*50
$GLGSV,2,1,08,88,66,114,44,66,62,216,46,65,61,032,33,81,51,332,40,1*7A
$GLGSV,2,2,08,87,12,133,46,67,10,215,46,72,06,034,22,82,05,321,27,1*75
$GAGSV,2,1,07,13,71,349,40,08,63,131,39,15,42,101,42,03,36,052,40,7*7C
$GAGSV,2,2,07,07,26,192,48,26,23,304,32,21,10,251,46,7*44
$GAGSV,2,1,07,13,71,349,35,08,63,131,32,15,42,101,45,03,36,052,39,1*7A
$GAGSV,2,2,07,07,26,192,41,26,23,304,26,21,10,251,40,1*48
$GBGSV,3,1,09,33,75,230,45,14,75,046,38,28,58,306,44,43,54,153,44,1*72
$GBGSV,3,2,09,42,47,047,39,11,31,141,46,41,23,228,48,27,12,315,36,1*72
$GBGSV,3,3,09,34,08,142,49,1*4A
$GBGSV,2,1,07,33,75,230,42,28,58,306,33,43,54,153,40,42,47,047,38,5*79
$GBGSV,2,2,07,41,23,228,41,27,12,315,19,34,08,142,45,5*4C
$GNGGA,022942.000,4005.098680,N,10513.207944,W,2,53,0.45,1583.026,M,-20.670,M,,*7A
$GPGSV,4,1,13,18,76,041,36,23,65,288,41,15,51,063,40,46,37,214,46,1*6C
$GPGSV,4,2,13,10,32,259,42,29,29,170,48,13,23,044,37,27,22,316,37,1*60
$GPGSV,4,3,13,24,14,121,40,16,12,282,38,05,09,064,38,32,04,203,47,1*61
$GPGSV,4,4,13,26,03,253,34,1*52
$GPGSV,2,1,07,18,76,041,26,23,65,288,39,10,32,259,42,27,22,316,40,8*67
$GPGSV,2,2,07,24,14,121,44,32,04,203,48,26,03,253,16,8*57
$GLGSV,2,1,08,88,66,114,44,66,62,216,46,65,61,032,33,81,51,332,40,1*7A
$GLGSV,2,2,08,87,12,133,46,67,10,215,47,72,06,034,21,82,05,321,25,1*75
$GAGSV,2,1,07,13,71,349,40,08,63,131,39,15,42,101,41,03,36,052,39,7*71
$GAGSV,2,2,07,07,26,192,48,26,23,304,32,21,10,251,46,7*44
$GAGSV,2,1,07,13,71,349,35,08,63,131,32,15,42,101,45,03,36,052,39,1*7A
$GAGSV,2,2,07,07,26,192,41,26,23,304,26,21,10,251,40,1*48
$GBGSV,3,1,09,33,75,230,45,14,75,046,38,28,58,306,44,43,54,153,43,1*75
$GBGSV,3,2,09,42,47,047,39,11,31,141,46,41,23,228,48,27,12,315,36,1*72
$GBGSV,3,3,09,34,08,142,49,1*4A
$GBGSV,2,1,07,33,75,230,42,28,58,306,33,43,54,153,40,42,47,047,38,5*79
$GBGSV,2,2,07,41,23,228,41,27,12,315,24,34,08,142,45,5*42
$GNGGA,022947.000,4005.098722,N,10513.207920,W,2,53,0.45,1583.112,M,-20.670,M,,*72
$GPGSV,4,1,13,18,76,041,36,23,65,288,42,15,51,063,40,46,37,214,46,1*6F
$GPGSV,4,2,13,10,32,259,41,29,28,170,48,13,23,044,37,27,23,315,38,1*6F
$GPGSV,4,3,13,24,14,121,41,16,12,282,38,05,09,064,38,32,04,203,45,1*62
$GPGSV,4,4,13,26,03,252,32,1*55
$GPGSV,2,1,07,18,76,041,25,23,65,288,39,10,32,259,42,27,23,315,40,8*66
$GPGSV,2,2,07,24,14,121,44,32,04,203,48,26,03,252,13,8*53
$GLGSV,2,1,08,88,66,114,43,66,62,216,46,65,61,032,31,81,51,332,40,1*7F
$GLGSV,2,2,08,87,12,133,46,67,10,215,47,72,06,034,21,82,05,321,20,1*70
$GAGSV,2,1,07,13,71,349,40,08,63,131,39,15,42,101,40,03,36,052,39,7*70
$GAGSV,2,2,07,07,26,192,48,26,23,304,32,21,10,251,46,7*44
$GAGSV,2,1,07,13,71,349,35,08,63,131,32,15,42,101,45,03,36,052,39,1*7A
$GAGSV,2,2,07,07,26,192,41,26,23,304,25,21,10,251,40,1*4B
$GBGSV,3,1,09,33,75,230,45,14,75,046,38,28,58,306,44,43,54,153,43,1*75
$GBGSV,3,2,09,42,47,047,38,11,31,141,46,41,23,228,48,27,12,315,35,1*70
$GBGSV,3,3,09,34,08,142,48,1*4B
$GBGSV,2,1,07,33,75,230,42,28,58,306,32,43,54,153,40,42,47,047,38,5*78
$GBGSV,2,2,07,41,23,228,41,27,12,315,25,34,08,142,45,5*43
$GNGGA,022952.000,4005.098722,N,10513.207848,W,2,55,0.43,1583.127,M,-20.669,M,,*77
$GPGSV,4,1,13,18,76,041,36,23,65,288,42,15,51,063,39,46,37,214,46,1*61
$GPGSV,4,2,13,10,32,259,41,29,28,170,48,13,23,044,37,27,23,315,39,1*6E
$GPGSV,4,3,13,24,14,121,41,16,12,282,38,05,09,064,38,32,05,203,47,1*61
$GPGSV,4,4,13,26,03,252,32,1*55
$GPGSV,2,1,06,18,76,041,25,23,65,288,39,10,32,259,42,27,23,315,40,8*67
$GPGSV,2,2,06,24,14,121,44,32,05,203,48,8*63
$GLGSV,2,1,08,88,66,114,43,66,62,216,45,65,61,032,28,81,51,332,40,1*74
$GLGSV,2,2,08,87,12,133,45,67,10,215,47,72,06,034,21,82,05,321,16,1*76
$GAGSV,2,1,07,13,71,349,40,08,63,131,39,15,42,101,40,03,36,052,39,7*70
$GAGSV,2,2,07,07,26,192,48,26,23,304,32,21,10,251,46,7*44
$GAGSV,2,1,07,13,71,349,35,08,63,131,32,15,42,101,45,03,36,052,39,1*7A
$GAGSV,2,2,07,07,26,192,42,26,23,304,24,21,10,251,40,1*49
$GBGSV,3,1,09,33,75,230,45,14,75,046,38,28,58,306,44,43,54,153,43,1*75
$GBGSV,3,2,09,42,47,047,38,11,31,141,46,41,23,228,48,27,12,315,35,1*70
$GBGSV,3,3,09,34,08,142,48,1*4B
$GBGSV,2,1,07,33,75,230,42,28,58,306,32,43,54,153,40,42,47,047,38,5*78
$GBGSV,2,2,07,41,23,228,41,27,12,315,28,34,08,142,45,5*4E
$GNGGA,022957.000,4005.098692,N,10513.207776,W,2,55,0.43,1583.097,M,-20.670,M,,*78
$GPGSV,4,1,13,18,76,041,36,23,65,288,42,15,51,063,39,46,37,214,46,1*61
$GPGSV,4,2,13,10,32,259,42,29,28,170,48,13,23,044,36,27,23,315,40,1*62
$GPGSV,4,3,13,24,14,121,41,16,12,282,38,05,09,064,38,32,05,203,47,1*61
$GPGSV,4,4,13,26,03,252,31,1*56
$GPGSV,2,1,06,18,76,041,26,23,65,288,39,10,32,259,42,27,23,315,39,8*6A
$GPGSV,2,2,06,24,14,121,44,32,05,203,48,8*63
$GLGSV,2,1,08,88,66,114,44,66,62,216,45,65,61,032,28,81,51,332,40,1*73
$GLGSV,2,2,08,87,12,133,45,67,10,215,47,72,06,034,20,82,05,321,12,1*73
$GAGSV,2,1,07,13,71,349,40,08,63,131,39,15,42,101,39,03,36,052,39,7*7E
$GAGSV,2,2,07,07,26,192,48,26,23,304,32,21,10,251,45,7*47
$GAGSV,2,1,07,13,71,349,35,08,63,131,32,15,42,101,45,03,36,052,39,1*7A
$GAGSV,2,2,07,07,26,192,42,26,23,304,24,21,10,251,40,1*49
$GBGSV,3,1,09,33,75,230,45,14,75,046,38,28,58,306,44,43,54,153,43,1*75
$GBGSV,3,2,09,42,47,047,38,11,31,141,46,41,23,228,49,27,12,315,35,1*71
$GBGSV,3,3,09,34,08,142,48,1*4B
$GBGSV,2,1,07,33,75,230,42,28,58,306,33,43,54,153,40,42,47,047,38,5*79
$GBGSV,2,2,07,41,23,228,42,27,12,315,30,34,08,142,45,5*44
$GNGGA,023002.000,4005.098674,N,10513.207746,W,2,55,0.43,1582.993,M,-20.670,M,,*77
$GPGSV,4,1,13,18,76,041,36,23,65,288,42,15,51,063,39,46,37,214,46,1*61
$GPGSV,4,2,13,10,32,259,42,29,28,170,48,13,23,044,35,27,23,315,40,1*61
$GPGSV,4,3,13,24,14,121,42,16,12,282,38,05,09,064,38,32,05,203,49,1*6C
$GPGSV,4,4,13,26,03,252,31,1*56
$GPGSV,2,1,06,18,76,041,26,23,65,288,39,10,32,259,42,27,23,315,39,8*6A
$GPGSV,2,2,06,24,14,121,44,32,05,203,48,8*63
$GLGSV,2,1,08,88,66,114,44,66,62,216,45,65,61,032,30,81,51,332,41,1*7B
$GLGSV,2,2,08,87,12,133,45,67,10,215,47,72,06,034,23,82,05,321,17,1*75
$GAGSV,2,1,07,13,71,349,40,08,63,131,39,15,42,101,39,03,35,051,39,7*7E
$GAGSV,2,2,07,07,26,192,48,26,23,304,32,21,10,251,45,7*47
$GAGSV,2,1,07,13,71,349,35,08,63,131,32,15,42,101,45,03,35,051,39,1*7A
$GAGSV,2,2,07,07,26,192,42,26,23,304,23,21,10,251,40,1*4E
$GBGSV,3,1,09,33,75,230,45,14,75,046,38,28,58,306,44,43,54,153,43,1*75
$GBGSV,3,2,09,42,47,047,39,11,31,141,46,41,23,228,49,27,12,315,35,1*70
$GBGSV,3,3,09,34,08,142,48,1*4B
$GBGSV,2,1,07,33,75,230,42,28,58,306,33,43,54,153,40,42,47,047,38,5*79
$GBGSV,2,2,07,41,23,228,42,27,12,315,30,34,08,142,45,5*44
$GNGGA,023007.000,4005.098674,N,10513.207752,W,2,55,0.43,1582.990,M,-20.670,M,,*74
$GPGSV,4,1,13,18,76,041,36,23,65,288,41,15,51,063,40,46,37,214,46,1*6C
$GPGSV,4,2,13,10,32,259,42,29,28,170,49,13,23,044,35,27,23,315,40,1*60
$GPGSV,4,3,13,24,14,121,42,16,12,282,38,05,09,064,38,32,05,203,49,1*6C
$GPGSV,4,4,13,26,03,252,30,1*57
$GPGSV,2,1,06,18,76,041,26,23,65,288,39,10,32,259,42,27,23,315,38,8*6B
$GPGSV,2,2,06,24,14,121,44,32,05,203,47,8*6C
$GLGSV,2,1,08,88,66,114,44,66,62,216,44,65,61,032,30,81,51,332,41,1*7A
$GLGSV,2,2,08,87,12,133,45,67,10,215,48,72,06,034,23,82,05,321,18,1*75
$GAGSV,2,1,07,13,71,349,40,08,64,129,39,15,42,101,39,03,35,051,39,7*70
$GAGSV,2,2,07,07,27,192,48,26,23,304,31,21,10,251,45,7*45
$GAGSV,2,1,07,13,71,349,35,08,64,129,32,15,42,101,45,03,35,051,39,1*74
$GAGSV,2,2,07,07,27,192,42,26,23,304,22,21,10,251,40,1*4E
$GBGSV,3,1,09,33,75,230,45,14,75,046,38,28,58,306,44,43,54,153,43,1*75
$GBGSV,3,2,09,42,47,047,40,11,31,141,46,41,23,228,49,27,12,315,34,1*7F
$GBGSV,3,3,09,34,08,142,47,1*44
$GBGSV,2,1,07,33,75,230,42,28,58,306,33,43,54,153,40,42,47,047,37,5*76
$GBGSV,2,2,07,41,23,228,42,27,12,315,31,34,08,142,45,5*45
$GNGGA,023012.000,4005.098638,N,10513.207764,W,2,55,0.43,1583.136,M,-20.670,M,,*78
$GPGSV,4,1,13,18,76,041,36,23,65,288,41,15,51,063,40,46,37,214,46,1*6C
$GPGSV,4,2,13,10,32,259,42,29,28,170,49,13,23,044,35,27,23,315,39,1*6E
$GPGSV,4,3,13,24,14,121,42,16,12,282,38,05,09,064,38,32,05,203,50,1*64
$GPGSV,4,4,13,26,03,252,26,1*50
$GPGSV,2,1,06,18,76,041,27,23,65,288,39,10,32,259,42,27,23,315,37,8*65
$GPGSV,2,2,06,24,14,121,44,32,05,203,47,8*6C
$GLGSV,2,1,08,88,66,114,43,66,62,216,44,65,61,032,29,81,51,332,41,1*75
$GLGSV,2,2,08,87,12,133,45,67,10,215,48,72,06,034,24,82,05,321,23,1*7A
$GAGSV,2,1,07,13,72,352,40,08,64,129,39,15,42,102,39,03,35,051,39,7*7A
$GAGSV,2,2,07,07,27,192,48,26,23,304,30,21,10,251,45,7*44
$GAGSV,2,1,07,13,72,352,35,08,64,129,32,15,42,102,45,03,35,051,39,1*7E
$GAGSV,2,2,07,07,27,192,42,26,23,304,21,21,10,251,40,1*4D
$GBGSV,3,1,09,33,75,230,45,14,75,046,38,28,58,306,44,43,54,153,43,1*75
$GBGSV,3,2,09,42,47,047,40,11,31,141,46,41,23,228,49,27,12,315,35,1*7E
$GBGSV,3,3,09,34,08,142,46,1*45
$GBGSV,2,1,07,33,75,230,42,28,58,306,33,43,54,153,41,42,47,047,37,5*77
$GBGSV,2,2,07,41,23,228,42,27,12,315,31,34,08,142,45,5*45
$GNGGA,023017.000,4005.098680,N,10513.207764,W,2,55,0.43,1583.121,M,-20.670,M,,*78
$GPGSV,4,1,13,18,76,041,36,23,65,288,41,15,51,063,40,46,37,214,46,1*6C
$GPGSV,4,2,13,10,32,259,42,29,28,170,49,13,23,044,33,27,23,315,38,1*69
$GPGSV,4,3,13,24,14,121,42,16,12,282,37,05,09,064,38,32,05,203,49,1*63
$GPGSV,4,4,13,26,03,252,25,1*53
$GPGSV,2,1,06,18,76,041,26,23,65,288,39,10,32,259,42,27,23,315,37,8*64
$GPGSV,2,2,06,24,14,121,43,32,05,203,47,8*6B
$GLGSV,2,1,08,88,66,114,43,66,62,216,45,65,61,032,28,81,51,332,41,1*75
$GLGSV,2,2,08,87,12,133,45,67,10,215,48,72,06,034,25,82,05,321,21,1*79
$GAGSV,2,1,07,13,72,352,39,08,64,129,39,15,42,102,39,03,35,051,39,7*74
$GAGSV,2,2,07,07,27,192,48,26,23,304,30,21,10,251,46,7*47
$GAGSV,2,1,07,13,72,352,35,08,64,129,32,15,42,102,45,03,35,051,39,1*7E
$GAGSV,2,2,07,07,27,192,42,26,23,304,19,21,10,251,41,1*47
$GBGSV,3,1,09,33,75,230,46,14,75,046,38,28,58,306,44,43,54,153,43,1*76
$GBGSV,3,2,09,42,47,047,41,11,31,141,46,41,23,228,49,27,12,315,36,1*7C
$GBGSV,3,3,09,34,08,142,46,1*45
$GBGSV,2,1,07,33,75,230,42,28,58,306,33,43,54,153,41,42,47,047,36,5*76
$GBGSV,2,2,07,41,23,228,42,27,12,315,32,34,08,142,45,5*46
$GNGGA,023022.000,4005.098740,N,10513.207776,W,2,55,0.43,1582.941,M,-20.670,M,,*7F
$GPGSV,4,1,13,18,76,041,35,23,65,288,41,15,51,063,41,46,37,214,46,1*6E
$GPGSV,4,2,13,10,32,259,42,29,28,170,49,13,23,044,33,27,23,315,38,1*69
$GPGSV,4,3,13,24,14,121,42,16,12,282,36,05,09,064,37,32,05,203,50,1*65
$GPGSV,4,4,13,26,03,252,24,1*52
$GPGSV,2,1,06,18,76,041,26,23,65,288,39,10,32,259,42,27,23,315,37,8*64
$GPGSV,2,2,06,24,14,121,43,32,05,203,46,8*6A
$GLGSV,2,1,08,88,66,114,43,66,62,216,46,65,61,032,30,81,51,332,41,1*7F
$GLGSV,2,2,08,87,12,133,45,67,10,215,48,72,06,034,27,82,05,321,15,1*7C
$GAGSV,2,1,07,13,72,352,38,08,64,129,39,15,42,102,39,03,35,051,38,7*74
$GAGSV,2,2,07,07,27,192,48,26,23,304,31,21,09,251,46,7*4E
$GAGSV,2,1,07,13,72,352,35,08,64,129,32,15,42,102,45,03,35,051,39,1*7E
$GAGSV,2,2,07,07,27,192,42,26,23,304,19,21,09,251,41,1*4F
$GBGSV,3,1,09,33,75,230,46,14,75,046,38,28,58,306,45,43,54,153,43,1*77
$GBGSV,3,2,09,42,47,047,41,11,31,141,46,41,23,228,49,27,12,315,37,1*7D
$GBGSV,3,3,09,34,08,142,45,1*46
$GBGSV,2,1,07,33,75,230,42,28,58,306,33,43,54,153,41,42,47,047,36,5*76
$GBGSV,2,2,07,41,23,228,42,27,12,315,32,34,08,142,44,5*47
$GNGGA,023027.000,4005.098758,N,10513.207746,W,2,55,0.43,1582.831,M,-20.670,M,,*76
$GPGSV,4,1,13,18,76,041,35,23,65,288,41,15,51,063,40,46,37,214,46,1*6F
$GPGSV,4,2,13,10,32,259,42,29,28,170,49,13,23,044,34,27,23,315,38,1*6E
$GPGSV,4,3,13,24,14,121,42,16,12,282,35,05,09,064,37,32,05,203,50,1*66
$GPGSV,4,4,13,26,03,252,25,1*53
$GPGSV,2,1,06,18,76,041,26,23,65,288,38,10,32,259,42,27,23,315,37,8*65
$GPGSV,2,2,06,24,14,121,43,32,05,203,46,8*6A
$GLGSV,2,1,08,88,66,114,43,66,62,216,46,65,61,032,32,81,51,332,41,1*7D
$GLGSV,2,2,08,87,12,133,45,67,10,215,48,72,06,034,27,82,05,321,21,1*7B
$GAGSV,2,1,07,13,72,352,38,08,64,129,39,15,42,102,38,03,35,051,37,7*7A
$GAGSV,2,2,07,07,27,192,48,26,24,305,31,21,09,251,46,7*48
$GAGSV,2,1,07,13,72,352,35,08,64,129,32,15,42,102,45,03,35,051,39,1*7E
$GAGSV,2,2,07,07,27,192,42,26,24,305,18,21,09,251,41,1*48
$GBGSV,3,1,09,33,75,230,46,14,75,046,38,28,58,306,45,43,54,153,43,1*77
$GBGSV,3,2,09,42,47,047,41,11,31,141,46,41,23,228,49,27,12,315,37,1*7D
$GBGSV,3,3,09,34,08,142,45,1*46
$GBGSV,2,1,07,33,75,230,42,28,58,306,33,43,54,153,41,42,47,047,35,5*75
$GBGSV,2,2,07,41,23,228,42,27,12,315,32,34,08,142,44,5*47
$GNGGA,023032.000,4005.098806,N,10513.207704,W,2,55,0.43,1582.918,M,-20.670,M,,*7A
$GPGSV,4,1,13,18,76,041,36,23,65,288,41,15,51,063,40,46,37,214,46,1*6C
$GPGSV,4,2,13,10,32,259,42,29,28,170,49,13,23,044,35,27,23,315,37,1*60
$GPGSV,4,3,13,24,14,121,42,16,12,282,35,05,09,064,37,32,05,203,51,1*67
$GPGSV,4,4,13,26,03,252,25,1*53
$GPGSV,2,1,06,18,76,041,25,23,65,288,38,10,32,259,42,27,23,315,37,8*66
$GPGSV,2,2,06,24,14,121,43,32,05,203,46,8*6A
$GLGSV,2,1,08,88,66,114,43,66,62,216,45,65,61,032,31,81,51,332,40,1*7C
$GLGSV,2,2,08,87,12,133,45,67,10,215,49,72,06,034,28,82,05,321,20,1*74
$GAGSV,2,1,07,13,72,352,38,08,64,129,39,15,42,102,38,03,35,051,37,7*7A
$GAGSV,2,2,07,07,27,192,48,26,24,305,32,21,09,251,46,7*4B
$GAGSV,2,1,07,13,72,352,35,08,64,129,32,15,42,102,45,03,35,051,39,1*7E
$GAGSV,2,2,07,07,27,192,43,26,24,305,18,21,09,251,41,1*49
$GBGSV,3,1,09,33,75,230,46,14,75,046,38,28,58,306,45,43,54,153,43,1*77
$GBGSV,3,2,09,42,47,047,41,11,31,141,46,41,23,228,49,27,12,315,38,1*72
$GBGSV,3,3,09,34,08,142,45,1*46
$GBGSV,2,1,07,33,75,230,42,28,58,306,33,43,54,153,41,42,47,047,35,5*75
$GBGSV,2,2,07,41,23,228,43,27,12,315,32,34,08,142,44,5*46
$GNGGA,023037.000,4005.098866,N,10513.207614,W,2,55,0.43,1582.979,M,-20.670,M,,*7E
$GPGSV,4,1,13,18,76,041,36,23,65,288,41,15,51,063,39,46,37,214,46,1*62
$GPGSV,4,2,13,10,32,259,42,29,28,170,49,13,23,044,35,27,23,315,37,1*60
$GPGSV,4,3,13,24,14,121,42,16,12,282,34,05,09,064,38,32,05,203,51,1*69
$GPGSV,4,4,13,26,03,252,21,1*57
$GPGSV,2,1,06,18,76,041,25,23,65,288,38,10,32,259,42,27,23,315,37,8*66
$GPGSV,2,2,06,24,14,121,43,32,05,203,46,8*6A
$GLGSV,2,1,08,88,66,114,43,66,63,217,45,65,60,031,30,81,51,332,40,1*7F
$GLGSV,2,2,08,87,12,133,45,67,11,216,49,72,06,034,27,82,05,321,15,1*7F
$GAGSV,2,1,07,13,72,352,38,08,64,129,39,15,42,102,38,03,35,051,36,7*7B
$GAGSV,2,2,07,07,27,192,48,26,24,305,33,21,09,251,46,7*4A
$GAGSV,2,1,07,13,72,352,35,08,64,129,32,15,42,102,45,03,35,051,39,1*7E
$GAGSV,2,2,07,07,27,192,43,26,24,305,18,21,09,251,41,1*49
$GBGSV,3,1,09,33,75,230,46,14,75,046,38,28,58,306,45,43,54,153,43,1*77
$GBGSV,3,2,09,42,47,047,41,11,31,141,46,41,23,228,49,27,12,315,38,1*72
$GBGSV,3,3,09,34,08,142,44,1*47
$GBGSV,2,1,07,33,75,230,42,28,58,306,33,43,54,153,41,42,47,047,35,5*75
$GBGSV,2,2,07,41,23,228,43,27,12,315,32,34,08,142,44,5*46
$GNGGA,023042.000,4005.098914,N,10513.207584,W,2,55,0.43,1583.036,M,-20.670,M,,*71
$GPGSV,4,1,13,18,76,041,36,23,65,288,41,15,51,063,39,46,37,214,46,1*62
$GPGSV,4,2,13,10,32,259,41,29,28,170,49,13,23,044,35,27,23,315,37,1*63
$GPGSV,4,3,13,24,14,121,42,16,12,282,35,05,09,064,39,32,05,203,51,1*69
$GPGSV,4,4,13,26,03,252,25,1*53
$GPGSV,2,1,06,18,76,041,25,23,65,288,38,10,32,259,42,27,23,315,37,8*66
$GPGSV,2,2,06,24,14,121,43,32,05,203,46,8*6A
$GLGSV,2,1,08,88,66,114,44,66,63,217,45,65,60,031,26,81,51,332,40,1*7F
$GLGSV,2,2,08,87,12,133,45,67,11,216,49,72,05,035,27,82,05,321,20,1*7B
$GAGSV,2,1,07,13,72,352,38,08,64,129,39,15,42,102,37,03,35,051,35,7*77
$GAGSV,2,2,07,07,27,192,48,26,24,305,33,21,09,251,46,7*4A
$GAGSV,2,1,07,13,72,352,35,08,64,129,32,15,42,102,45,03,35,051,39,1*7E
$GAGSV,2,2,07,07,27,192,43,26,24,305,18,21,09,251,41,1*49
$GBGSV,3,1,09,33,75,230,46,14,75,046,38,28,58,306,45,43,54,153,43,1*77
$GBGSV,3,2,09,42,47,047,41,11,31,141,46,41,23,228,49,27,12,315,38,1*72
$GBGSV,3,3,09,34,08,142,44,1*47
$GBGSV,2,1,07,33,75,230,42,28,58,306,33,43,54,153,41,42,47,047,35,5*75
$GBGSV,2,2,07,41,23,228,43,27,12,315,32,34,08,142,44,5*46
$GNGGA,023047.000,4005.098950,N,10513.207560,W,2,55,0.43,1582.974,M,-20.670,M,,*70
$GPGSV,4,1,13,18,76,041,36,23,65,288,41,15,51,063,39,46,37,214,46,1*62
$GPGSV,4,2,13,10,32,259,41,29,28,170,49,13,23,044,35,27,23,315,37,1*63
$GPGSV,4,3,13,24,14,121,42,16,12,282,35,05,09,064,40,32,05,203,51,1*67
$GPGSV,4,4,13,26,03,252,21,1*57
$GPGSV,2,1,06,18,76,041,25,23,65,288,38,10,32,259,42,27,23,315,37,8*66
$GPGSV,2,2,06,24,14,121,43,32,05,203,46,8*6A
$GLGSV,2,1,08,88,66,114,44,66,63,217,45,65,60,031,22,81,51,332,40,1*7B
$GLGSV,2,2,08,87,12,133,45,67,11,216,49,72,05,035,27,82,05,321,24,1*7F
$GAGSV,2,1,07,13,72,352,38,08,64,129,39,15,42,102,37,03,35,051,35,7*77
$GAGSV,2,2,07,07,27,192,47,26,24,305,33,21,09,251,46,7*45
$GAGSV,2,1,07,13,72,352,35,08,64,129,32,15,42,102,45,03,35,051,39,1*7E
$GAGSV,2,2,07,07,27,192,43,26,24,305,18,21,09,251,41,1*49
