$PAIR001,062,0*3F
$PAIR001,062,0*3F
$PAIR001,062,0*3F
$PAIR001,062,0*3F
$PAIR001,062,0*3F
$PAIR001,062,0*3F
$PAIR001,062,0*3F
$PAIR001,062,0*3F
$PAIR001,062,0*3F
$GNGGA,232637.000,4005.098362,N,10513.207770,W,2,56,0.42,1585.271,M,-20.670,M,,*70
$GPGSV,3,1,11,05,78,117,44,29,60,318,40,20,49,051,40,25,42,222,44,1*64
$GPGSV,3,2,11,46,37,214,45,11,27,065,40,12,27,188,47,18,22,269,45,1*66
$GPGSV,3,3,11,13,13,128,43,15,12,163,47,26,08,323,32,1*57
$GPGSV,1,1,04,25,42,222,45,11,27,065,41,18,22,269,38,26,08,323,32,8*68
$GLGSV,3,1,10,87,57,003,38,65,47,128,,72,45,124,43,71,38,054,37,1*79
$GLGSV,3,2,10,86,30,072,40,78,27,304,39,77,25,238,26,88,24,298,38,1*77
$GLGSV,3,3,10,70,03,019,17,76,02,200,,1*72
$GAGSV,3,1,09,15,69,330,34,27,50,257,43,34,39,058,34,30,29,190,46,7*76
$GAGSV,3,2,09,13,26,270,37,05,22,072,35,21,22,315,35,03,21,126,43,7*7A
$GAGSV,3,3,09,09,02,026,18,7*4C
$GAGSV,2,1,08,15,69,330,37,27,50,257,42,34,39,058,40,30,29,190,46,1*71
$GAGSV,2,2,08,13,26,270,34,05,22,072,34,21,22,315,38,03,21,126,39,1*7E
$GBGSV,4,1,13,11,69,346,34,34,68,062,39,43,51,308,38,21,50,087,42,1*73
$GBGSV,4,2,13,42,39,163,45,12,39,087,40,23,20,272,45,44,18,100,36,1*71
$GBGSV,4,3,13,14,18,183,46,22,16,039,44,25,11,223,51,37,06,321,25,1*7F
$GBGSV,4,4,13,63,,,29,1*7A
$GBGSV,2,1,08,34,68,062,21,43,51,308,34,21,50,087,36,42,39,163,47,5*7F
$GBGSV,2,2,08,44,18,100,39,22,16,039,39,25,11,223,40,37,06,321,39,5*77
$GNGGA,232642.000,4005.098362,N,10513.207746,W,2,57,0.42,1585.359,M,-20.670,M,,*7D
$GPGSV,3,1,11,05,78,117,44,29,60,318,40,20,49,051,40,25,42,222,44,1*64
$GPGSV,3,2,11,46,37,214,45,11,27,065,40,12,27,188,48,18,22,269,45,1*69
$GPGSV,3,3,11,13,13,128,43,15,12,163,47,26,08,323,32,1*57
$GPGSV,1,1,04,25,42,222,45,11,27,065,41,18,22,269,38,26,08,323,32,8*68
$GLGSV,3,1,10,87,57,003,40,65,47,128,,72,45,124,43,71,38,054,37,1*76
$GLGSV,3,2,10,86,30,072,41,78,27,304,37,77,25,238,27,88,24,298,39,1*78
$GLGSV,3,3,10,70,03,019,17,76,02,200,,1*72
$GAGSV,3,1,09,15,69,330,34,27,50,257,43,34,39,058,34,30,29,190,46,7*76
$GAGSV,3,2,09,13,26,270,37,05,22,072,35,21,22,315,35,03,21,126,43,7*7A
$GAGSV,3,3,09,09,02,026,17,7*43
$GAGSV,2,1,08,15,69,330,37,27,50,257,42,34,39,058,40,30,29,190,46,1*71
$GAGSV,2,2,08,13,26,270,34,05,22,072,34,21,22,315,38,03,21,126,40,1*70
$GBGSV,4,1,13,11,69,346,32,34,68,062,39,43,51,308,38,21,50,087,42,1*75
$GBGSV,4,2,13,42,39,163,45,12,39,087,40,23,20,272,45,44,18,100,36,1*71
$GBGSV,4,3,13,14,18,183,46,22,16,039,44,25,11,223,51,37,06,321,24,1*7E
$GBGSV,4,4,13,63,,,29,1*7A
$GBGSV,2,1,08,34,68,062,20,43,51,308,33,21,50,087,36,42,39,163,47,5*79
$GBGSV,2,2,08,44,18,100,39,22,16,039,39,25,11,223,40,37,06,321,39,5*77
$GNGGA,232647.000,4005.098356,N,10513.207788,W,2,56,0.42,1585.512,M,-20.670,M,,*75
$GPGSV,3,1,11,05,78,117,44,29,60,318,39,20,49,051,41,25,42,222,45,1*6A
$GPGSV,3,2,11,46,37,214,45,12,27,188,48,11,27,065,41,18,22,269,44,1*69
$GPGSV,3,3,11,13,13,128,43,15,12,163,47,26,08,323,32,1*57
$GPGSV,1,1,04,25,42,222,45,11,27,065,41,18,22,269,38,26,08,323,32,8*68
$GLGSV,3,1,11,87,57,003,40,65,47,128,,72,45,124,43,71,38,054,38,1*78
$GLGSV,3,2,11,86,30,072,41,78,27,304,37,77,25,238,27,88,24,298,39,1*79
$GLGSV,3,3,11,70,03,019,16,76,02,200,,79,01,347,,1*4D
$GAGSV,3,1,09,15,69,330,33,27,50,257,43,34,39,058,34,30,29,190,46,7*71
$GAGSV,3,2,09,13,26,270,37,21,22,315,35,05,22,072,35,03,21,126,43,7*7A
$GAGSV,3,3,09,09,02,026,17,7*43
$GAGSV,2,1,08,15,69,330,37,27,50,257,42,34,39,058,40,30,29,190,46,1*71
$GAGSV,2,2,08,13,26,270,34,05,22,072,35,21,22,315,38,03,21,126,40,1*71
$GBGSV,4,1,13,11,69,346,32,34,68,062,41,43,51,308,38,21,50,087,42,1*7A
$GBGSV,4,2,13,42,39,163,45,12,39,087,40,23,20,272,45,44,18,100,35,1*72
$GBGSV,4,3,13,14,18,183,46,22,16,039,45,25,11,223,51,37,06,321,19,1*71
$GBGSV,4,4,13,63,,,28,1*7B
$GBGSV,2,1,08,34,68,062,20,43,51,308,33,21,50,087,36,42,39,163,47,5*79
$GBGSV,2,2,08,44,18,100,39,22,16,039,39,25,11,223,40,37,06,321,39,5*77
$GNGGA,232652.000,4005.098350,N,10513.207884,W,2,57,0.42,1585.593,M,-20.670,M,,*7C
$GPGSV,3,1,11,05,78,117,44,29,60,318,37,20,49,051,41,25,42,222,45,1*64
$GPGSV,3,2,11,46,37,214,45,11,27,065,41,12,27,188,49,18,22,269,44,1*68
$GPGSV,3,3,11,13,13,128,43,15,12,163,46,26,08,323,33,1*57
$GPGSV,1,1,04,25,42,222,45,11,27,065,41,18,22,269,38,26,08,323,31,8*6B
$GLGSV,3,1,10,87,57,003,40,65,47,128,,72,45,124,43,71,38,054,39,1*78
$GLGSV,3,2,10,86,30,072,40,78,27,304,39,77,25,238,28,88,24,298,40,1*76
$GLGSV,3,3,10,70,03,019,13,76,02,200,,1*76
$GAGSV,3,1,09,15,69,330,32,27,49,256,43,34,39,058,35,30,28,190,46,7*79
$GAGSV,3,2,09,13,26,270,38,05,22,072,35,21,22,315,36,03,21,126,43,7*76
$GAGSV,3,3,09,09,02,026,17,7*43
$GAGSV,2,1,08,15,69,330,37,27,49,256,42,34,39,058,40,30,28,190,46,1*79
$GAGSV,2,2,08,13,26,270,34,05,22,072,34,21,22,315,38,03,21,126,40,1*70
$GBGSV,4,1,13,11,69,346,34,34,68,062,42,43,51,308,38,21,50,087,42,1*7F
$GBGSV,4,2,13,42,39,163,45,12,39,087,40,23,20,272,45,44,18,100,35,1*72
$GBGSV,4,3,13,14,18,183,47,22,16,039,45,25,11,223,51,37,06,321,22,1*78
$GBGSV,4,4,13,63,,,28,1*7B
$GBGSV,2,1,08,34,68,062,19,43,51,308,33,21,50,087,36,42,39,163,47,5*73
$GBGSV,2,2,08,44,18,100,39,22,16,039,39,25,11,223,40,37,06,321,38,5*76
$GNGGA,232657.000,4005.098320,N,10513.207896,W,2,56,0.42,1585.636,M,-20.670,M,,*70
$GPGSV,3,1,11,05,78,117,45,29,60,318,38,20,49,051,42,25,42,222,46,1*6A
$GPGSV,3,2,11,46,37,214,46,12,27,188,49,11,27,065,41,18,22,269,44,1*6B
$GPGSV,3,3,11,13,13,128,43,15,12,163,46,26,08,323,34,1*50
$GPGSV,1,1,04,25,42,222,45,11,27,065,41,18,22,269,38,26,08,323,31,8*6B
$GLGSV,3,1,11,87,57,003,40,65,47,128,,72,45,124,42,71,38,054,38,1*79
$GLGSV,3,2,11,86,30,072,40,78,27,304,39,77,25,238,29,88,24,298,40,1*76
$GLGSV,3,3,11,70,03,019,14,76,02,200,,79,01,347,,1*4F
$GAGSV,3,1,09,15,69,330,32,27,49,256,43,34,38,059,35,30,28,190,46,7*79
$GAGSV,3,2,09,13,26,270,38,21,22,315,36,05,22,072,35,03,21,126,43,7*76
$GAGSV,3,3,09,09,02,026,18,7*4C
$GAGSV,2,1,08,15,69,330,37,27,49,256,42,34,38,059,40,30,28,190,46,1*79
$GAGSV,2,2,08,13,26,270,34,05,22,072,34,21,22,315,38,03,21,126,40,1*70
$GBGSV,4,1,13,11,69,346,34,34,68,062,42,43,51,308,38,21,50,087,42,1*7F
$GBGSV,4,2,13,42,39,163,45,12,39,087,40,23,20,272,45,44,18,100,35,1*72
$GBGSV,4,3,13,14,18,183,47,22,16,039,45,25,11,223,50,37,06,321,21,1*7A
$GBGSV,4,4,13,63,,,28,1*7B
$GBGSV,2,1,08,34,68,062,19,43,51,308,34,21,50,087,36,42,39,163,47,5*74
$GBGSV,2,2,08,44,18,100,39,22,16,039,39,25,11,223,40,37,06,321,38,5*76
$GNGGA,232702.000,4005.098338,N,10513.207890,W,2,56,0.42,1585.612,M,-20.670,M,,*78
$GPGSV,3,1,11,05,78,117,45,29,60,318,38,20,49,051,42,25,42,222,46,1*6A
$GPGSV,3,2,11,46,37,214,46,12,27,188,49,11,27,065,41,18,22,269,44,1*6B
$GPGSV,3,3,11,13,13,128,43,15,12,163,46,26,08,323,34,1*50
$GPGSV,1,1,04,25,42,222,45,11,27,065,41,18,22,269,38,26,08,323,30,8*6A
$GLGSV,3,1,11,87,57,003,40,65,48,127,,72,45,124,41,71,38,054,36,1*74
$GLGSV,3,2,11,86,30,072,40,78,27,304,38,77,25,238,29,88,24,298,40,1*77
$GLGSV,3,3,11,70,03,019,12,76,02,200,,79,01,347,,1*49
$GAGSV,3,1,09,15,69,330,32,27,49,256,43,34,38,059,36,30,28,190,45,7*79
$GAGSV,3,2,09,13,26,270,38,21,22,315,36,05,22,072,35,03,21,126,43,7*76
$GAGSV,3,3,09,09,02,026,18,7*4C
$GAGSV,2,1,08,15,69,330,37,27,49,256,42,34,38,059,40,30,28,190,46,1*79
$GAGSV,2,2,08,13,26,270,34,05,22,072,35,21,22,315,38,03,21,126,40,1*71
$GBGSV,4,1,14,11,69,346,34,34,68,062,42,43,51,308,38,21,50,087,42,1*78
$GBGSV,4,2,14,42,39,163,45,12,39,087,40,23,20,272,45,44,18,100,35,1*75
$GBGSV,4,3,14,14,18,183,47,22,16,039,45,25,11,223,50,37,06,321,20,1*7C
$GBGSV,4,4,14,58,,,26,63,,,28,1*75
$GBGSV,2,1,08,34,68,062,21,43,51,308,33,21,50,087,36,42,39,163,47,5*78
$GBGSV,2,2,08,44,18,100,39,22,16,039,39,25,11,223,39,37,06,321,38,5*78
$GNGGA,232707.000,4005.098338,N,10513.207890,W,2,56,0.42,1585.585,M,-20.669,M,,*78
$GPGSV,3,1,11,05,78,117,45,29,60,318,38,20,49,051,42,25,42,222,46,1*6A
$GPGSV,3,2,11,46,37,214,45,12,27,188,49,11,27,065,41,18,22,269,44,1*68
$GPGSV,3,3,11,13,13,128,43,15,12,163,45,26,08,323,34,1*53
$GPGSV,1,1,04,25,42,222,45,11,27,065,41,18,22,269,38,26,08,323,29,8*62
$GLGSV,3,1,10,87,57,003,41,65,48,127,,72,46,122,41,71,38,053,37,1*77
$GLGSV,3,2,10,86,30,072,40,78,27,304,38,77,25,238,29,88,24,298,41,1*77
$GLGSV,3,3,10,70,02,019,13,76,02,200,,1*77
$GAGSV,3,1,09,15,69,330,32,27,49,256,43,34,38,059,36,30,28,190,45,7*79
$GAGSV,3,2,09,13,26,270,38,05,22,072,34,21,22,315,35,03,21,126,43,7*74
$GAGSV,3,3,09,09,02,026,18,7*4C
$GAGSV,2,1,08,15,69,330,37,27,49,256,42,34,38,059,40,30,28,190,46,1*79
$GAGSV,2,2,08,13,26,270,34,05,22,072,35,21,22,315,38,03,21,126,40,1*71
$GBGSV,4,1,14,11,69,346,33,34,68,062,42,43,51,308,38,21,50,087,42,1*7F
$GBGSV,4,2,14,42,39,163,45,12,39,087,40,23,20,272,45,44,18,100,35,1*75
$GBGSV,4,3,14,14,18,183,47,22,16,039,45,25,11,223,50,37,06,321,15,1*7A
$GBGSV,4,4,14,63,,,28,58,,,26,1*75
$GBGSV,2,1,08,34,68,062,20,43,51,308,32,21,50,087,36,42,39,163,47,5*78
$GBGSV,2,2,08,44,18,100,39,22,16,039,39,25,11,223,39,37,06,321,38,5*78
$GNGGA,232712.000,4005.098344,N,10513.207998,W,2,56,0.42,1585.575,M,-20.670,M,,*79
$GPGSV,3,1,11,05,78,117,45,29,60,318,38,20,49,051,42,25,42,222,46,1*6A
$GPGSV,3,2,11,46,37,214,45,12,27,188,49,11,27,065,41,18,22,269,44,1*68
$GPGSV,3,3,11,13,13,128,43,15,12,163,45,26,08,323,34,1*53
$GPGSV,1,1,04,25,42,222,45,11,27,065,41,18,22,269,38,26,08,323,27,8*6C
$GLGSV,3,1,10,87,57,003,41,65,48,127,,72,46,122,41,71,38,053,38,1*78
$GLGSV,3,2,10,86,30,072,41,78,27,303,38,77,24,237,30,88,24,298,41,1*77
$GLGSV,3,3,10,70,02,019,14,76,01,200,,1*73
$GAGSV,3,1,09,15,69,330,32,27,49,256,43,34,38,059,37,30,28,190,45,7*78
$GAGSV,3,2,09,13,26,270,38,05,22,072,34,21,22,315,35,03,21,126,43,7*74
$GAGSV,3,3,09,09,02,026,19,7*4D
$GAGSV,2,1,08,15,69,330,37,27,49,256,42,34,38,059,40,30,28,190,46,1*79
$GAGSV,2,2,08,13,26,270,34,05,22,072,35,21,22,315,38,03,21,126,40,1*71
$GBGSV,4,1,14,11,69,346,32,34,68,062,41,43,51,308,36,21,50,087,42,1*73
$GBGSV,4,2,14,42,39,163,45,12,39,087,40,23,20,272,45,44,18,100,35,1*75
$GBGSV,4,3,14,14,18,183,48,22,16,039,45,25,11,223,50,37,06,321,16,1*76
$GBGSV,4,4,14,63,,,28,58,,,26,1*75
$GBGSV,2,1,08,34,68,062,21,43,51,308,32,21,50,087,36,42,39,163,47,5*79
$GBGSV,2,2,08,44,18,100,39,22,16,039,39,25,11,223,39,37,06,321,38,5*78
$GNGGA,232717.000,4005.098380,N,10513.208106,W,2,57,0.42,1585.682,M,-20.670,M,,*7E
$GPGSV,3,1,11,05,78,117,45,29,60,318,38,20,49,051,42,25,42,222,46,1*6A
$GPGSV,3,2,11,46,37,214,45,12,27,188,49,11,27,065,41,18,22,269,44,1*68
$GPGSV,3,3,11,13,13,128,42,15,12,163,45,26,08,323,34,1*52
$GPGSV,1,1,04,25,42,222,46,11,27,065,41,18,22,269,38,26,08,323,27,8*6F
$GLGSV,3,1,11,87,57,003,41,65,48,127,,72,46,122,41,71,38,053,38,1*79
$GLGSV,3,2,11,86,30,072,41,78,27,303,38,77,24,237,30,88,24,298,41,1*76
$GLGSV,3,3,11,79,02,346,,70,02,019,13,76,01,200,,1*48
$GAGSV,3,1,09,15,69,330,33,27,49,256,43,34,38,059,37,30,28,190,45,7*79
$GAGSV,3,2,09,13,26,270,38,21,22,315,35,05,22,072,34,03,21,126,43,7*74
$GAGSV,3,3,09,09,02,026,19,7*4D
$GAGSV,2,1,08,15,69,330,37,27,49,256,42,34,38,059,40,30,28,190,46,1*79
$GAGSV,2,2,08,13,26,270,35,05,22,072,35,21,22,315,38,03,21,126,40,1*70
$GBGSV,4,1,13,11,69,346,28,34,68,062,41,43,51,308,36,21,50,087,42,1*7F
$GBGSV,4,2,13,42,39,163,45,12,39,087,40,23,20,272,45,44,18,100,34,1*73
$GBGSV,4,3,13,14,18,183,48,22,16,039,45,25,11,223,49,37,06,321,24,1*78
$GBGSV,4,4,13,63,,,27,1*74
$GBGSV,2,1,08,34,68,062,23,43,51,308,32,21,50,087,37,42,39,163,47,5*7A
$GBGSV,2,2,08,44,18,100,39,22,16,039,40,25,11,223,39,37,06,321,38,5*76
$GNGGA,232722.000,4005.098440,N,10513.208166,W,2,56,0.42,1585.813,M,-20.669,M,,*7A
$GPGSV,3,1,11,05,78,117,45,29,60,318,38,20,49,051,42,25,42,222,46,1*6A
$GPGSV,3,2,11,46,37,214,45,11,27,065,41,12,27,188,49,18,22,269,44,1*68
$GPGSV,3,3,11,13,13,128,42,15,12,163,45,26,08,323,33,1*55
$GPGSV,1,1,04,25,42,222,46,11,27,065,41,18,22,269,38,26,08,323,26,8*6E
$GLGSV,3,1,10,87,57,005,41,65,48,127,,72,46,122,41,71,38,053,38,1*7E
$GLGSV,3,2,10,86,29,073,41,78,27,303,38,88,24,299,41,77,24,237,30,1*7F
$GLGSV,3,3,10,70,02,019,,76,01,200,,1*76
$GAGSV,3,1,09,15,69,330,33,27,49,256,43,34,38,059,37,30,28,190,45,7*79
$GAGSV,3,2,09,13,26,270,38,05,22,072,34,21,22,315,35,03,21,126,43,7*74
$GAGSV,3,3,09,09,02,026,19,7*4D
$GAGSV,2,1,08,15,69,330,37,27,49,256,42,34,38,059,40,30,28,190,46,1*79
$GAGSV,2,2,08,13,26,270,35,05,22,072,35,21,22,315,38,03,21,126,40,1*70
$GBGSV,4,1,13,11,69,346,26,34,68,062,41,43,51,308,36,21,50,087,43,1*70
$GBGSV,4,2,13,42,39,163,45,12,39,087,40,23,20,272,45,44,18,100,33,1*74
$GBGSV,4,3,13,14,18,183,48,22,16,039,45,25,11,223,49,37,06,321,20,1*7C
$GBGSV,4,4,13,63,,,27,1*74
$GBGSV,2,1,08,34,68,062,23,43,51,308,32,21,50,087,37,42,39,163,47,5*7A
$GBGSV,2,2,08,44,18,100,39,22,16,039,40,25,11,223,39,37,06,321,38,5*76
$GNGGA,232727.000,4005.098464,N,10513.208136,W,2,57,0.42,1585.932,M,-20.669,M,,*7F
$GPGSV,3,1,11,05,78,117,45,29,60,318,37,20,49,051,42,25,42,222,46,1*65
$GPGSV,3,2,11,46,37,214,45,12,27,188,49,11,27,065,42,18,22,269,44,1*6B
$GPGSV,3,3,11,13,13,128,42,15,12,163,45,26,08,323,32,1*54
$GPGSV,1,1,04,25,42,222,46,11,27,065,41,18,22,269,38,26,08,323,25,8*6D
$GLGSV,3,1,10,87,57,005,41,65,48,127,,72,46,122,40,71,38,053,37,1*70
$GLGSV,3,2,10,86,29,073,41,78,27,303,37,77,24,237,30,88,24,299,41,1*70
$GLGSV,3,3,10,70,02,019,,76,01,200,,1*76
$GAGSV,3,1,09,15,69,330,33,27,49,256,43,34,38,059,38,30,28,190,45,7*76
$GAGSV,3,2,09,13,26,270,38,05,22,072,34,21,22,315,35,03,21,126,43,7*74
$GAGSV,3,3,09,09,02,026,19,7*4D
$GAGSV,2,1,08,15,69,330,37,27,49,256,42,34,38,059,40,30,28,190,46,1*79
$GAGSV,2,2,08,13,26,270,34,05,22,072,35,21,22,315,38,03,21,126,40,1*71
$GBGSV,3,1,12,11,69,346,27,34,68,062,41,43,51,308,37,21,50,087,43,1*76
$GBGSV,3,2,12,42,39,163,45,12,39,087,40,23,20,272,45,44,18,100,33,1*72
$GBGSV,3,3,12,14,18,183,48,22,16,039,45,25,11,223,48,37,06,321,25,1*7E
$GBGSV,2,1,08,34,68,062,23,43,51,308,31,21,50,087,37,42,39,163,47,5*79
$GBGSV,2,2,08,44,18,100,39,22,16,039,40,25,11,223,39,37,06,321,38,5*76
$PAIR010,0,1,2308,343668*3F
$GNGGA,232732.000,4005.098464,N,10513.208022,W,2,58,0.42,1586.100,M,-20.669,M,,*7A
$GPGSV,3,1,11,05,78,117,45,29,60,318,37,20,49,051,42,25,42,222,46,1*65
$GPGSV,3,2,11,46,37,214,45,12,27,188,49,11,27,065,42,18,22,269,44,1*6B
$GPGSV,3,3,11,13,13,128,42,15,12,163,45,26,08,323,31,1*57
$GPGSV,1,1,04,25,42,222,46,11,27,065,41,18,22,269,37,26,08,323,25,8*62
$GLGSV,3,1,09,87,57,005,41,72,46,122,40,71,38,053,38,86,29,073,40,1*79
$GLGSV,3,2,09,78,27,303,38,77,24,237,30,88,24,299,41,70,02,019,,1*7E
$GLGSV,3,3,09,76,01,200,,1*43
$GAGSV,3,1,09,15,69,330,33,27,49,256,44,34,38,059,38,30,28,190,45,7*71
$GAGSV,3,2,09,13,26,270,38,05,22,072,34,21,22,315,35,03,21,126,43,7*74
$GAGSV,3,3,09,09,02,026,19,7*4D
$GAGSV,2,1,08,15,69,330,37,27,49,256,42,34,38,059,40,30,28,190,45,1*7A
$GAGSV,2,2,08,13,26,270,34,05,22,072,35,21,22,315,38,03,21,126,40,1*71
$GBGSV,3,1,12,11,69,348,28,34,68,062,41,43,51,308,36,21,50,087,43,1*76
$GBGSV,3,2,12,12,39,087,40,42,39,163,45,23,20,272,45,14,18,183,48,1*70
$GBGSV,3,3,12,44,18,100,33,22,16,039,45,25,11,223,48,37,06,321,29,1*70
$GBGSV,3,1,09,34,68,062,22,43,51,308,31,21,50,087,37,42,39,163,47,5*78
$GBGSV,3,2,09,23,20,272,23,44,18,100,39,22,16,039,40,25,11,223,39,5*7A
$GBGSV,3,3,09,37,06,321,38,5*42
$GNGGA,232737.000,4005.098434,N,10513.207968,W,2,57,0.42,1586.299,M,-20.670,M,,*76
$GPGSV,3,1,11,05,78,117,45,29,60,318,37,20,49,051,42,25,42,222,46,1*65
$GPGSV,3,2,11,46,37,214,45,12,27,188,49,11,27,065,42,18,22,269,44,1*6B
$GPGSV,3,3,11,13,13,128,42,15,12,163,45,26,08,323,30,1*56
$GPGSV,1,1,04,25,42,222,46,11,27,065,41,18,22,269,37,26,08,323,25,8*62
$GLGSV,3,1,11,87,57,005,41,65,48,127,,72,46,122,40,71,38,053,37,1*71
$GLGSV,3,2,11,86,29,073,40,78,27,303,38,77,24,237,31,88,24,299,41,1*7E
$GLGSV,3,3,11,79,02,346,,70,02,019,,76,01,200,,1*4A
$GAGSV,3,1,09,15,69,330,31,27,49,256,44,34,38,059,38,30,28,190,45,7*73
$GAGSV,3,2,09,13,26,270,38,21,22,315,35,05,22,072,34,03,21,126,43,7*74
$GAGSV,3,3,09,09,02,026,19,7*4D
$GAGSV,2,1,08,15,69,330,37,27,49,256,42,34,38,059,40,30,28,190,45,1*7A
$GAGSV,2,2,08,13,26,270,34,05,22,072,35,21,22,315,38,03,21,126,40,1*71
$GBGSV,4,1,13,11,69,348,29,34,68,062,41,43,51,308,36,21,50,087,43,1*71
$GBGSV,4,2,13,42,39,163,45,12,39,089,40,23,20,272,45,14,20,183,48,1*73
$GBGSV,4,3,13,44,18,100,34,22,16,039,45,25,11,223,48,37,06,321,31,1*78
$GBGSV,4,4,13,58,,,28,1*73
$GBGSV,3,1,09,34,68,062,23,43,51,308,31,21,50,087,37,42,39,163,47,5*79
$GBGSV,3,2,09,23,20,272,23,44,18,100,39,22,16,039,40,25,11,223,39,5*7A
$GBGSV,3,3,09,37,06,321,39,5*43
$GNGGA,232742.000,4005.098422,N,10513.207998,W,2,58,0.42,1586.335,M,-20.670,M,,*74
$GPGSV,3,1,11,05,78,117,45,29,60,318,37,20,49,051,42,25,42,222,46,1*65
$GPGSV,3,2,11,46,37,214,45,12,27,188,49,11,27,065,42,18,22,269,44,1*6B
$GPGSV,3,3,11,13,13,128,42,15,12,163,45,26,08,323,30,1*56
$GPGSV,1,1,04,25,42,222,45,11,27,065,41,18,22,269,36,26,08,323,25,8*60
$GLGSV,3,1,10,87,57,005,41,72,46,122,40,71,38,053,39,86,29,073,40,1*70
$GLGSV,3,2,10,78,27,303,36,77,24,237,32,88,24,299,41,79,02,346,,1*7A
$GLGSV,3,3,10,70,02,019,,76,01,200,,1*76
$GAGSV,3,1,09,15,69,330,29,27,49,256,44,34,38,059,38,30,28,190,45,7*7A
$GAGSV,3,2,09,13,26,270,38,05,22,072,34,21,22,315,35,03,21,126,43,7*74
$GAGSV,3,3,09,09,02,026,19,7*4D
$GAGSV,2,1,08,15,69,330,37,27,49,256,42,34,38,059,40,30,28,190,45,1*7A
$GAGSV,2,2,08,13,26,270,34,05,22,072,35,21,22,315,38,03,21,126,40,1*71
$GBGSV,4,1,13,11,69,348,29,34,68,062,39,43,51,308,35,21,50,085,43,1*7F
$GBGSV,4,2,13,42,39,163,45,12,39,089,40,23,20,272,45,14,20,183,48,1*73
$GBGSV,4,3,13,44,18,100,34,22,16,039,46,25,11,223,48,37,06,321,28,1*73
$GBGSV,4,4,13,58,,,25,1*7E
$GBGSV,3,1,09,34,68,062,21,43,51,308,30,21,50,085,37,42,39,163,47,5*78
$GBGSV,3,2,09,23,20,272,23,44,18,100,39,22,16,039,39,25,11,223,38,5*75
$GBGSV,3,3,09,37,06,321,39,5*43
$GNGGA,232747.000,4005.098392,N,10513.208064,W,2,58,0.42,1586.249,M,-20.670,M,,*72
$GPGSV,3,1,11,05,78,117,45,29,60,318,37,20,49,051,42,25,42,222,46,1*65
$GPGSV,3,2,11,46,37,214,45,12,27,188,49,11,27,065,42,18,22,269,44,1*6B
$GPGSV,3,3,11,13,13,128,41,15,12,163,45,26,08,323,33,1*56
$GPGSV,1,1,04,25,42,222,45,11,27,065,41,18,22,269,36,26,08,323,25,8*60
$GLGSV,3,1,10,87,57,005,41,72,46,122,40,71,38,053,39,86,29,073,40,1*70
$GLGSV,3,2,10,78,27,303,37,77,24,237,31,88,24,299,41,79,02,346,,1*78
$GLGSV,3,3,10,70,02,019,,76,01,200,,1*76
$GAGSV,3,1,09,15,69,330,28,27,49,256,44,34,38,059,38,30,28,190,45,7*7B
$GAGSV,3,2,09,13,26,270,38,05,22,072,34,21,22,315,35,03,21,126,43,7*74
$GAGSV,3,3,09,09,02,026,18,7*4C
$GAGSV,2,1,08,15,69,330,37,27,49,256,42,34,38,059,41,30,28,190,45,1*7B
$GAGSV,2,2,08,13,26,270,34,05,22,072,35,21,22,315,38,03,21,126,40,1*71
$GBGSV,3,1,12,11,69,348,28,34,68,062,39,43,51,308,35,21,50,085,43,1*78
$GBGSV,3,2,12,12,39,089,40,42,39,163,45,14,20,183,48,23,19,271,45,1*7C
$GBGSV,3,3,12,44,18,100,35,22,15,038,46,25,11,223,47,37,06,321,28,1*79
$GBGSV,3,1,09,34,68,062,22,43,51,308,30,21,50,085,37,42,39,163,47,5*7B
$GBGSV,3,2,09,23,19,271,26,44,18,100,39,22,15,038,39,25,11,223,38,5*7B
$GBGSV,3,3,09,37,06,321,39,5*43
$GNGGA,232752.000,4005.098362,N,10513.208088,W,2,58,0.42,1586.291,M,-20.669,M,,*76
$GPGSV,3,1,11,05,78,117,45,29,60,318,37,20,49,051,42,25,42,222,46,1*65
$GPGSV,3,2,11,46,37,214,45,12,27,188,50,11,27,065,42,18,22,269,43,1*64
$GPGSV,3,3,11,13,13,128,41,15,12,163,45,26,08,323,33,1*56
$GPGSV,1,1,04,25,42,222,45,11,27,065,41,18,22,269,36,26,08,323,25,8*60
$GLGSV,3,1,11,87,57,005,41,65,48,127,,72,46,122,40,71,38,053,38,1*7E
$GLGSV,3,2,11,86,29,073,40,78,27,303,38,77,24,237,32,88,24,299,41,1*7D
$GLGSV,3,3,11,79,02,346,,70,02,019,,76,01,200,,1*4A
$GAGSV,3,1,09,15,69,330,28,27,49,256,44,34,38,059,39,30,28,190,45,7*7A
$GAGSV,3,2,09,13,26,270,38,21,22,315,35,05,22,072,34,03,21,126,43,7*74
$GAGSV,3,3,09,09,02,026,17,7*43
$GAGSV,2,1,08,15,69,330,37,27,49,256,42,34,38,059,41,30,28,190,45,1*7B
$GAGSV,2,2,08,13,26,270,34,05,22,072,35,21,22,315,38,03,21,126,40,1*71
$GBGSV,3,1,12,11,69,348,26,34,68,062,39,43,51,308,35,21,50,085,43,1*76
$GBGSV,3,2,12,12,39,089,40,42,39,163,45,14,20,183,48,23,19,271,45,1*7C
$GBGSV,3,3,12,44,18,100,35,22,15,038,46,25,11,223,47,37,06,321,26,1*77
$GBGSV,3,1,09,34,68,062,20,43,51,308,29,21,50,085,37,42,39,163,47,5*71
$GBGSV,3,2,09,23,19,271,26,44,18,100,39,22,15,038,39,25,11,223,37,5*74
$GBGSV,3,3,09,37,06,321,39,5*43
$GNGGA,232757.000,4005.098296,N,10513.208010,W,2,57,0.42,1586.466,M,-20.670,M,,*71
$GPGSV,3,1,11,05,78,117,45,29,60,318,37,20,49,051,42,25,42,222,46,1*65
$GPGSV,3,2,11,46,37,214,45,12,27,188,50,11,27,065,42,18,22,269,43,1*64
$GPGSV,3,3,11,13,13,128,40,15,12,163,45,26,08,323,35,1*51
$GPGSV,1,1,04,25,42,222,45,11,27,065,41,18,22,269,36,26,08,323,26,8*63
$GLGSV,3,1,09,87,57,005,40,72,46,122,40,71,38,053,38,86,29,073,40,1*78
$GLGSV,3,2,09,78,27,303,38,77,24,237,33,88,24,299,41,70,02,019,,1*7D
$GLGSV,3,3,09,76,01,200,,1*43
$GAGSV,3,1,09,15,69,330,28,27,49,256,44,34,38,059,39,30,28,190,45,7*7A
$GAGSV,3,2,09,13,26,270,38,05,22,072,35,21,22,315,35,03,21,126,43,7*75
$GAGSV,3,3,09,09,02,026,17,7*43
$GAGSV,2,1,08,15,69,330,37,27,49,256,42,34,38,059,41,30,28,190,45,1*7B
$GAGSV,2,2,08,13,26,270,33,05,22,072,35,21,22,315,38,03,21,126,40,1*76
$GBGSV,3,1,12,11,69,348,26,34,67,065,39,43,51,308,35,21,50,085,43,1*7E
$GBGSV,3,2,12,42,39,163,45,12,39,089,40,14,20,183,49,23,19,271,45,1*7D
$GBGSV,3,3,12,44,18,100,35,22,15,038,47,25,11,223,47,37,06,321,26,1*76
$GBGSV,2,1,08,43,51,308,29,21,50,085,37,42,39,163,47,23,19,271,26,5*77
$GBGSV,2,2,08,44,18,100,39,22,15,038,39,25,11,223,37,37,06,321,39,5*75
$GNGGA,232802.000,4005.098266,N,10513.207878,W,2,57,0.42,1586.841,M,-20.669,M,,*79
$GPGSV,3,1,11,05,78,117,45,29,60,318,37,20,49,051,42,25,42,222,46,1*65
$GPGSV,3,2,11,46,37,214,45,12,27,188,50,11,27,065,42,18,22,269,42,1*65
$GPGSV,3,3,11,13,13,128,40,15,12,163,45,26,08,323,35,1*51
$GPGSV,1,1,04,25,42,222,45,11,27,065,41,18,22,269,35,26,08,323,26,8*60
$GLGSV,3,1,11,87,57,005,40,65,48,127,,72,46,122,39,71,38,053,36,1*7F
$GLGSV,3,2,11,86,29,073,40,78,27,303,38,77,24,237,32,88,24,299,41,1*7D
$GLGSV,3,3,11,79,02,346,,70,02,019,,76,01,200,,1*4A
$GAGSV,3,1,09,15,69,330,29,27,49,256,44,34,38,059,39,30,28,190,45,7*7B
$GAGSV,3,2,09,13,26,270,38,21,22,315,35,05,22,072,35,03,21,126,43,7*75
$GAGSV,3,3,09,09,02,026,16,7*42
$GAGSV,2,1,08,15,69,330,37,27,49,256,42,34,38,059,41,30,28,190,45,1*7B
$GAGSV,2,2,08,13,26,270,34,05,22,072,35,21,22,315,38,03,21,126,41,1*70
$GBGSV,3,1,12,11,69,348,26,34,67,065,40,43,51,308,35,21,50,085,43,1*70
$GBGSV,3,2,12,12,39,089,39,42,39,163,45,14,20,183,49,23,19,271,45,1*73
$GBGSV,3,3,12,44,18,100,35,22,15,038,47,25,11,223,47,37,06,320,22,1*73
$GBGSV,3,1,09,34,67,065,20,43,51,308,29,21,50,085,37,42,39,163,47,5*79
$GBGSV,3,2,09,23,19,271,26,44,18,100,39,22,15,038,39,25,11,223,37,5*74
$GBGSV,3,3,09,37,06,320,39,5*42
$GNGGA,232807.000,4005.098224,N,10513.207806,W,2,58,0.42,1587.197,M,-20.670,M,,*77
$GPGSV,3,1,11,05,78,117,45,29,60,318,37,20,49,051,42,25,42,222,46,1*65
$GPGSV,3,2,11,46,37,214,45,12,27,188,50,11,27,065,42,18,22,269,41,1*66
$GPGSV,3,3,11,13,13,128,39,15,12,163,45,26,08,323,36,1*5C
$GPGSV,1,1,04,25,42,222,45,11,27,065,41,18,22,269,34,26,08,323,26,8*61
$GLGSV,3,1,09,87,57,005,40,72,46,122,39,71,38,053,37,86,29,073,40,1*79
$GLGSV,3,2,09,78,27,303,38,77,24,237,33,88,24,299,41,70,02,019,,1*7D
$GLGSV,3,3,09,76,01,200,,1*43
$GAGSV,3,1,09,15,69,330,29,27,49,256,44,34,38,059,39,30,28,190,45,7*7B
$GAGSV,3,2,09,13,26,270,38,05,22,072,35,21,22,315,36,03,21,126,43,7*76
$GAGSV,3,3,09,09,02,026,16,7*42
$GAGSV,2,1,08,15,69,330,36,27,49,256,42,34,38,059,41,30,28,190,44,1*7B
$GAGSV,2,2,08,13,26,270,34,05,22,072,35,21,22,315,38,03,21,126,40,1*71
$GBGSV,3,1,12,11,69,348,27,34,67,065,40,43,51,309,35,21,50,085,43,1*70
$GBGSV,3,2,12,42,40,163,45,12,39,089,39,14,20,183,49,23,19,271,45,1*7D
$GBGSV,3,3,12,44,18,101,35,22,15,038,47,25,11,223,47,37,06,320,22,1*72
$GBGSV,3,1,09,34,67,065,20,43,51,309,29,21,50,085,36,42,40,163,46,5*76
$GBGSV,3,2,09,23,19,271,27,44,18,101,38,22,15,038,38,25,11,223,37,5*74
$GBGSV,3,3,09,37,06,320,39,5*42
$GNGGA,232812.000,4005.098200,N,10513.207872,W,2,58,0.42,1587.367,M,-20.670,M,,*7B
$GPGSV,3,1,11,05,78,117,45,29,60,318,37,20,49,051,42,25,42,222,46,1*65
$GPGSV,3,2,11,46,37,214,45,12,27,188,50,11,27,065,42,18,22,269,41,1*66
$GPGSV,3,3,11,13,13,128,39,15,12,163,45,26,08,323,36,1*5C
$GPGSV,1,1,04,25,42,222,45,11,27,065,41,18,22,269,34,26,08,323,26,8*61
$GLGSV,3,1,10,87,57,005,40,72,46,122,39,71,38,053,38,86,29,073,40,1*7E
$GLGSV,3,2,10,78,27,303,40,77,24,237,34,88,24,299,40,79,02,346,,1*7C
$GLGSV,3,3,10,70,02,019,,76,01,200,,1*76
$GAGSV,3,1,09,15,69,330,30,27,49,256,44,34,38,059,39,30,28,190,45,7*73
$GAGSV,3,2,09,13,26,270,38,05,22,072,35,21,22,315,36,03,21,126,43,7*76
$GAGSV,3,3,09,09,02,026,18,7*4C
$GAGSV,2,1,08,15,69,330,36,27,49,256,42,34,38,059,42,30,28,190,44,1*78
$GAGSV,2,2,08,13,26,270,34,05,22,072,36,21,22,315,39,03,21,126,40,1*73
$GBGSV,3,1,12,11,69,348,27,34,67,065,40,43,51,309,35,21,50,085,43,1*70
$GBGSV,3,2,12,42,40,163,45,12,39,089,39,14,20,183,49,23,19,271,45,1*7D
$GBGSV,3,3,12,44,18,101,34,22,15,038,47,25,11,223,47,37,06,320,25,1*74
$GBGSV,3,1,09,34,67,065,21,43,51,309,28,21,50,085,36,42,40,163,46,5*76
$GBGSV,3,2,09,23,19,271,27,44,18,101,38,22,15,038,38,25,11,223,37,5*74
$GBGSV,3,3,09,37,06,320,39,5*42
$GNGGA,232817.000,4005.098170,N,10513.207926,W,2,58,0.42,1587.457,M,-20.670,M,,*7E
$GPGSV,3,1,11,05,78,117,45,29,60,318,37,20,49,051,42,25,42,222,47,1*64
$GPGSV,3,2,11,46,37,214,45,12,27,188,50,11,27,065,42,18,22,269,41,1*66
$GPGSV,3,3,11,13,13,128,39,15,12,163,45,26,08,323,35,1*5F
$GPGSV,1,1,04,25,42,222,45,11,27,065,41,18,22,269,34,26,08,323,26,8*61
$GLGSV,3,1,11,87,57,005,41,65,48,127,,72,46,122,38,71,38,053,38,1*71
$GLGSV,3,2,11,86,29,073,40,78,27,303,40,77,24,237,34,88,24,299,40,1*75
$GLGSV,3,3,11,79,02,346,,70,02,019,,76,01,200,,1*4A
$GAGSV,3,1,09,15,69,330,30,27,49,256,44,34,38,059,40,30,28,190,45,7*7D
$GAGSV,3,2,09,13,26,270,38,21,22,315,36,05,22,072,35,03,21,126,43,7*76
$GAGSV,3,3,09,09,02,026,17,7*43
$GAGSV,2,1,08,15,69,330,36,27,49,256,42,34,38,059,42,30,28,190,44,1*78
$GAGSV,2,2,08,13,26,270,34,05,22,072,36,21,22,315,39,03,21,126,40,1*73
$GBGSV,3,1,12,11,69,348,28,34,67,065,40,43,51,309,35,21,50,085,42,1*7E
$GBGSV,3,2,12,42,40,163,45,12,39,089,39,14,20,183,49,23,19,271,45,1*7D
$GBGSV,3,3,12,44,18,101,36,22,15,038,47,25,11,223,46,37,06,320,30,1*73
$GBGSV,3,1,09,34,67,065,22,43,51,309,28,21,50,085,36,42,40,163,46,5*75
$GBGSV,3,2,09,23,19,271,28,44,18,101,38,22,15,038,38,25,11,223,37,5*7B
$GBGSV,3,3,09,37,06,320,39,5*42
$GNGGA,232822.000,4005.098164,N,10513.207956,W,2,58,0.42,1587.552,M,-20.670,M,,*7E
$GPGSV,3,1,11,05,78,117,45,29,60,318,38,20,49,051,42,25,42,222,47,1*6B
$GPGSV,3,2,11,46,37,214,45,12,27,188,50,11,27,065,42,18,22,269,41,1*66
$GPGSV,3,3,11,13,13,128,39,15,12,163,45,26,08,323,35,1*5F
$GPGSV,1,1,04,25,42,222,45,11,27,065,41,18,22,269,33,26,08,323,25,8*65
$GLGSV,3,1,11,87,57,005,40,65,48,127,,72,46,122,38,71,38,053,38,1*70
$GLGSV,3,2,11,86,29,073,40,78,27,303,39,77,24,237,34,88,24,299,40,1*7B
$GLGSV,3,3,11,79,02,346,,70,02,019,,76,01,200,,1*4A
$GAGSV,3,1,09,15,69,330,29,27,49,256,44,34,38,059,40,30,28,190,45,7*75
$GAGSV,3,2,09,13,26,270,38,21,22,315,36,05,22,072,35,03,21,126,43,7*76
$GAGSV,3,3,09,09,02,026,17,7*43
$GAGSV,2,1,08,15,69,330,36,27,49,256,42,34,38,059,42,30,28,190,44,1*78
$GAGSV,2,2,08,13,26,270,34,05,22,072,36,21,22,315,39,03,21,126,40,1*73
$GBGSV,3,1,12,11,69,348,29,34,67,065,39,43,51,309,35,21,50,085,42,1*71
$GBGSV,3,2,12,42,40,163,45,12,39,089,38,14,20,183,49,23,19,271,45,1*7C
$GBGSV,3,3,12,44,18,101,36,22,15,038,47,25,11,223,46,37,06,320,33,1*70
$GBGSV,3,1,09,34,67,065,23,43,51,309,27,21,50,085,36,42,40,163,46,5*7B
$GBGSV,3,2,09,23,19,271,29,44,18,101,38,22,15,038,38,25,11,223,37,5*7A
$GBGSV,3,3,09,37,06,320,39,5*42
$GNGGA,232827.000,4005.098164,N,10513.207950,W,2,58,0.42,1587.430,M,-20.670,M,,*78
$GPGSV,3,1,11,05,78,117,45,29,60,318,38,20,49,051,42,25,42,222,47,1*6B
$GPGSV,3,2,11,46,37,214,45,12,27,188,50,11,27,065,42,18,22,269,41,1*66
$GPGSV,3,3,11,13,13,128,39,15,12,163,45,26,08,323,35,1*5F
$GPGSV,1,1,04,25,42,222,45,11,27,065,41,18,22,269,33,26,08,323,25,8*65
$GLGSV,3,1,10,87,57,005,40,65,48,127,,72,46,122,38,71,38,053,37,1*7E
$GLGSV,3,2,10,86,29,073,40,78,27,303,38,77,24,237,34,88,24,299,40,1*7B
$GLGSV,3,3,10,70,02,019,,76,01,200,,1*76
$GAGSV,3,1,09,15,69,330,29,27,49,256,44,34,38,059,40,30,28,190,45,7*75
$GAGSV,3,2,09,13,26,270,38,05,22,072,35,21,22,315,36,03,21,126,43,7*76
$GAGSV,3,3,09,09,02,026,16,7*42
$GAGSV,2,1,08,15,69,330,36,27,49,256,42,34,38,059,42,30,28,190,44,1*78
$GAGSV,2,2,08,13,26,270,34,05,22,072,36,21,22,315,39,03,21,126,40,1*73
$GBGSV,3,1,12,11,69,348,29,34,67,065,39,43,51,309,33,21,50,085,43,1*76
$GBGSV,3,2,12,42,40,163,45,12,39,089,38,14,20,183,49,23,19,271,45,1*7C
$GBGSV,3,3,12,44,18,101,37,22,15,038,47,25,11,223,46,37,06,320,29,1*7A
$GBGSV,3,1,09,34,67,065,24,43,51,309,27,21,50,085,36,42,40,163,46,5*7C
$GBGSV,3,2,09,23,19,271,29,44,18,101,38,22,15,038,38,25,11,223,36,5*7B
$GBGSV,3,3,09,37,06,320,39,5*42
$PAIR010,0,1,2308,343728*3A
$GNGGA,232832.000,4005.098182,N,10513.207908,W,2,58,0.42,1587.296,M,-20.670,M,,*73
$GPGSV,3,1,11,05,79,110,45,29,60,318,38,20,49,051,42,25,42,222,47,1*6D
$GPGSV,3,2,11,46,37,214,45,12,27,188,50,11,27,065,42,18,22,269,41,1*66
$GPGSV,3,3,11,13,13,128,39,15,12,163,45,26,08,323,35,1*5F
$GPGSV,1,1,04,25,42,222,45,11,27,065,41,18,22,269,32,26,08,323,25,8*64
$GLGSV,3,1,10,87,57,005,40,72,46,122,38,71,38,053,37,86,29,073,40,1*70
$GLGSV,3,2,10,78,27,303,36,77,24,237,34,88,24,299,40,79,02,346,,1*7D
$GLGSV,3,3,10,70,02,019,,76,01,200,,1*76
$GAGSV,3,1,09,15,69,330,29,27,49,256,44,34,38,059,40,30,28,190,45,7*75
$GAGSV,3,2,09,13,26,270,38,05,22,072,35,21,22,315,36,03,21,126,43,7*76
$GAGSV,3,3,09,09,02,026,15,7*41
$GAGSV,2,1,08,15,69,330,36,27,49,256,42,34,38,059,42,30,28,190,44,1*78
$GAGSV,2,2,08,13,26,270,34,05,22,072,36,21,22,315,39,03,21,126,41,1*72
$GBGSV,3,1,12,11,69,348,29,34,67,065,39,43,51,309,33,21,50,085,43,1*76
$GBGSV,3,2,12,42,40,163,45,12,39,089,37,14,20,183,49,23,19,271,45,1*73
$GBGSV,3,3,12,44,18,101,38,22,15,038,47,25,11,223,46,37,06,320,27,1*7B
$GBGSV,3,1,09,34,67,065,25,43,51,309,27,21,50,085,36,42,40,163,46,5*7D
$GBGSV,3,2,09,23,19,271,29,44,18,101,38,22,15,038,38,25,11,223,36,5*7B
$GBGSV,3,3,09,37,06,320,39,5*42
$GNGGA,232837.000,4005.098194,N,10513.207914,W,2,57,0.42,1587.250,M,-20.669,M,,*71
$GPGSV,3,1,11,05,79,110,45,29,60,318,38,20,49,051,42,25,42,222,47,1*6D
$GPGSV,3,2,11,46,37,214,45,11,27,066,42,12,26,187,50,18,22,269,41,1*6B
$GPGSV,3,3,11,13,13,128,39,15,12,163,45,26,08,323,35,1*5F
$GPGSV,1,1,04,25,42,222,45,11,27,066,41,18,22,269,32,26,08,323,24,8*66
$GLGSV,3,1,10,87,57,005,41,65,48,127,,72,46,122,38,71,38,053,36,1*7E
$GLGSV,3,2,10,86,29,073,40,78,27,303,36,77,24,237,34,88,24,299,40,1*75
$GLGSV,3,3,10,70,02,019,,76,01,200,,1*76
$GAGSV,3,1,09,15,69,330,29,27,49,256,44,34,38,059,40,30,28,190,45,7*75
$GAGSV,3,2,09,13,26,270,38,05,22,072,35,21,22,315,36,03,21,126,43,7*76
$GAGSV,3,3,09,09,02,026,14,7*40
$GAGSV,2,1,08,15,69,330,36,27,49,256,42,34,38,059,42,30,28,190,44,1*78
$GAGSV,2,2,08,13,26,270,33,05,22,072,36,21,22,315,39,03,21,126,41,1*75
$GBGSV,3,1,12,11,69,348,26,34,67,065,39,43,51,309,32,21,50,085,43,1*78
$GBGSV,3,2,12,42,40,163,45,12,39,089,37,14,20,183,49,23,19,271,45,1*73
$GBGSV,3,3,12,44,18,101,39,22,15,038,47,25,11,223,45,37,06,320,26,1*78
$GBGSV,3,1,09,34,67,065,26,43,51,309,28,21,50,085,36,42,40,163,46,5*71
$GBGSV,3,2,09,23,19,271,29,44,18,101,38,22,15,038,38,25,11,223,36,5*7B
$GBGSV,3,3,09,37,06,320,40,5*4C
$GNGGA,232842.000,4005.098164,N,10513.207920,W,2,58,0.42,1587.191,M,-20.669,M,,*7A
$GPGSV,3,1,11,05,79,110,45,29,60,318,38,20,49,051,42,25,42,222,47,1*6D
$GPGSV,3,2,11,46,37,214,45,11,27,066,42,12,26,187,50,18,23,270,41,1*62
$GPGSV,3,3,11,13,13,128,39,15,13,162,45,26,08,323,36,1*5C
$GPGSV,1,1,04,25,42,222,45,11,27,066,40,18,23,270,32,26,08,323,25,8*6F
$GLGSV,3,1,11,87,57,005,41,65,48,127,,72,46,122,37,71,38,053,38,1*7E
$GLGSV,3,2,11,86,29,073,40,78,27,303,37,77,24,237,35,88,24,299,40,1*74
$GLGSV,3,3,11,79,02,346,,70,02,019,,76,01,200,,1*4A
$GAGSV,3,1,09,15,69,330,30,27,49,256,44,34,38,059,40,30,28,190,45,7*7D
$GAGSV,3,2,09,13,26,270,38,21,22,315,36,05,22,072,35,03,21,126,43,7*76
$GAGSV,3,3,09,09,02,026,11,7*45
$GAGSV,2,1,08,15,69,330,36,27,49,256,42,34,38,059,42,30,28,190,44,1*78
$GAGSV,2,2,08,13,26,270,33,05,22,072,36,21,22,315,39,03,21,126,41,1*75
$GBGSV,3,1,12,11,69,348,25,34,67,065,38,43,51,309,29,21,50,085,43,1*70
$GBGSV,3,2,12,42,40,163,45,12,39,089,37,14,20,183,49,23,19,271,45,1*73
$GBGSV,3,3,12,44,18,101,39,22,15,038,47,25,11,223,45,37,06,320,30,1*7F
$GBGSV,3,1,09,34,67,065,26,43,51,309,27,21,50,085,37,42,40,163,46,5*7F
$GBGSV,3,2,09,23,19,271,30,44,18,101,37,22,15,038,38,25,11,223,36,5*7C
$GBGSV,3,3,09,37,06,320,40,5*4C
$GNGGA,232847.000,4005.098128,N,10513.207944,W,2,57,0.42,1587.064,M,-20.669,M,,*71
$GPGSV,3,1,11,05,79,110,45,29,60,318,38,20,48,051,42,25,42,222,47,1*6C
$GPGSV,3,2,11,46,37,214,45,11,27,066,42,12,26,187,50,18,23,270,41,1*62
$GPGSV,3,3,11,13,13,128,39,15,13,162,45,26,08,323,35,1*5F
$GPGSV,1,1,04,25,42,222,45,11,27,066,40,18,23,270,31,26,08,323,25,8*6C
$GLGSV,3,1,10,87,57,005,41,72,46,122,37,71,38,053,38,86,29,073,40,1*71
$GLGSV,3,2,10,78,27,303,38,77,24,237,35,88,24,299,39,79,02,346,,1*7C
$GLGSV,3,3,10,70,02,019,,76,01,200,,1*76
$GAGSV,3,1,09,15,69,330,31,27,49,256,44,34,38,059,40,30,28,190,45,7*7C
$GAGSV,3,2,09,13,26,270,38,05,22,072,36,21,22,315,36,03,21,126,43,7*75
$GAGSV,3,3,09,09,02,026,09,7*4C
$GAGSV,2,1,08,15,69,330,36,27,49,256,42,34,38,059,42,30,28,190,44,1*78
$GAGSV,2,2,08,13,26,270,33,05,22,072,36,21,22,315,38,03,21,126,41,1*74
$GBGSV,3,1,12,11,69,348,28,34,67,065,38,43,51,309,28,21,50,085,43,1*7C
$GBGSV,3,2,12,42,40,163,45,12,39,089,37,14,20,183,49,23,19,271,45,1*73
$GBGSV,3,3,12,44,18,101,39,22,15,038,47,25,11,223,45,37,06,320,30,1*7F
$GBGSV,3,1,09,34,67,065,27,43,51,309,26,21,50,085,37,42,40,163,46,5*7F
$GBGSV,3,2,09,23,19,271,30,44,18,101,37,22,15,038,38,25,11,223,36,5*7C
$GBGSV,3,3,09,37,06,320,40,5*4C
$GNGGA,232852.000,4005.098110,N,10513.207998,W,2,58,0.42,1586.791,M,-20.670,M,,*74
$GPGSV,3,1,11,05,79,110,45,29,60,318,38,20,48,051,42,25,41,221,47,1*6C
$GPGSV,3,2,11,46,37,214,45,11,27,066,42,12,26,187,50,18,23,270,41,1*62
$GPGSV,3,3,11,13,13,128,39,15,13,162,46,26,08,322,35,1*5D
$GPGSV,1,1,04,25,41,221,45,11,27,066,40,18,23,270,31,26,08,322,25,8*6D
$GLGSV,3,1,10,87,57,005,41,65,48,127,,72,46,122,38,71,38,053,37,1*7F
$GLGSV,3,2,10,86,29,073,40,78,27,303,38,77,24,237,35,88,24,299,38,1*75
$GLGSV,3,3,10,70,02,019,,76,01,200,,1*76
$GAGSV,3,1,09,15,69,330,31,27,49,256,44,34,38,059,41,30,28,190,45,7*7D
$GAGSV,3,2,09,13,26,270,38,05,22,072,36,21,22,315,36,03,21,126,43,7*75
$GAGSV,3,3,09,09,02,026,05,7*40
$GAGSV,2,1,08,15,69,330,36,27,49,256,42,34,38,059,42,30,28,190,44,1*78
$GAGSV,2,2,08,13,26,270,33,05,22,072,36,21,22,315,38,03,21,126,41,1*74
$GBGSV,3,1,12,11,69,348,29,34,67,065,38,43,51,309,27,21,50,085,43,1*72
$GBGSV,3,2,12,42,40,163,46,12,39,089,37,14,20,183,49,23,19,271,45,1*70
$GBGSV,3,3,12,44,18,101,39,22,15,038,47,25,11,223,45,37,06,320,29,1*77
$GBGSV,3,1,09,34,67,065,27,43,51,309,25,21,50,085,37,42,40,163,46,5*7C
$GBGSV,3,2,09,23,19,271,30,44,18,101,37,22,15,038,38,25,11,223,36,5*7C
$GBGSV,3,3,09,37,06,320,40,5*4C
$GNGGA,232857.000,4005.098074,N,10513.207968,W,2,57,0.42,1586.617,M,-20.669,M,,*75
$GPGSV,3,1,11,05,79,110,45,29,61,318,37,20,48,051,42,25,41,221,47,1*62
$GPGSV,3,2,11,46,37,214,45,11,27,066,42,12,26,187,50,18,23,270,41,1*62
$GPGSV,3,3,11,13,13,128,39,15,13,162,46,26,08,322,36,1*5E
$GPGSV,1,1,04,25,41,221,45,11,27,066,40,18,23,270,30,26,08,322,26,8*6F
$GLGSV,3,1,09,87,57,005,41,72,46,122,39,71,38,053,37,86,29,073,38,1*77
$GLGSV,3,2,09,78,27,303,38,77,24,237,35,88,24,299,38,70,02,019,,1*75
$GLGSV,3,3,09,76,01,200,,1*43
$GAGSV,3,1,09,15,69,330,31,27,49,256,44,34,38,059,41,30,28,190,45,7*7D
$GAGSV,3,2,09,13,26,270,38,05,22,072,36,21,22,315,36,03,21,126,43,7*75
$GAGSV,3,3,09,09,02,026,06,7*43
$GAGSV,2,1,08,15,69,330,37,27,49,256,42,34,38,059,42,30,28,190,43,1*7E
$GAGSV,2,2,08,13,26,270,32,05,22,072,37,21,22,315,38,03,21,126,41,1*74
$GBGSV,3,1,12,11,69,348,27,34,67,065,38,43,51,309,30,21,50,085,43,1*7A
$GBGSV,3,2,12,42,40,163,46,12,39,089,37,14,20,183,49,23,19,271,45,1*70
$GBGSV,3,3,12,44,18,101,39,22,15,038,47,25,11,223,45,37,06,320,30,1*7F
$GBGSV,3,1,09,34,67,065,26,43,51,309,25,21,50,085,37,42,40,163,46,5*7D
$GBGSV,3,2,09,23,19,271,31,44,18,101,36,22,15,038,37,25,11,223,35,5*70
$GBGSV,3,3,09,37,06,320,41,5*4D
$GNGGA,232902.000,4005.098014,N,10513.207980,W,2,57,0.42,1586.620,M,-20.670,M,,*78
$GPGSV,3,1,11,05,79,110,45,29,61,318,37,20,48,051,42,25,41,221,47,1*62
$GPGSV,3,2,11,46,37,214,45,11,27,066,42,12,26,187,50,18,23,270,41,1*62
$GPGSV,3,3,11,13,13,128,40,15,13,162,46,26,08,322,35,1*53
$GPGSV,1,1,04,25,41,221,45,11,27,066,40,18,23,270,29,26,08,322,26,8*67
$GLGSV,3,1,11,87,57,005,41,65,48,127,,72,46,122,39,71,38,053,38,1*70
$GLGSV,3,2,11,86,29,073,38,78,27,303,37,77,24,237,35,88,24,299,38,1*74
$GLGSV,3,3,11,79,02,346,,70,02,019,,76,01,200,,1*4A
$GAGSV,3,1,09,15,69,330,32,27,49,256,44,34,38,059,41,30,28,190,46,7*7D
$GAGSV,3,2,09,13,26,270,38,21,22,315,36,05,22,072,37,03,21,126,43,7*74
$GAGSV,3,3,09,09,02,026,06,7*43
$GAGSV,2,1,08,15,69,330,37,27,49,256,42,34,38,059,42,30,28,190,43,1*7E
$GAGSV,2,2,08,13,26,270,33,05,22,072,37,21,22,315,38,03,21,126,41,1*75
$GBGSV,3,1,12,11,69,348,25,34,67,065,38,43,51,309,30,21,50,085,43,1*78
$GBGSV,3,2,12,42,40,163,46,12,39,089,37,14,20,183,49,23,19,271,45,1*70
$GBGSV,3,3,12,44,18,101,39,22,15,038,47,25,11,223,45,37,06,320,31,1*7E
$GBGSV,3,1,09,34,67,065,25,43,51,309,24,21,50,085,37,42,40,163,45,5*7C
$GBGSV,3,2,09,23,19,271,31,44,18,101,36,22,15,038,37,25,11,223,34,5*71
$GBGSV,3,3,09,37,06,320,41,5*4D
$GNGGA,232907.000,4005.097960,N,10513.208016,W,2,58,0.42,1586.705,M,-20.670,M,,*78
$GPGSV,3,1,11,05,79,110,45,29,61,318,37,20,48,051,42,25,41,221,47,1*62
$GPGSV,3,2,11,46,37,214,45,11,27,066,42,12,26,187,50,18,23,270,41,1*62
$GPGSV,3,3,11,13,13,128,40,15,13,162,47,26,08,322,35,1*52
$GPGSV,1,1,04,25,41,221,45,11,27,066,40,18,23,270,29,26,08,322,27,8*66
$GLGSV,3,1,10,87,57,005,41,72,46,122,39,71,38,053,39,86,29,073,39,1*70
$GLGSV,3,2,10,78,27,303,38,77,24,237,36,88,24,299,38,79,02,346,,1*7E
$GLGSV,3,3,10,70,02,019,,76,01,200,,1*76
$GAGSV,3,1,09,15,69,330,32,27,49,256,44,34,38,059,41,30,28,190,46,7*7D
$GAGSV,3,2,09,13,26,270,38,05,22,072,37,03,22,126,42,21,22,315,36,7*76
$GAGSV,3,3,09,09,02,026,05,7*40
$GAGSV,2,1,08,15,69,330,37,27,49,256,42,34,38,059,42,30,28,190,43,1*7E
$GAGSV,2,2,08,13,26,270,33,05,22,072,37,21,22,315,38,03,22,126,41,1*76
$GBGSV,3,1,12,11,69,348,25,34,67,065,38,43,51,309,31,21,50,085,43,1*79
$GBGSV,3,2,12,42,40,163,46,12,39,089,37,14,20,183,49,23,19,271,45,1*70
$GBGSV,3,3,12,44,18,101,40,22,15,038,47,25,11,223,45,37,06,320,32,1*73
$GBGSV,3,1,09,34,67,065,25,43,51,309,24,21,50,085,37,42,40,163,45,5*7C
$GBGSV,3,2,09,23,19,271,31,44,18,101,36,22,15,038,37,25,11,223,35,5*70
$GBGSV,3,3,09,37,06,320,41,5*4D
$GNGGA,232912.000,4005.097966,N,10513.208058,W,2,57,0.42,1586.827,M,-20.670,M,,*70
$GPGSV,3,1,11,05,79,110,45,29,61,318,37,20,48,051,41,25,41,221,47,1*61
$GPGSV,3,2,11,46,37,214,45,11,27,066,42,12,26,187,50,18,23,270,41,1*62
$GPGSV,3,3,11,13,13,128,40,15,13,162,47,26,08,322,35,1*52
$GPGSV,1,1,04,25,41,221,45,11,27,066,40,18,23,270,29,26,08,322,27,8*66
$GLGSV,3,1,10,87,57,005,40,72,46,122,38,71,38,053,37,86,29,073,39,1*7E
$GLGSV,3,2,10,78,27,303,37,77,24,237,36,88,24,299,38,79,02,346,,1*71
$GLGSV,3,3,10,70,02,019,,76,01,200,,1*76
$GAGSV,3,1,09,15,69,330,33,27,49,256,44,34,38,059,41,30,28,190,46,7*7C
$GAGSV,3,2,09,13,26,270,38,03,22,126,42,05,22,071,37,21,22,315,36,7*75
$GAGSV,3,3,09,09,01,025,07,7*42
$GAGSV,2,1,08,15,69,330,37,27,49,256,42,34,38,059,42,30,28,190,43,1*7E
$GAGSV,2,2,08,13,26,270,33,05,22,071,37,21,22,315,38,03,22,126,41,1*75
$GBGSV,3,1,12,11,69,348,27,34,67,065,38,43,51,309,31,21,50,085,43,1*7B
$GBGSV,3,2,12,42,40,163,46,12,39,089,37,14,20,183,49,23,19,271,45,1*70
$GBGSV,3,3,12,44,18,101,40,22,15,038,47,25,11,223,44,37,06,320,32,1*72
$GBGSV,3,1,09,34,67,065,24,43,51,309,23,21,50,085,37,42,40,163,45,5*7A
$GBGSV,3,2,09,23,19,271,32,44,18,101,36,22,15,038,37,25,11,223,35,5*73
$GBGSV,3,3,09,37,06,320,41,5*4D
$GNGGA,232917.000,4005.098020,N,10513.208064,W,2,58,0.42,1586.804,M,-20.670,M,,*70
$GPGSV,3,1,11,05,79,110,45,29,61,318,37,20,48,051,41,25,41,221,47,1*61
$GPGSV,3,2,11,46,37,214,45,11,27,066,42,12,26,187,50,18,23,270,40,1*63
$GPGSV,3,3,11,13,13,128,40,15,13,162,47,26,08,322,33,1*54
$GPGSV,1,1,04,25,41,221,45,11,27,066,40,18,23,270,28,26,08,322,27,8*67
$GLGSV,3,1,11,87,57,005,40,65,48,127,,72,46,122,38,71,38,053,36,1*7E
$GLGSV,3,2,11,86,29,073,39,78,27,303,35,77,24,237,36,88,24,299,38,1*74
$GLGSV,3,3,11,79,02,346,,70,02,019,,76,01,200,,1*4A
$GAGSV,3,1,09,15,69,330,33,27,49,256,44,34,38,059,41,30,28,190,46,7*7C
$GAGSV,3,2,09,13,27,271,39,21,22,315,35,05,22,071,37,03,22,126,42,7*77
$GAGSV,3,3,09,09,01,025,07,7*42
$GAGSV,2,1,08,15,69,330,37,27,49,256,42,34,38,059,42,30,28,190,43,1*7E
$GAGSV,2,2,08,13,27,271,33,05,22,071,37,21,22,315,37,03,22,126,41,1*7A
$GBGSV,3,1,12,11,69,348,24,34,67,065,38,43,51,309,31,21,50,085,43,1*78
$GBGSV,3,2,12,42,40,163,46,12,39,089,37,14,20,183,49,23,19,271,45,1*70
$GBGSV,3,3,12,44,18,101,40,22,15,038,47,25,11,223,44,37,06,320,31,1*71
$GBGSV,3,1,09,34,67,065,23,43,51,309,22,21,50,085,37,42,40,163,45,5*7C
$GBGSV,3,2,09,23,19,271,31,44,18,101,36,22,15,038,37,25,11,223,35,5*70
$GBGSV,3,3,09,37,06,320,41,5*4D
$GNGGA,232922.000,4005.098026,N,10513.208082,W,2,58,0.42,1586.818,M,-20.670,M,,*75
$GPGSV,3,1,11,05,79,110,44,29,61,318,38,20,48,051,41,25,41,221,47,1*6F
$GPGSV,3,2,11,46,37,214,45,11,27,066,42,12,26,187,50,18,23,270,39,1*6D
$GPGSV,3,3,11,13,13,128,40,15,13,162,47,26,08,322,33,1*54
$GPGSV,1,1,04,25,41,221,44,11,27,066,40,18,23,270,27,26,08,322,27,8*69
$GLGSV,3,1,11,87,57,005,40,65,48,127,,72,46,122,39,71,38,053,36,1*7F
$GLGSV,3,2,11,86,29,073,38,78,27,303,36,77,24,237,36,88,24,299,38,1*76
$GLGSV,3,3,11,79,02,346,22,70,02,019,,76,01,200,,1*4A
$GAGSV,3,1,10,15,69,333,33,27,49,256,44,34,38,059,41,30,28,190,46,7*77
$GAGSV,3,2,10,13,27,271,39,21,22,315,35,03,22,126,42,05,22,071,37,7*7F
$GAGSV,3,3,10,08,01,169,51,09,01,025,,7*7E
$GAGSV,3,1,09,15,69,333,37,27,49,256,42,34,38,059,42,30,28,190,42,1*7C
$GAGSV,3,2,09,13,27,271,33,21,22,315,36,05,22,071,37,03,22,126,41,1*7B
$GAGSV,3,3,09,08,01,169,46,1*49
$GBGSV,3,1,12,11,69,348,26,34,67,065,39,43,51,309,32,21,50,085,43,1*78
$GBGSV,3,2,12,42,40,163,47,12,39,089,37,14,20,183,49,23,19,271,45,1*71
$GBGSV,3,3,12,44,18,101,40,22,15,038,47,25,11,223,44,37,06,320,32,1*72
$GBGSV,3,1,09,34,67,065,22,43,51,309,21,21,50,085,37,42,40,163,45,5*7E
$GBGSV,3,2,09,23,19,271,31,44,18,101,36,22,15,038,36,25,11,223,35,5*71
$GBGSV,3,3,09,37,06,320,41,5*4D
$GNGGA,232927.000,4005.097996,N,10513.208094,W,2,58,0.42,1586.882,M,-20.670,M,,*79
$GPGSV,3,1,11,05,79,110,44,29,61,318,38,20,48,051,41,25,41,221,47,1*6F
$GPGSV,3,2,11,46,37,214,45,11,27,066,42,12,26,187,50,18,23,270,40,1*63
$GPGSV,3,3,11,13,13,128,40,15,13,162,48,26,08,322,34,1*5C
$GPGSV,1,1,04,25,41,221,44,11,27,066,40,18,23,270,28,26,08,322,27,8*66
$GLGSV,3,1,10,87,57,005,40,65,48,127,,72,46,122,38,71,38,053,37,1*7E
$GLGSV,3,2,10,86,29,073,38,78,27,303,37,77,24,237,36,88,24,299,37,1*79
$GLGSV,3,3,10,79,02,346,21,76,01,200,,1*75
$GAGSV,3,1,10,15,69,333,33,27,49,256,44,34,38,059,41,30,28,190,46,7*77
$GAGSV,3,2,10,13,27,271,39,21,23,314,35,05,22,071,37,03,22,126,42,7*7F
$GAGSV,3,3,10,08,01,169,51,09,01,025,,7*7E
$GAGSV,3,1,09,15,69,333,37,27,49,256,42,34,38,059,42,30,28,190,42,1*7C
$GAGSV,3,2,09,13,27,271,33,21,23,314,36,05,22,071,37,03,22,126,41,1*7B
$GAGSV,3,3,09,08,01,169,48,1*47
$GBGSV,3,1,12,11,69,348,30,34,67,065,39,43,51,309,31,21,50,085,43,1*7C
$GBGSV,3,2,12,42,40,163,47,12,39,089,37,14,20,183,49,23,19,271,45,1*71
$GBGSV,3,3,12,44,18,101,41,22,15,038,47,25,11,223,44,37,06,320,33,1*72
$GBGSV,3,1,09,34,67,065,23,43,51,309,21,21,50,085,37,42,40,163,45,5*7F
$GBGSV,3,2,09,23,19,271,32,44,18,101,36,22,15,038,36,25,11,223,35,5*72
$GBGSV,3,3,09,37,06,320,41,5*4D
$PAIR010,0,1,2308,343788*30
$GNGGA,232932.000,4005.097972,N,10513.208088,W,2,58,0.42,1586.761,M,-20.670,M,,*78
$GPGSV,3,1,11,05,79,110,44,29,61,318,38,20,48,051,41,25,41,221,47,1*6F
$GPGSV,3,2,11,46,37,214,45,11,27,066,42,12,26,187,50,18,23,270,40,1*63
$GPGSV,3,3,11,13,13,128,41,15,13,162,48,26,08,322,34,1*5D
$GPGSV,1,1,04,25,41,221,44,11,27,066,40,18,23,270,27,26,08,322,26,8*68
$GLGSV,3,1,10,87,57,005,39,72,46,122,38,71,38,053,39,86,29,073,38,1*7F
$GLGSV,3,2,10,78,27,303,38,88,24,299,37,77,24,237,36,79,02,346,21,1*72
$GLGSV,3,3,10,70,02,019,,76,01,200,,1*76
$GAGSV,3,1,10,15,69,333,33,27,49,254,44,34,38,059,41,30,28,190,46,7*75
$GAGSV,3,2,10,13,27,271,39,21,23,314,35,03,22,126,42,05,22,071,37,7*7F
$GAGSV,3,3,10,08,01,169,50,09,01,025,,7*7F
$GAGSV,3,1,09,15,69,333,37,27,49,254,42,34,38,059,42,30,28,190,42,1*7E
$GAGSV,3,2,09,13,27,271,33,21,23,314,37,05,22,071,37,03,22,126,41,1*7A
$GAGSV,3,3,09,08,01,169,48,1*47
$GBGSV,3,1,12,11,69,348,31,34,67,065,39,43,51,309,28,21,50,085,43,1*75
$GBGSV,3,2,12,42,40,163,47,12,39,089,37,14,20,183,49,23,19,271,45,1*71
$GBGSV,3,3,12,44,18,101,41,22,15,038,47,25,11,223,45,37,06,320,34,1*74
$GBGSV,3,1,09,34,67,065,23,43,51,309,20,21,50,085,37,42,40,163,45,5*7E
$GBGSV,3,2,09,23,19,271,33,44,18,101,36,22,15,038,37,25,11,223,36,5*71
$GBGSV,3,3,09,37,06,320,40,5*4C
$GNGGA,232937.000,4005.098002,N,10513.208130,W,2,58,0.42,1586.711,M,-20.670,M,,*79
$GPGSV,3,1,11,05,79,110,44,29,61,318,38,20,48,051,41,25,41,221,47,1*6F
$GPGSV,3,2,11,46,37,214,45,11,27,066,42,12,26,187,50,18,23,270,40,1*63
$GPGSV,3,3,11,13,13,128,41,15,13,162,48,26,08,322,34,1*5D
$GPGSV,1,1,04,25,41,221,44,11,27,066,40,18,23,270,27,26,08,322,25,8*6B
$GLGSV,3,1,10,87,57,005,39,72,46,122,38,71,38,053,39,86,29,073,38,1*7F
$GLGSV,3,2,10,78,27,303,38,88,24,299,36,77,24,237,35,79,02,346,22,1*73
$GLGSV,3,3,10,70,02,019,,76,01,200,,1*76
$GAGSV,3,1,10,15,69,333,33,27,49,254,44,34,37,060,41,13,27,271,39,7*7A
$GAGSV,3,2,10,30,27,190,46,21,23,314,35,03,22,126,42,05,22,071,37,7*7A
$GAGSV,3,3,10,08,01,169,50,09,01,025,,7*7F
$GAGSV,3,1,09,15,69,333,37,27,49,254,42,34,37,060,42,13,27,271,33,1*7F
$GAGSV,3,2,09,30,27,190,42,21,23,314,37,05,22,071,37,03,22,126,41,1*71
$GAGSV,3,3,09,08,01,169,48,1*47
$GBGSV,3,1,12,11,69,348,31,34,67,065,39,43,51,309,30,21,50,085,43,1*7C
$GBGSV,3,2,12,42,40,163,47,12,39,089,36,14,20,183,49,23,19,271,45,1*70
$GBGSV,3,3,12,44,18,101,41,22,15,038,47,25,11,223,45,37,06,320,32,1*72
$GBGSV,3,1,09,34,67,065,23,43,51,309,17,21,50,085,37,42,40,163,45,5*7A
$GBGSV,3,2,09,23,19,271,33,44,18,101,36,22,15,038,37,25,11,223,36,5*71
$GBGSV,3,3,09,37,06,320,40,5*4C
$GNGGA,232942.000,4005.097990,N,10513.208178,W,2,58,0.42,1586.614,M,-20.670,M,,*7E
$GPGSV,3,1,11,05,79,110,44,29,61,318,38,20,48,051,41,25,41,221,47,1*6F
$GPGSV,3,2,11,46,37,214,45,11,27,066,42,12,26,187,50,18,23,270,40,1*63
$GPGSV,3,3,11,13,13,128,41,15,13,162,48,26,08,322,34,1*5D
$GPGSV,1,1,04,25,41,221,44,11,27,066,40,18,23,270,26,26,08,322,25,8*6A
$GLGSV,3,1,11,87,57,005,39,65,49,125,,72,46,122,38,71,38,053,40,1*72
$GLGSV,3,2,11,86,29,073,38,78,27,303,38,77,24,237,36,88,24,299,33,1*73
$GLGSV,3,3,11,79,02,346,21,70,02,019,,76,01,200,,1*49
$GAGSV,3,1,10,15,69,333,33,27,49,254,44,34,37,060,41,13,27,271,39,7*7A
$GAGSV,3,2,10,30,27,190,46,21,23,314,35,05,22,071,36,03,22,126,42,7*7B
$GAGSV,3,3,10,09,01,025,,08,01,169,50,7*7F
$GAGSV,3,1,09,15,69,333,37,27,49,254,42,34,37,060,42,13,27,271,32,1*7E
$GAGSV,3,2,09,30,27,190,42,21,23,314,37,05,22,071,37,03,22,126,41,1*71
$GAGSV,3,3,09,08,01,169,48,1*47
$GBGSV,3,1,12,11,69,348,31,34,67,065,39,43,51,309,32,21,50,085,43,1*7E
$GBGSV,3,2,12,42,40,163,47,12,39,089,36,14,20,183,49,23,19,271,45,1*70
$GBGSV,3,3,12,44,18,101,41,22,15,038,47,25,11,223,45,37,06,320,30,1*70
$GBGSV,3,1,09,34,67,065,24,43,51,309,17,21,50,085,37,42,40,163,45,5*7D
$GBGSV,3,2,09,23,19,271,33,44,18,101,35,22,15,038,37,25,11,223,36,5*72
$GBGSV,3,3,09,37,06,320,40,5*4C
$GNGGA,232947.000,4005.098014,N,10513.208166,W,2,57,0.42,1586.483,M,-20.670,M,,*7D
$GPGSV,3,1,11,05,79,110,44,29,61,318,38,20,48,051,41,25,41,221,47,1*6F
$GPGSV,3,2,11,46,37,214,45,11,27,066,42,12,26,187,50,18,23,270,40,1*63
$GPGSV,3,3,11,13,13,128,41,15,13,162,48,26,08,322,33,1*5A
$GPGSV,1,1,04,25,41,221,44,11,27,066,40,18,23,270,26,26,08,322,25,8*6A
$GLGSV,3,1,10,87,57,005,39,72,47,121,40,71,37,051,40,86,29,073,38,1*71
$GLGSV,3,2,10,78,27,303,36,77,24,237,36,88,24,299,32,79,02,346,19,1*72
$GLGSV,3,3,10,70,01,019,,76,01,200,,1*75
$GAGSV,3,1,10,15,69,333,33,27,49,254,44,34,37,060,41,13,27,271,39,7*7A
$GAGSV,3,2,10,30,27,190,46,21,23,314,35,03,22,126,42,05,22,071,36,7*7B
$GAGSV,3,3,10,09,01,025,,08,01,169,50,7*7F
$GAGSV,3,1,09,15,69,333,37,27,49,254,42,34,37,060,42,13,27,271,32,1*7E
$GAGSV,3,2,09,30,27,190,42,21,23,314,37,05,22,071,37,03,22,126,41,1*71
$GAGSV,3,3,09,08,01,169,48,1*47
$GBGSV,3,1,12,11,69,348,30,34,67,065,39,43,51,309,32,21,50,085,43,1*7F
$GBGSV,3,2,12,42,40,163,47,12,39,089,36,14,20,183,49,23,19,271,45,1*70
$GBGSV,3,3,12,44,18,101,42,22,15,038,47,25,11,223,45,37,06,320,28,1*7A
$GBGSV,2,1,08,34,67,065,24,21,50,085,37,42,40,163,45,23,19,271,33,5*7F
$GBGSV,2,2,08,44,18,101,35,22,15,038,37,25,11,223,36,37,06,320,40,5*78
$GNGGA,232952.000,4005.098008,N,10513.208112,W,2,57,0.42,1586.392,M,-20.670,M,,*70
$GPGSV,3,1,11,05,79,110,44,29,61,318,39,20,48,051,40,25,41,221,48,1*60
$GPGSV,3,2,11,46,37,214,45,11,27,066,42,12,26,187,50,18,23,270,40,1*63
$GPGSV,3,3,11,13,13,128,41,15,13,162,48,26,08,322,31,1*58
$GPGSV,1,1,04,25,41,221,44,11,27,066,39,18,23,270,26,26,08,322,27,8*66
$GLGSV,3,1,10,87,57,005,38,65,49,125,,72,47,121,40,71,37,051,40,1*72
$GLGSV,3,2,10,86,29,073,38,78,27,303,36,88,24,299,34,77,23,236,36,1*7D
$GLGSV,3,3,10,79,02,346,15,70,01,019,,1*7E
$GAGSV,3,1,10,15,69,333,33,27,49,254,44,34,37,060,42,13,27,271,39,7*79
$GAGSV,3,2,10,30,27,190,46,21,23,314,35,05,22,071,36,03,22,126,42,7*7B
$GAGSV,3,3,10,08,01,169,50,09,01,025,,7*7F
$GAGSV,3,1,09,15,69,333,37,27,49,254,42,34,37,060,42,13,27,271,32,1*7E
$GAGSV,3,2,09,30,27,190,41,21,23,314,37,05,22,071,37,03,22,126,40,1*73
$GAGSV,3,3,09,08,01,169,48,1*47
$GBGSV,3,1,12,11,69,348,30,34,67,065,39,43,51,309,32,21,50,085,43,1*7F
$GBGSV,3,2,12,42,40,163,47,12,39,089,37,14,20,183,49,23,19,271,45,1*71
$GBGSV,3,3,12,44,18,101,42,22,15,038,47,25,11,223,45,37,06,320,26,1*74
$GBGSV,2,1,08,34,67,065,24,21,50,085,37,42,40,163,45,23,19,271,33,5*7F
$GBGSV,2,2,08,44,18,101,35,22,15,038,37,25,11,223,36,37,06,320,40,5*78
$GNGGA,232957.000,4005.097978,N,10513.208052,W,2,56,0.42,1586.485,M,-20.669,M,,*79
$GPGSV,3,1,11,05,79,110,44,29,61,318,39,20,48,051,39,25,41,221,48,1*6E
$GPGSV,3,2,11,46,37,214,45,11,27,066,43,12,26,187,50,18,23,270,40,1*62
$GPGSV,3,3,11,13,13,128,41,15,13,162,48,26,08,322,27,1*5F
$GPGSV,1,1,04,25,41,221,44,11,27,066,39,18,23,270,26,26,08,322,28,8*69
$GLGSV,3,1,10,87,57,005,37,65,49,125,,72,47,121,38,71,37,051,41,1*73
$GLGSV,3,2,10,86,29,073,39,78,27,301,36,88,24,299,35,77,23,236,36,1*7F
$GLGSV,3,3,10,79,02,345,14,70,01,019,,1*7C
$GAGSV,3,1,10,15,69,333,33,27,49,254,44,34,37,060,42,13,27,271,39,7*79
$GAGSV,3,2,10,30,27,190,46,21,23,314,35,05,22,071,36,03,22,126,42,7*7B
$GAGSV,3,3,10,08,01,169,49,09,01,025,,7*77
$GAGSV,3,1,09,15,69,333,37,27,49,254,42,34,37,060,42,13,27,271,32,1*7E
$GAGSV,3,2,09,30,27,190,41,21,23,314,37,05,22,071,37,03,22,126,40,1*73
$GAGSV,3,3,09,08,01,169,48,1*47
$GBGSV,3,1,12,11,69,348,30,34,67,065,39,43,51,309,31,21,50,085,43,1*7C
$GBGSV,3,2,12,42,40,163,47,12,39,089,37,14,20,183,49,23,19,271,45,1*71
$GBGSV,3,3,12,44,18,101,42,22,15,038,47,25,11,223,46,37,06,320,27,1*76
$GBGSV,2,1,08,34,67,065,24,21,50,085,37,42,40,163,45,23,19,271,34,5*78
$GBGSV,2,2,08,44,18,101,34,22,15,038,37,25,11,223,37,37,06,320,40,5*78
$GNGGA,233002.000,4005.097948,N,10513.208052,W,2,56,0.42,1586.448,M,-20.670,M,,*7B
$GPGSV,3,1,11,05,79,110,44,29,61,318,39,20,48,051,39,25,41,221,48,1*6E
$GPGSV,3,2,11,46,37,214,45,11,27,066,43,12,26,187,50,18,23,270,40,1*62
$GPGSV,3,3,11,13,13,128,42,15,13,162,48,26,08,322,27,1*5C
$GPGSV,1,1,04,25,41,221,44,11,27,066,39,18,23,270,26,26,08,322,29,8*68
$GLGSV,3,1,10,87,57,008,36,65,49,125,,72,47,121,38,71,37,051,40,1*7E
$GLGSV,3,2,10,86,28,074,39,78,27,301,38,88,24,299,35,77,23,236,35,1*74
$GLGSV,3,3,10,79,02,345,12,70,01,019,,1*7A
$GAGSV,3,1,10,15,69,333,34,27,49,254,44,34,37,060,42,13,27,271,39,7*7E
$GAGSV,3,2,10,30,27,190,46,21,23,314,35,05,22,071,36,03,22,126,42,7*7B
$GAGSV,3,3,10,08,01,169,49,09,01,025,,7*77
$GAGSV,3,1,09,15,69,333,37,27,49,254,42,34,37,060,42,13,27,271,32,1*7E
$GAGSV,3,2,09,30,27,190,41,21,23,314,37,05,22,071,37,03,22,126,40,1*73
$GAGSV,3,3,09,08,01,169,46,1*49
$GBGSV,3,1,12,11,69,348,30,34,67,065,39,43,51,309,31,21,50,085,43,1*7C
$GBGSV,3,2,12,42,40,163,47,12,39,089,37,14,20,183,49,23,19,271,45,1*71
$GBGSV,3,3,12,44,18,101,42,22,15,038,47,25,11,223,46,37,06,320,29,1*78
$GBGSV,2,1,08,34,67,065,25,21,50,085,37,42,40,163,44,23,19,271,34,5*78
$GBGSV,2,2,08,44,18,101,34,22,15,038,37,25,11,223,37,37,06,320,40,5*78
$GNGGA,233007.000,4005.097966,N,10513.208112,W,2,56,0.42,1586.342,M,-20.670,M,,*7A
$GPGSV,3,1,11,05,79,110,44,29,61,318,39,20,48,051,39,25,41,221,48,1*6E
$GPGSV,3,2,11,46,37,214,45,11,27,066,43,12,26,187,50,18,23,270,40,1*62
$GPGSV,3,3,11,13,13,128,42,15,13,162,49,26,08,322,28,1*52
$GPGSV,1,1,04,25,41,221,44,11,27,066,39,18,23,270,25,26,08,322,29,8*6B
$GLGSV,3,1,09,87,57,008,37,72,47,121,40,71,37,051,39,86,28,074,39,1*73
$GLGSV,3,2,09,78,27,301,38,88,25,300,34,77,23,236,36,79,02,345,,1*7D
$GLGSV,3,3,09,70,01,019,,1*4F
$GAGSV,3,1,10,15,69,333,34,27,49,254,44,34,37,060,42,13,27,271,39,7*7E
$GAGSV,3,2,10,30,27,190,46,21,23,314,35,03,22,126,42,05,22,071,36,7*7B
$GAGSV,3,3,10,08,01,169,48,09,01,025,,7*76
$GAGSV,3,1,09,15,69,333,37,27,49,254,42,34,37,060,42,13,27,271,32,1*7E
$GAGSV,3,2,09,30,27,190,41,21,23,314,37,05,22,071,37,03,22,126,40,1*73
$GAGSV,3,3,09,08,01,169,46,1*49
$GBGSV,3,1,12,11,69,348,31,34,67,065,38,43,51,309,30,21,50,085,43,1*7D
$GBGSV,3,2,12,42,40,163,47,12,39,089,38,14,20,183,49,23,19,271,45,1*7E
$GBGSV,3,3,12,44,18,101,42,22,15,038,46,25,11,223,46,37,06,320,32,1*73
$GBGSV,2,1,08,34,67,065,25,21,50,085,37,42,40,163,44,23,19,271,34,5*78
$GBGSV,2,2,08,44,18,101,34,22,15,038,37,25,11,223,37,37,06,320,40,5*78
$GNGGA,233012.000,4005.097984,N,10513.208202,W,2,57,0.42,1586.148,M,-20.670,M,,*79
$GPGSV,3,1,11,05,79,110,44,29,61,318,38,20,48,051,39,25,41,221,48,1*6F
$GPGSV,3,2,11,46,37,214,45,11,27,066,43,12,26,187,50,18,23,270,40,1*62
$GPGSV,3,3,11,13,13,128,42,15,13,162,49,26,08,322,30,1*5B
$GPGSV,1,1,04,25,41,221,44,11,27,066,38,18,23,270,25,26,08,322,31,8*63
$GLGSV,3,1,09,87,57,008,38,65,49,125,,72,47,121,41,71,37,051,38,1*79
$GLGSV,3,2,09,86,28,074,39,78,27,301,38,88,25,300,34,77,23,236,35,1*7D
$GLGSV,3,3,09,70,01,019,,1*4F
$GAGSV,3,1,10,15,69,333,34,27,49,254,44,34,37,060,42,30,27,190,46,7*7B
$GAGSV,3,2,10,13,27,271,39,21,23,314,35,03,22,126,42,05,22,071,36,7*7E
$GAGSV,3,3,10,08,01,169,48,09,01,025,,7*76
$GAGSV,3,1,09,15,69,333,37,27,49,254,42,34,37,060,42,13,27,271,32,1*7E
$GAGSV,3,2,09,30,27,190,40,21,23,314,37,05,22,071,37,03,22,126,40,1*72
$GAGSV,3,3,09,08,01,169,46,1*49
$GBGSV,3,1,12,11,69,348,32,34,67,065,38,43,51,309,30,21,50,085,44,1*79
$GBGSV,3,2,12,42,40,163,48,12,39,089,38,14,20,183,49,23,19,271,45,1*71
$GBGSV,3,3,12,44,18,101,43,22,15,038,46,25,11,223,46,37,06,320,31,1*71
$GBGSV,2,1,08,34,67,065,25,21,50,085,37,42,40,163,44,23,19,271,34,5*78
$GBGSV,2,2,08,44,18,101,34,22,15,038,36,25,11,223,37,37,06,320,40,5*79
$GNGGA,233017.000,4005.097990,N,10513.208166,W,2,57,0.42,1586.303,M,-20.670,M,,*75
$GPGSV,3,1,11,05,79,110,44,29,61,318,38,20,48,051,39,25,41,221,48,1*6F
$GPGSV,3,2,11,46,37,214,45,11,27,066,43,12,26,187,50,18,23,270,41,1*63
$GPGSV,3,3,11,13,13,128,43,15,13,162,49,26,08,322,32,1*58
$GPGSV,1,1,04,25,41,221,44,11,27,066,38,18,23,270,26,26,08,322,31,8*60
$GLGSV,3,1,09,87,57,008,38,72,47,121,41,71,37,051,39,86,28,074,39,1*7D
$GLGSV,3,2,09,78,27,301,38,88,25,300,36,77,23,236,35,79,02,345,,1*7C
$GLGSV,3,3,09,70,01,019,,1*4F
$GAGSV,3,1,10,15,69,333,34,27,49,254,44,34,37,060,42,13,27,271,39,7*7E
$GAGSV,3,2,10,30,27,190,46,21,23,314,35,03,22,126,41,05,22,071,36,7*78
$GAGSV,3,3,10,08,01,169,48,09,01,025,,7*76
$GAGSV,3,1,09,15,69,333,37,27,49,254,42,34,37,060,42,13,27,271,33,1*7F
$GAGSV,3,2,09,30,27,190,40,21,23,314,36,05,22,071,37,03,22,126,40,1*73
$GAGSV,3,3,09,08,01,169,46,1*49
$GBGSV,3,1,12,11,70,351,32,34,67,065,39,43,51,309,30,21,50,085,44,1*78
$GBGSV,3,2,12,42,40,163,48,12,38,090,38,14,21,183,49,23,19,271,45,1*79
$GBGSV,3,3,12,44,18,101,43,22,15,038,46,25,11,223,46,37,06,320,32,1*72
$GBGSV,2,1,08,34,67,065,26,21,50,085,37,42,40,163,44,23,19,271,34,5*7B
$GBGSV,2,2,08,44,18,101,34,22,15,038,36,25,11,223,38,37,06,320,40,5*76
$GNGGA,233022.000,4005.097966,N,10513.208040,W,2,57,0.42,1586.332,M,-20.670,M,,*7D
$GPGSV,3,1,11,05,79,110,44,29,61,318,37,20,48,051,40,25,41,221,48,1*6E
$GPGSV,3,2,11,46,37,214,45,11,27,066,43,12,26,187,50,18,23,270,41,1*63
$GPGSV,3,3,11,13,13,128,43,15,13,162,49,26,08,322,32,1*58
$GPGSV,1,1,04,25,41,221,44,11,27,066,38,18,23,270,26,26,08,322,31,8*60
$GLGSV,3,1,10,87,57,008,39,65,49,125,,72,47,121,39,71,37,051,39,1*7E
$GLGSV,3,2,10,86,28,074,37,78,27,301,38,88,25,300,35,77,23,236,35,1*7A
$GLGSV,3,3,10,79,02,345,,70,01,019,,1*79
$GAGSV,3,1,10,15,69,333,34,27,49,254,44,34,37,060,42,13,27,271,40,7*70
$GAGSV,3,2,10,30,27,190,46,21,23,314,35,05,22,071,36,03,22,126,41,7*78
$GAGSV,3,3,10,08,01,169,48,09,01,025,,7*76
$GAGSV,3,1,09,15,69,333,37,27,49,254,42,34,37,060,42,13,27,271,33,1*7F
$GAGSV,3,2,09,30,27,190,40,21,23,314,35,05,22,071,37,03,22,126,40,1*70
$GAGSV,3,3,09,08,01,169,46,1*49
$GBGSV,3,1,12,11,70,351,32,34,67,065,39,43,51,309,33,21,50,085,44,1*7B
$GBGSV,3,2,12,42,40,163,48,12,38,090,37,14,21,183,49,23,19,271,45,1*76
$GBGSV,3,3,12,44,18,101,43,22,15,038,46,25,11,223,46,37,06,320,32,1*72
$GBGSV,2,1,08,34,67,065,26,21,50,085,36,42,40,163,44,23,19,271,35,5*7B
$GBGSV,2,2,08,44,18,101,34,22,15,038,36,25,11,223,38,37,06,320,40,5*76
$GNGGA,233027.000,4005.097948,N,10513.207920,W,2,57,0.42,1586.303,M,-20.669,M,,*7E
$GPGSV,3,1,11,05,79,110,44,29,61,318,37,20,48,051,40,25,41,221,48,1*6E
$GPGSV,3,2,11,46,37,214,45,11,27,066,43,12,26,187,50,18,23,270,41,1*63
$GPGSV,3,3,11,13,13,128,43,15,13,162,49,26,08,322,32,1*58
$GPGSV,1,1,04,25,41,221,44,11,27,066,37,18,23,270,25,26,08,322,31,8*6C
$GLGSV,3,1,09,87,57,008,38,65,49,125,,72,47,121,40,71,37,051,40,1*77
$GLGSV,3,2,09,86,28,074,37,78,27,301,38,88,25,300,34,77,23,236,35,1*73
$GLGSV,3,3,09,70,01,019,,1*4F
$GAGSV,3,1,10,15,69,333,33,27,49,254,44,34,37,060,42,30,27,190,46,7*7C
$GAGSV,3,2,10,13,27,271,40,21,23,314,35,03,22,126,41,05,22,071,36,7*73
$GAGSV,3,3,10,08,01,169,48,09,01,025,,7*76
$GAGSV,3,1,09,15,69,333,37,27,49,254,42,34,37,060,42,13,27,271,32,1*7E
$GAGSV,3,2,09,30,27,190,40,21,23,314,35,05,22,071,37,03,22,126,40,1*70
$GAGSV,3,3,09,08,01,169,47,1*48
$GBGSV,3,1,12,11,70,351,32,34,67,065,39,43,51,309,34,21,50,083,44,1*7A
$GBGSV,3,2,12,42,40,163,48,12,38,090,37,14,21,183,49,23,19,270,45,1*77
$GBGSV,3,3,12,44,18,101,43,22,14,038,45,25,11,223,47,37,06,320,31,1*72
$GBGSV,2,1,08,34,67,065,26,21,50,083,36,42,40,163,43,23,19,270,34,5*7A
$GBGSV,2,2,08,44,18,101,33,22,14,038,34,25,11,223,38,37,06,320,39,5*7C
$PAIR010,0,1,2308,343848*33
$GNGGA,233032.000,4005.097984,N,10513.207908,W,2,58,0.42,1586.419,M,-20.670,M,,*7B
$GPGSV,3,1,11,05,79,110,44,29,61,318,37,20,48,051,39,25,41,221,48,1*60
$GPGSV,3,2,11,46,37,214,45,11,27,066,42,12,26,187,50,18,23,270,41,1*62
