$PAIR001,062,0*3F
$PAIR001,062,0*3F
$PAIR001,062,0*3F
$PAIR001,062,0*3F
$PAIR001,062,0*3F
$PAIR001,062,0*3F
$PAIR001,062,0*3F
$PAIR001,062,0*3F
$PAIR001,062,0*3F
$GNGGA,222543.000,4000.632634,N,10514.639604,W,1,15,1.21,1650.440,M,-20.634,M,,*77
$GPGSV,3,1,11,11,85,220,,12,62,305,19,06,54,045,28,20,37,161,,1*6E
$GPGSV,3,2,11,19,32,076,,25,29,313,30,24,19,226,,22,10,138,,1*60
$GPGSV,3,3,11,17,10,086,,05,07,182,17,29,02,277,,1*59
$GPGSV,1,1,00,8*6D
$GLGSV,2,1,07,86,63,298,,76,63,290,,85,42,033,20,75,39,180,,1*73
$GLGSV,2,2,07,77,22,328,,87,20,252,,69,09,031,23,1*4B
$GAGSV,2,1,07,27,68,158,,13,65,231,12,15,57,043,18,21,53,308,06,7*72
$GAGSV,2,2,07,30,16,142,,26,12,228,,34,07,046,05,7*4F
$GAGSV,1,1,00,1*75
$GBGSV,3,1,11,27,70,307,,46,53,261,13,28,47,053,21,30,24,264,25,1*7F
$GBGSV,3,2,11,36,22,314,24,33,19,077,,41,14,127,,14,12,052,,1*7F
$GBGSV,3,3,11,39,05,332,28,42,03,029,27,16,01,340,,1*4B
$GBGSV,1,1,04,28,47,053,15,36,22,314,20,39,05,332,17,42,03,029,22,5*79
$GNGGA,222548.000,4000.630804,N,10514.640066,W,1,14,1.21,1650.448,M,-20.634,M,,*76
$GPGSV,3,1,11,11,85,220,,12,62,305,18,06,54,045,28,20,37,161,,1*6F
$GPGSV,3,2,11,19,32,076,,25,29,313,30,24,19,226,,22,10,138,,1*60
$GPGSV,3,3,11,17,10,086,,05,07,182,16,29,02,277,,1*58
$GPGSV,1,1,00,8*6D
$GLGSV,2,1,07,76,63,290,,86,63,298,,85,42,033,20,75,39,180,,1*73
$GLGSV,2,2,07,77,22,328,,87,20,252,,69,09,031,22,1*4A
$GAGSV,2,1,07,27,68,158,,13,65,231,10,15,57,043,17,21,53,308,07,7*7E
$GAGSV,2,2,07,30,16,142,,26,12,228,,34,07,046,,7*4A
$GAGSV,1,1,00,1*75
$GBGSV,3,1,10,27,70,307,,46,53,261,17,28,47,053,21,30,24,264,27,1*78
$GBGSV,3,2,10,36,22,314,17,33,19,077,,14,12,052,,39,05,332,28,1*7D
$GBGSV,3,3,10,42,03,029,28,16,01,340,,1*72
$GBGSV,1,1,03,36,22,314,18,39,05,332,17,42,03,029,23,5*4F
$GNGGA,222553.000,4000.630678,N,10514.640174,W,1,14,1.21,1650.520,M,-20.634,M,,*74
$GPGSV,3,1,11,11,85,220,,12,62,305,19,06,54,045,26,20,37,161,,1*60
$GPGSV,3,2,11,19,32,076,,25,29,313,29,24,19,226,,22,10,138,,1*68
$GPGSV,3,3,11,17,10,086,,05,07,182,17,29,02,277,,1*59
$GPGSV,1,1,00,8*6D
$GLGSV,2,1,07,76,63,290,,86,63,298,,85,42,033,22,75,39,180,,1*71
$GLGSV,2,2,07,77,22,328,,87,20,252,,69,09,031,23,1*4B
$GAGSV,2,1,07,27,68,158,,13,66,233,10,15,57,043,19,21,53,308,,7*76
$GAGSV,2,2,07,30,16,142,,26,12,228,,34,07,046,,7*4A
$GAGSV,1,1,00,1*75
$GBGSV,3,1,10,27,70,307,,46,53,261,14,28,47,053,18,30,24,264,27,1*71
$GBGSV,3,2,10,36,22,314,17,33,19,077,,14,12,052,,39,05,332,28,1*7D
$GBGSV,3,3,10,42,03,029,25,16,01,340,,1*7F
$GBGSV,1,1,03,36,22,314,17,39,05,332,16,42,03,029,19,5*48
$GNGGA,222558.000,4000.630546,N,10514.640252,W,2,17,1.07,1650.502,M,-20.634,M,,*72
$GPGSV,3,1,11,11,85,220,,12,62,305,19,06,54,045,24,20,37,161,,1*62
$GPGSV,3,2,11,19,32,076,15,25,29,313,27,24,19,226,,22,10,138,,1*62
$GPGSV,3,3,11,17,10,086,,05,07,182,18,29,02,277,,1*56
$GPGSV,1,1,00,8*6D
$GLGSV,2,1,07,86,63,298,,76,63,290,,85,42,033,35,75,39,180,,1*77
$GLGSV,2,2,07,77,22,328,,87,20,252,,69,09,031,25,1*4D
$GAGSV,2,1,07,27,68,158,,13,66,233,08,15,56,043,19,21,53,308,,7*7E
$GAGSV,2,2,07,30,16,142,,26,12,228,,34,07,046,13,7*48
$GAGSV,1,1,00,1*75
$GBGSV,3,1,11,27,70,307,17,46,53,261,13,28,47,053,24,30,24,264,25,1*7C
$GBGSV,3,2,11,36,22,314,24,33,19,077,,41,14,127,,14,12,052,,1*7F
$GBGSV,3,3,11,39,05,332,29,42,03,029,25,16,01,340,,1*48
$GBGSV,1,1,03,36,22,314,16,39,05,332,16,42,03,029,17,5*47
$PAIR010,0,0,2305,80778*0F
$GNGGA,222603.000,4000.631008,N,10514.640288,W,2,16,1.02,1650.461,M,-20.635,M,,*77
$GPGSV,3,1,11,11,85,220,,12,62,305,18,06,54,045,23,20,37,161,,1*64
$GPGSV,3,2,11,19,32,076,15,25,29,313,27,24,19,226,,22,10,138,,1*62
$GPGSV,3,3,11,17,10,086,,05,07,182,16,29,02,277,,1*58
$GPGSV,1,1,00,8*6D
$GLGSV,2,1,07,86,63,298,,76,63,290,,85,42,033,37,75,39,180,,1*75
$GLGSV,2,2,07,77,22,328,,87,20,252,16,69,09,031,24,1*4B
$GAGSV,2,1,07,27,68,158,,13,66,233,09,15,56,043,13,21,54,308,,7*72
$GAGSV,2,2,07,30,16,142,,26,12,228,,34,07,046,13,7*48
$GAGSV,1,1,00,1*75
$GBGSV,3,1,11,27,70,307,15,46,53,261,14,28,47,053,17,30,24,264,24,1*78
$GBGSV,3,2,11,36,22,314,24,33,19,077,,41,14,127,,14,12,052,,1*7F
$GBGSV,3,3,11,39,05,332,24,42,03,029,27,16,01,340,,1*47
$GBGSV,1,1,02,39,05,332,14,42,03,029,20,5*74
$GNGGA,222608.000,4000.631086,N,10514.640324,W,2,16,0.99,1650.473,M,-20.635,M,,*7D
$GPGSV,3,1,11,11,85,220,,12,62,305,15,06,54,045,21,20,37,161,,1*6B
$GPGSV,3,2,11,19,32,076,15,25,29,313,23,24,19,226,,22,10,138,,1*66
$GPGSV,3,3,11,17,10,086,,05,07,182,15,29,02,277,,1*5B
$GPGSV,1,1,00,8*6D
$GLGSV,2,1,07,76,63,290,,86,63,298,,85,42,033,19,75,39,180,,1*79
$GLGSV,2,2,07,77,22,328,,87,20,252,14,69,09,031,23,1*4E
$GAGSV,2,1,07,27,66,158,,13,66,233,09,15,56,043,08,21,54,308,,7*76
$GAGSV,2,2,07,30,16,142,,26,13,228,,34,07,046,11,7*4B
$GAGSV,1,1,00,1*75
$GBGSV,3,1,10,27,70,307,11,46,53,261,,28,47,053,20,30,24,264,22,1*7A
$GBGSV,3,2,10,36,22,314,23,33,19,077,,14,12,052,,39,05,332,21,1*73
$GBGSV,3,3,10,42,03,029,28,16,01,340,,1*72
$GBGSV,1,1,03,30,24,264,14,39,05,332,13,42,03,029,20,5*42
$GNGGA,222613.000,4000.630000,N,10514.639454,W,2,19,0.98,1650.812,M,-20.634,M,,*72
$GPGSV,3,1,11,11,85,220,,12,62,305,23,06,54,045,44,20,37,161,,1*6D
$GPGSV,3,2,11,19,32,076,18,25,29,313,24,24,19,226,,22,10,138,,1*6C
$GPGSV,3,3,11,17,10,086,,05,07,182,,29,02,277,,1*5F
$GPGSV,1,1,01,06,54,045,25,8*5D
$GLGSV,2,1,08,86,63,298,,76,63,290,,85,42,033,47,75,39,180,,1*7D
$GLGSV,2,2,08,77,22,328,,87,20,252,31,70,14,091,,69,09,031,39,1*77
$GAGSV,2,1,07,13,66,233,12,27,66,158,,15,56,043,07,21,54,308,33,7*73
$GAGSV,2,2,07,30,15,142,,26,13,228,,34,07,046,15,7*4C
$GAGSV,1,1,00,1*75
$GBGSV,3,1,10,27,70,307,14,46,53,261,,28,47,053,39,30,24,264,30,1*74
$GBGSV,3,2,10,36,22,314,44,33,19,077,,14,12,052,,39,05,332,37,1*75
$GBGSV,3,3,10,42,03,029,41,16,01,340,,1*7D
$GBGSV,1,1,04,30,24,264,25,36,22,314,29,39,05,332,17,42,03,029,22,5*79
$GNGGA,222618.000,4000.636474,N,10514.642256,W,2,28,0.77,1651.359,M,-20.634,M,,*76
$GPGSV,3,1,11,11,85,220,24,12,62,305,43,06,54,045,47,20,37,161,,1*6E
$GPGSV,3,2,11,19,32,076,24,25,29,313,49,24,19,226,29,22,10,138,,1*63
$GPGSV,3,3,11,17,10,086,,05,07,182,,29,02,277,,1*5F
$GPGSV,1,1,02,06,54,045,28,25,29,313,40,8*6A
$GLGSV,2,1,07,76,63,290,32,86,63,298,39,85,42,033,50,75,39,180,,1*7F
$GLGSV,2,2,07,77,22,328,37,87,20,252,34,69,09,031,47,1*4A
$GAGSV,2,1,07,27,66,158,,13,66,233,20,15,56,043,,21,54,308,41,7*70
$GAGSV,2,2,07,30,15,142,,26,13,228,,34,06,047,25,7*4F
$GAGSV,1,1,01,21,54,308,37,1*49
$GBGSV,3,1,10,27,70,307,12,46,53,261,29,28,47,053,46,30,24,264,37,1*76
$GBGSV,3,2,10,36,22,314,48,33,19,077,,14,12,052,,39,05,332,39,1*77
$GBGSV,3,3,10,42,03,029,49,16,01,340,,1*75
$GBGSV,2,1,06,27,70,307,26,28,47,053,30,30,24,264,30,36,22,314,43,5*7B
$GBGSV,2,2,06,39,05,332,26,42,03,029,25,5*74
$GNGGA,222623.000,4000.636888,N,10514.643366,W,2,33,0.69,1652.155,M,-20.634,M,,*7A
$GPGSV,3,1,11,11,85,220,49,12,62,305,51,06,54,045,50,20,37,161,,1*60
$GPGSV,3,2,11,19,32,076,31,25,29,313,49,24,19,226,23,22,10,138,,1*6D
$GPGSV,3,3,11,17,10,086,,05,07,182,,29,02,277,,1*5F
$GPGSV,1,1,03,11,85,220,43,06,54,045,44,25,29,313,40,8*5B
$GLGSV,2,1,08,76,63,290,50,86,63,298,48,85,42,033,51,75,39,180,26,1*77
$GLGSV,2,2,08,77,22,328,37,87,20,252,34,70,14,090,,69,09,029,50,1*71
$GAGSV,2,1,07,27,66,158,28,13,66,233,44,15,56,043,49,21,54,308,49,7*7D
$GAGSV,2,2,07,30,15,142,,26,13,228,18,34,06,047,25,7*46
$GAGSV,1,1,01,21,54,308,42,1*4B
$GBGSV,3,1,12,27,70,307,51,46,53,261,49,28,47,053,49,37,31,186,,1*72
$GBGSV,3,2,12,30,24,264,47,36,22,314,49,33,19,077,20,41,14,127,,1*72
$GBGSV,3,3,12,14,12,052,,39,05,332,41,42,03,029,47,16,01,340,,1*70
$GBGSV,2,1,07,27,70,307,40,46,53,261,42,28,47,053,38,30,24,264,39,5*78
$GBGSV,2,2,07,36,22,314,39,39,05,332,26,42,03,029,27,5*4E
$GNGGA,222628.000,4000.628470,N,10514.643858,W,2,37,0.65,1649.421,M,-20.634,M,,*77
$GPGSV,3,1,12,11,85,220,49,12,62,305,51,06,54,045,50,20,37,161,,1*63
$GPGSV,3,2,12,19,32,076,27,25,29,313,48,24,19,226,29,22,10,138,,1*62
$GPGSV,3,3,12,17,10,086,,05,07,182,,29,02,277,,40,,,26,1*5C
$GPGSV,1,1,04,11,85,220,42,06,54,045,42,25,29,313,39,24,19,226,13,8*6F
$GLGSV,2,1,07,76,64,287,50,86,63,298,48,85,42,033,51,75,38,180,23,1*7D
$GLGSV,2,2,07,77,22,328,40,87,20,252,30,69,09,029,45,1*45
$GAGSV,2,1,07,13,66,233,44,27,66,158,26,15,56,043,49,21,54,308,49,7*73
$GAGSV,2,2,07,30,15,142,,26,13,228,18,34,06,047,20,7*43
$GAGSV,1,1,03,13,66,233,35,27,66,158,22,21,54,308,41,1*45
$GBGSV,3,1,12,27,70,307,49,46,53,261,47,28,47,053,49,37,31,186,,1*75
$GBGSV,3,2,12,30,24,264,45,36,22,314,46,33,19,077,,41,14,127,,1*7D
$GBGSV,3,3,12,14,12,052,19,39,05,332,40,42,03,029,44,16,01,340,,1*7A
$GBGSV,2,1,07,27,70,307,40,46,53,261,38,28,47,053,39,30,24,264,39,5*74
$GBGSV,2,2,07,36,22,314,38,39,05,332,23,42,03,029,29,5*44
$GNGGA,222633.000,4000.625476,N,10514.643558,W,2,31,0.65,1647.780,M,-20.634,M,,*7B
$GPGSV,3,1,12,11,85,220,41,12,62,305,38,06,54,045,48,20,37,161,,1*6D
$GPGSV,3,2,12,19,32,076,35,25,29,313,46,24,19,226,18,22,10,138,,1*6D
$GPGSV,3,3,12,17,10,086,,05,07,182,,29,02,277,,40,,,,1*58
$GPGSV,1,1,04,11,85,220,31,06,54,045,39,25,29,313,34,24,19,226,19,8*60
$GLGSV,2,1,08,76,64,287,40,86,63,298,43,85,42,033,51,75,38,180,23,1*78
$GLGSV,2,2,08,77,24,327,40,87,20,252,28,70,14,090,,69,09,029,42,1*76
$GAGSV,2,1,06,13,66,233,30,27,66,158,,15,56,043,39,21,54,308,42,7*79
$GAGSV,2,2,06,26,13,228,18,34,06,047,25,7*77
$GAGSV,1,1,03,13,66,233,25,27,66,158,21,21,54,308,26,1*46
$GBGSV,3,1,12,27,70,307,40,46,53,261,39,28,47,053,41,37,31,186,,1*7D
$GBGSV,3,2,12,30,24,264,41,36,22,314,49,33,19,077,,41,14,127,24,1*70
$GBGSV,3,3,12,14,12,052,19,39,05,332,42,42,03,029,44,16,01,340,,1*78
$GBGSV,2,1,05,27,70,307,31,46,53,261,20,28,47,053,29,39,05,332,27,5*7F
$GBGSV,2,2,05,42,03,029,38,5*42
$GNGGA,222638.000,4000.624978,N,10514.643588,W,2,37,0.65,1647.854,M,-20.634,M,,*7F
$GPGSV,3,1,12,11,85,220,41,12,62,305,36,06,54,045,47,20,37,161,27,1*69
$GPGSV,3,2,12,19,32,076,34,25,29,313,46,24,19,226,24,22,10,138,,1*63
$GPGSV,3,3,12,17,10,086,23,05,07,182,,29,02,277,,45,,,,1*5C
$GPGSV,1,1,04,11,85,220,31,06,54,045,39,25,29,313,36,24,19,226,20,8*68
$GLGSV,2,1,07,86,64,302,42,76,64,287,41,85,41,034,51,75,38,180,17,1*71
$GLGSV,2,2,07,77,24,327,40,87,20,252,28,69,09,029,44,1*44
$GAGSV,2,1,07,13,66,233,32,27,66,158,19,15,56,043,39,21,54,308,43,7*73
$GAGSV,2,2,07,30,15,142,,26,13,228,19,34,06,047,24,7*46
$GAGSV,2,1,05,13,66,233,24,27,66,158,20,15,56,043,27,21,54,308,26,1*76
$GAGSV,2,2,05,34,06,047,19,1*4A
$GBGSV,3,1,12,27,70,307,35,46,53,261,42,28,47,053,41,37,31,186,22,1*73
$GBGSV,3,2,12,30,24,264,39,36,22,314,49,33,19,077,,41,14,127,23,1*78
$GBGSV,3,3,12,14,12,052,19,39,05,332,42,42,03,029,44,16,01,340,23,1*79
$GBGSV,2,1,07,27,70,307,34,46,53,261,21,28,47,053,33,30,24,264,38,5*74
$GBGSV,2,2,07,36,22,314,21,39,05,332,29,42,03,029,38,5*46
$GNGGA,222643.000,4000.624996,N,10514.643576,W,2,38,0.65,1647.953,M,-20.635,M,,*7A
$GPGSV,3,1,11,11,85,220,41,12,62,305,33,06,54,045,47,20,37,161,22,1*6A
$GPGSV,3,2,11,19,32,076,34,25,29,313,46,24,19,226,24,22,10,138,,1*60
$GPGSV,3,3,11,17,10,086,21,05,07,182,,29,02,277,,1*5C
$GPGSV,1,1,04,11,85,220,31,06,54,045,38,25,29,313,36,24,19,226,20,8*69
$GLGSV,2,1,08,76,64,287,42,86,64,302,43,85,41,034,50,75,38,180,18,1*72
$GLGSV,2,2,08,77,24,327,41,87,20,253,19,70,14,090,,69,09,029,46,1*70
$GAGSV,2,1,07,27,66,158,16,13,66,233,33,15,56,043,39,21,54,308,43,7*7D
$GAGSV,2,2,07,30,15,142,18,26,13,228,21,34,06,047,24,7*44
$GAGSV,2,1,05,13,66,233,23,27,66,158,19,15,56,043,27,21,54,308,27,1*7A
$GAGSV,2,2,05,34,06,047,20,1*40
$GBGSV,3,1,12,27,70,307,35,46,53,261,43,28,47,053,41,37,31,186,22,1*72
$GBGSV,3,2,12,30,24,264,36,36,22,314,49,33,19,077,,41,14,127,23,1*77
$GBGSV,3,3,12,14,12,052,24,39,05,332,42,42,03,029,44,16,01,340,21,1*75
$GBGSV,2,1,07,27,70,307,34,46,53,261,21,28,47,053,33,30,24,264,38,5*74
$GBGSV,2,2,07,36,22,314,23,39,05,332,29,42,03,029,37,5*4B
$GNGGA,222648.000,4000.624984,N,10514.643546,W,2,36,0.66,1648.001,M,-20.634,M,,*7C
$GPGSV,3,1,11,11,85,220,41,12,62,305,34,06,54,045,47,20,37,161,,1*6D
$GPGSV,3,2,11,19,32,076,34,25,29,313,46,24,19,226,21,22,10,138,22,1*65
$GPGSV,3,3,11,17,10,086,18,05,07,182,,29,02,277,,1*56
$GPGSV,1,1,04,11,85,220,31,06,54,045,38,25,29,313,36,24,19,226,20,8*69
$GLGSV,2,1,08,76,64,287,41,86,64,302,42,85,41,034,50,75,38,180,16,1*7E
$GLGSV,2,2,08,77,24,327,41,87,20,253,31,70,14,090,,69,09,029,43,1*7F
$GAGSV,2,1,07,27,66,158,14,13,66,233,34,15,56,043,39,21,54,308,43,7*78
$GAGSV,2,2,07,30,15,142,19,26,13,228,21,34,06,047,21,7*40
$GAGSV,2,1,05,13,66,233,23,27,66,158,19,15,56,043,27,21,54,308,27,1*7A
$GAGSV,2,2,05,34,06,047,20,1*40
$GBGSV,3,1,12,27,70,307,34,46,53,261,43,28,47,053,41,37,31,186,21,1*70
$GBGSV,3,2,12,30,24,264,,36,22,314,49,33,19,077,21,41,14,127,19,1*78
$GBGSV,3,3,12,14,12,052,20,39,05,332,42,42,03,029,43,16,01,340,22,1*75
$GBGSV,2,1,07,27,70,307,34,46,53,261,21,28,47,053,33,30,24,264,38,5*74
$GBGSV,2,2,07,36,22,314,23,39,05,332,30,42,03,029,37,5*43
$GNGGA,222653.000,4000.624990,N,10514.643510,W,2,36,0.66,1648.031,M,-20.634,M,,*73
$GPGSV,3,1,11,11,85,220,41,12,62,305,34,06,54,045,46,20,37,161,,1*6C
$GPGSV,3,2,11,19,32,076,35,25,29,313,47,24,19,226,22,22,10,138,22,1*66
$GPGSV,3,3,11,17,10,086,18,05,07,182,,29,02,277,,1*56
$GPGSV,1,1,04,11,85,220,32,06,54,045,38,25,29,313,36,24,19,226,20,8*6A
$GLGSV,2,1,07,86,64,302,42,76,64,287,42,85,41,034,49,75,38,180,19,1*75
$GLGSV,2,2,07,77,24,327,38,87,20,253,28,69,09,029,44,1*4A
$GAGSV,2,1,07,27,66,158,13,13,66,233,35,15,56,043,39,21,54,308,44,7*79
$GAGSV,2,2,07,30,15,142,,26,13,228,18,34,06,047,17,7*47
$GAGSV,2,1,05,13,66,233,24,27,66,158,20,15,56,043,27,21,54,308,27,1*77
$GAGSV,2,2,05,34,06,047,20,1*40
$GBGSV,3,1,12,27,70,307,33,46,53,261,43,28,47,053,41,37,31,186,19,1*7C
$GBGSV,3,2,12,30,24,264,,36,22,314,49,33,19,077,21,41,14,127,19,1*78
$GBGSV,3,3,12,14,12,052,20,39,05,332,43,42,03,029,43,16,01,340,23,1*75
$GBGSV,2,1,07,27,70,307,34,46,53,261,22,28,47,053,33,30,24,264,38,5*77
$GBGSV,2,2,07,36,22,314,23,39,05,332,30,42,03,029,37,5*43
$GNGGA,222658.000,4000.625026,N,10514.643498,W,2,37,0.65,1648.139,M,-20.634,M,,*77
$GPGSV,3,1,12,11,85,220,41,12,62,305,33,06,54,045,46,46,37,214,29,1*62
$GPGSV,3,2,12,20,37,161,,19,32,076,35,25,29,313,47,24,19,226,21,1*6D
$GPGSV,3,3,12,17,10,086,18,22,10,138,25,05,07,182,,29,02,277,,1*69
$GPGSV,1,1,04,11,85,220,32,06,54,045,38,25,29,313,36,24,19,226,18,8*61
$GLGSV,2,1,08,76,64,287,41,86,64,302,41,85,41,034,49,75,38,180,21,1*71
$GLGSV,2,2,08,77,24,327,38,87,20,253,32,70,14,090,,69,09,029,46,1*77
$GAGSV,2,1,07,13,66,233,35,27,66,158,15,15,56,043,39,21,54,308,44,7*7F
$GAGSV,2,2,07,30,15,142,16,26,13,228,21,34,06,047,22,7*4C
$GAGSV,2,1,05,13,66,233,24,27,66,158,20,15,56,043,27,21,54,308,27,1*77
$GAGSV,2,2,05,34,06,047,20,1*40
$GBGSV,3,1,12,27,70,307,33,46,53,261,41,28,47,053,41,37,31,186,18,1*7F
$GBGSV,3,2,12,30,24,264,39,36,22,314,49,33,19,077,25,41,14,127,21,1*7D
$GBGSV,3,3,12,14,12,051,20,39,05,332,43,42,03,029,41,16,01,340,23,1*74
$GBGSV,2,1,07,27,70,307,34,46,53,261,23,28,47,053,33,30,24,264,39,5*77
$GBGSV,2,2,07,36,22,314,29,39,05,332,30,42,03,029,37,5*49
$PAIR010,0,0,2305,80838*04
$GNGGA,222703.000,4000.625014,N,10514.643528,W,2,37,0.65,1648.254,M,-20.634,M,,*7B
$GPGSV,3,1,12,11,85,220,41,12,62,305,35,06,54,045,46,46,37,214,29,1*64
$GPGSV,3,2,12,20,37,161,,19,32,076,34,25,29,313,47,24,19,226,23,1*6E
$GPGSV,3,3,12,17,10,086,,22,10,138,26,05,07,182,,29,02,277,,1*63
$GPGSV,1,1,04,11,85,220,32,06,54,045,38,25,29,313,36,24,19,226,18,8*61
$GLGSV,2,1,08,76,64,287,42,86,64,302,39,85,41,034,49,75,38,180,21,1*7D
$GLGSV,2,2,08,77,24,327,38,87,20,253,32,70,14,090,,69,09,029,44,1*75
$GAGSV,2,1,07,13,66,233,35,27,66,158,23,15,56,043,40,21,54,308,44,7*74
$GAGSV,2,2,07,30,15,142,13,26,13,228,24,34,06,047,21,7*4F
$GAGSV,2,1,05,13,66,233,24,27,66,158,19,15,56,043,27,21,54,308,28,1*72
$GAGSV,2,2,05,34,06,047,20,1*40
$GBGSV,3,1,12,27,70,307,34,46,53,261,41,28,47,053,41,37,31,186,18,1*78
$GBGSV,3,2,12,30,24,264,41,36,22,314,49,33,19,077,20,41,14,127,20,1*76
$GBGSV,3,3,12,14,12,051,15,39,05,332,42,42,03,029,40,16,01,340,24,1*75
$GBGSV,2,1,07,27,70,307,35,46,53,261,22,28,47,053,33,30,24,264,39,5*77
$GBGSV,2,2,07,36,22,314,31,39,05,332,30,42,03,029,37,5*40
$GNGGA,222708.000,4000.625038,N,10514.643564,W,2,37,0.65,1648.244,M,-20.634,M,,*77
$GPGSV,3,1,12,11,85,220,41,12,62,305,37,06,54,045,46,46,37,214,29,1*66
$GPGSV,3,2,12,20,37,161,,19,32,076,34,25,29,313,47,24,19,226,28,1*65
$GPGSV,3,3,12,17,10,086,24,22,10,138,23,05,07,182,,29,02,277,,1*60
$GPGSV,1,1,04,11,85,220,32,06,54,045,38,25,29,313,36,24,19,226,18,8*61
$GLGSV,2,1,07,86,64,302,40,76,64,287,42,85,41,034,49,75,38,180,19,1*77
$GLGSV,2,2,07,77,24,327,38,87,20,253,35,69,09,029,44,1*46
$GAGSV,2,1,07,13,66,233,35,27,66,158,,15,56,043,40,21,54,308,44,7*75
$GAGSV,2,2,07,30,15,142,,26,13,228,24,34,06,047,21,7*4D
$GAGSV,2,1,05,13,66,233,24,27,66,158,19,15,56,043,27,21,54,308,28,1*72
$GAGSV,2,2,05,34,06,047,20,1*40
$GBGSV,3,1,12,27,71,310,36,46,53,261,41,28,46,054,41,37,31,186,20,1*70
$GBGSV,3,2,12,30,24,264,42,36,22,314,49,33,19,077,,41,14,127,18,1*7C
$GBGSV,3,3,12,14,12,051,26,39,05,332,42,42,03,029,39,16,01,340,24,1*7B
$GBGSV,2,1,07,27,71,310,35,46,53,261,22,28,46,054,33,30,24,264,39,5*76
$GBGSV,2,2,07,36,22,314,32,39,05,332,30,42,03,029,38,5*4C
$GNGGA,222713.000,4000.625104,N,10514.643618,W,2,38,0.65,1648.314,M,-20.634,M,,*70
$GPGSV,3,1,12,11,85,220,41,12,62,305,38,06,54,045,46,46,37,214,29,1*69
$GPGSV,3,2,12,20,37,161,,19,32,076,35,25,29,313,47,24,19,226,30,1*6D
$GPGSV,3,3,12,17,10,086,24,22,10,138,23,05,07,182,,29,02,277,,1*60
$GPGSV,1,1,04,11,85,220,32,06,54,045,38,25,29,313,36,24,19,226,17,8*6E
$GLGSV,2,1,08,76,64,287,41,86,64,302,41,85,41,034,49,75,38,180,26,1*76
$GLGSV,2,2,08,77,24,327,39,87,20,253,36,70,14,090,,69,09,029,45,1*71
$GAGSV,2,1,07,13,66,233,35,27,66,158,25,15,56,043,40,21,54,308,44,7*72
$GAGSV,2,2,07,30,15,142,,26,13,228,26,34,06,047,22,7*4C
$GAGSV,2,1,05,13,66,233,24,27,66,158,19,15,56,043,27,21,54,308,28,1*72
$GAGSV,2,2,05,34,06,047,20,1*40
$GBGSV,3,1,12,27,71,310,37,46,53,261,42,28,46,054,41,37,31,186,20,1*72
$GBGSV,3,2,12,30,25,265,42,36,22,314,49,33,19,076,,41,14,127,19,1*7C
$GBGSV,3,3,12,14,12,051,25,39,05,332,41,42,03,029,39,16,01,340,24,1*7B
$GBGSV,2,1,07,27,71,310,35,46,53,261,22,28,46,054,33,30,25,265,39,5*76
$GBGSV,2,2,07,36,22,314,32,39,05,332,30,42,03,029,38,5*4C
$GNGGA,222718.000,4000.625110,N,10514.643636,W,2,38,0.65,1648.320,M,-20.635,M,,*74
$GPGSV,3,1,12,11,85,220,41,12,62,305,38,06,54,045,46,46,37,214,29,1*69
$GPGSV,3,2,12,20,37,161,,19,32,076,33,25,29,313,48,24,19,226,29,1*6C
$GPGSV,3,3,12,17,10,086,25,22,10,138,22,05,07,182,,29,02,277,,1*60
$GPGSV,1,1,04,11,85,220,32,06,54,045,38,25,29,313,36,24,19,226,17,8*6E
$GLGSV,2,1,08,76,64,287,42,86,64,302,41,85,41,034,49,75,38,180,26,1*75
$GLGSV,2,2,08,77,24,327,40,87,20,253,37,70,14,090,,69,09,029,45,1*7E
$GAGSV,2,1,07,13,66,233,34,27,66,158,25,15,56,043,40,21,54,308,44,7*73
$GAGSV,2,2,07,30,15,142,,26,13,228,26,34,06,047,20,7*4E
$GAGSV,2,1,05,13,66,233,24,27,66,158,20,15,56,043,27,21,54,308,29,1*79
$GAGSV,2,2,05,34,06,047,21,1*41
$GBGSV,3,1,12,27,71,310,37,46,53,261,42,28,46,054,41,37,30,186,19,1*79
$GBGSV,3,2,12,30,25,265,42,36,23,313,49,33,19,076,23,41,14,127,22,1*73
$GBGSV,3,3,12,14,12,051,18,39,05,332,41,42,03,029,40,16,01,340,26,1*79
$GBGSV,2,1,07,27,71,310,35,46,53,261,23,28,46,054,33,30,25,265,39,5*77
$GBGSV,2,2,07,36,23,313,31,39,05,332,30,42,03,029,38,5*49
$GNGGA,222723.000,4000.625140,N,10514.643666,W,2,39,0.65,1648.348,M,-20.634,M,,*72
$GPGSV,3,1,12,11,85,220,41,12,62,305,38,06,54,045,46,46,37,214,29,1*69
$GPGSV,3,2,12,20,37,161,,19,32,076,35,25,29,313,48,24,19,226,25,1*66
$GPGSV,3,3,12,17,10,086,19,22,10,138,20,05,07,182,,29,02,277,,1*6D
$GPGSV,1,1,04,11,85,220,32,06,54,045,38,25,29,313,36,24,19,226,17,8*6E
$GLGSV,2,1,08,76,64,287,42,86,64,302,41,85,41,034,49,75,38,180,22,1*71
$GLGSV,2,2,08,77,24,327,40,87,20,253,36,70,14,090,,69,09,029,46,1*7C
$GAGSV,2,1,07,13,66,233,32,27,66,158,22,15,56,043,40,21,54,308,44,7*72
$GAGSV,2,2,07,30,15,142,,26,13,228,26,34,06,047,20,7*4E
$GAGSV,2,1,05,13,66,233,24,27,66,158,19,15,56,043,27,21,54,308,29,1*73
$GAGSV,2,2,05,34,06,047,21,1*41
$GBGSV,3,1,12,27,71,310,37,46,53,261,42,28,46,054,41,37,30,186,19,1*79
$GBGSV,3,2,12,30,25,265,42,36,23,313,49,33,19,076,20,41,15,127,24,1*77
$GBGSV,3,3,12,14,12,051,,39,05,332,41,42,02,029,38,16,01,340,26,1*7E
$GBGSV,2,1,07,27,71,310,35,46,53,261,23,28,46,054,33,30,25,265,39,5*77
$GBGSV,2,2,07,36,23,313,30,39,05,332,30,42,02,029,38,5*49
$GNGGA,222728.000,4000.625134,N,10514.643672,W,2,39,0.65,1648.348,M,-20.634,M,,*7F
$GPGSV,3,1,12,11,85,220,38,12,62,305,38,06,54,045,46,51,43,183,,1*64
$GPGSV,3,2,12,20,37,161,,19,32,076,35,25,29,313,48,24,19,226,22,1*61
$GPGSV,3,3,12,22,10,138,16,17,10,086,14,05,07,182,,29,02,277,,1*65
$GPGSV,1,1,04,11,85,220,32,06,54,045,38,25,29,313,36,24,19,226,17,8*6E
$GLGSV,2,1,07,86,64,302,41,76,64,287,41,85,41,034,48,75,38,180,21,1*7F
$GLGSV,2,2,07,77,24,327,40,87,20,253,33,69,09,029,46,1*4D
$GAGSV,2,1,07,13,66,233,30,27,66,158,22,15,56,043,40,21,54,308,44,7*70
$GAGSV,2,2,07,30,15,142,,26,13,228,26,34,06,047,22,7*4C
$GAGSV,2,1,05,13,66,233,25,27,66,158,20,15,56,043,27,21,54,308,29,1*78
$GAGSV,2,2,05,34,06,047,22,1*42
$GBGSV,3,1,12,27,71,310,36,46,53,259,42,28,46,054,41,37,30,186,20,1*79
$GBGSV,3,2,12,30,25,265,42,36,23,313,49,33,19,076,19,41,15,127,22,1*7B
$GBGSV,3,3,12,14,12,051,18,39,05,332,41,42,02,029,36,16,01,340,27,1*78
$GBGSV,2,1,07,27,71,310,35,46,53,259,24,28,46,054,32,30,25,265,38,5*7B
$GBGSV,2,2,07,36,23,313,30,39,05,332,29,42,02,029,39,5*40
$GNGGA,222733.000,4000.625128,N,10514.643696,W,2,39,0.65,1648.359,M,-20.634,M,,*72
$GPGSV,3,1,12,11,85,220,38,12,62,305,38,06,54,045,46,51,43,183,,1*64
$GPGSV,3,2,12,20,37,161,,19,32,076,33,25,29,313,48,24,19,226,25,1*60
$GPGSV,3,3,12,22,10,138,16,17,10,086,14,05,07,182,,29,02,277,,1*65
$GPGSV,1,1,04,11,85,220,32,06,54,045,38,25,29,313,36,24,19,226,18,8*61
$GLGSV,2,1,08,76,64,287,42,86,64,302,38,85,41,034,48,75,38,180,22,1*7E
$GLGSV,2,2,08,77,24,327,40,87,20,253,33,70,14,090,,69,09,029,47,1*78
$GAGSV,2,1,07,13,66,233,29,27,66,158,25,15,56,043,40,21,54,308,44,7*7F
$GAGSV,2,2,07,30,15,142,,26,13,228,27,34,06,047,24,7*4B
$GAGSV,2,1,05,13,66,233,25,27,66,158,20,15,56,043,27,21,54,308,30,1*70
$GAGSV,2,2,05,34,06,047,22,1*42
$GBGSV,3,1,12,27,71,310,34,46,53,259,42,28,46,054,41,37,30,186,21,1*7A
$GBGSV,3,2,12,30,25,265,41,36,23,313,49,33,19,076,21,41,15,127,19,1*7B
$GBGSV,3,3,12,14,12,051,17,39,05,332,41,42,02,029,34,16,01,340,26,1*74
$GBGSV,2,1,07,27,71,310,35,46,53,259,25,28,46,054,33,30,25,265,37,5*74
$GBGSV,2,2,07,36,23,313,30,39,05,332,29,42,02,029,39,5*40
$GNGGA,222738.000,4000.625104,N,10514.643708,W,2,39,0.62,1648.360,M,-20.634,M,,*7C
$GPGSV,3,1,12,11,85,220,38,12,62,305,38,06,54,045,46,44,42,197,,1*64
$GPGSV,3,2,12,20,37,161,,19,32,076,33,25,29,313,48,24,19,226,27,1*62
$GPGSV,3,3,12,22,10,138,13,17,10,086,17,05,07,182,,29,02,277,,1*63
$GPGSV,1,1,04,11,85,220,32,06,54,045,38,25,29,313,35,24,19,226,18,8*62
$GLGSV,2,1,08,76,64,287,43,86,64,302,38,85,41,034,47,75,38,180,17,1*76
$GLGSV,2,2,08,77,24,327,40,87,20,253,24,70,14,090,,69,09,029,47,1*7E
$GAGSV,2,1,07,13,66,233,28,27,66,158,,15,56,043,40,21,54,308,44,7*79
$GAGSV,2,2,07,30,15,142,18,26,13,228,27,34,06,047,22,7*44
$GAGSV,2,1,05,13,66,233,25,27,66,158,20,15,56,043,28,21,54,308,31,1*7E
$GAGSV,2,2,05,34,06,047,22,1*42
$GBGSV,3,1,12,27,71,310,31,46,53,259,43,28,46,054,41,37,30,186,21,1*7E
$GBGSV,3,2,12,30,25,265,40,36,23,313,49,33,19,076,26,41,15,127,19,1*7D
$GBGSV,3,3,12,14,12,051,21,39,05,332,41,42,02,029,34,16,01,340,26,1*71
$GBGSV,2,1,07,27,71,310,35,46,53,259,25,28,46,054,33,30,25,265,36,5*75
$GBGSV,2,2,07,36,23,313,28,39,05,332,28,42,02,029,39,5*48
$GNGGA,222743.000,4000.625092,N,10514.643744,W,2,40,0.62,1648.378,M,-20.634,M,,*71
$GPGSV,3,1,11,11,85,220,40,12,62,305,36,06,54,045,46,20,37,161,,1*6F
$GPGSV,3,2,11,19,32,076,34,25,29,313,48,24,19,226,23,22,10,138,14,1*6C
$GPGSV,3,3,11,17,10,086,17,05,07,182,,29,02,277,,1*59
$GPGSV,1,1,04,11,85,220,32,06,54,045,38,25,29,313,35,24,19,226,18,8*62
$GLGSV,2,1,08,86,64,302,39,76,64,287,42,85,41,034,47,75,38,180,20,1*72
$GLGSV,2,2,08,77,24,327,40,87,20,253,27,70,14,090,,69,09,029,47,1*7D
$GAGSV,2,1,07,13,66,233,28,27,66,158,21,15,56,043,40,21,54,308,44,7*7A
$GAGSV,2,2,07,30,15,142,19,26,13,228,25,34,06,047,22,7*47
$GAGSV,2,1,05,13,66,233,25,27,66,158,19,15,56,043,28,21,54,308,31,1*74
$GAGSV,2,2,05,34,06,047,22,1*42
$GBGSV,3,1,12,27,71,310,31,46,53,259,43,28,46,054,41,37,30,186,20,1*7F
$GBGSV,3,2,12,30,25,265,40,36,23,313,49,33,19,076,25,41,15,127,18,1*7F
$GBGSV,3,3,12,14,12,051,20,39,05,332,42,42,02,029,37,16,01,340,26,1*70
$GBGSV,2,1,07,27,71,310,35,46,53,259,25,28,46,054,33,30,25,265,35,5*76
$GBGSV,2,2,07,36,23,313,25,39,05,332,28,42,02,029,39,5*45
$GNGGA,222748.000,4000.625062,N,10514.643762,W,2,39,0.62,1648.388,M,-20.635,M,,*71
$GPGSV,3,1,12,11,85,220,40,12,62,305,38,06,54,045,46,20,37,161,20,1*60
$GPGSV,3,2,12,48,35,219,32,19,32,076,31,25,29,313,48,24,19,226,21,1*67
$GPGSV,3,3,12,17,10,086,17,22,10,138,14,05,08,182,,29,02,277,,1*6B
$GPGSV,1,1,04,11,85,220,32,06,54,045,37,25,29,313,35,24,19,226,18,8*6D
$GLGSV,2,1,08,76,64,287,42,86,64,302,40,85,41,034,47,75,38,180,20,1*7C
$GLGSV,2,2,08,77,24,327,39,87,20,253,27,70,14,090,,69,09,029,48,1*7C
$GAGSV,2,1,07,13,66,233,31,27,66,158,,15,56,043,40,21,54,308,44,7*71
$GAGSV,2,2,07,30,15,142,19,26,13,228,25,34,06,047,23,7*46
$GAGSV,2,1,05,13,66,233,25,27,66,158,19,15,56,043,28,21,54,308,31,1*74
$GAGSV,2,2,05,34,06,047,21,1*41
$GBGSV,3,1,12,27,71,310,30,46,53,259,43,28,46,054,41,37,30,186,19,1*74
$GBGSV,3,2,12,30,25,265,40,36,23,313,49,33,19,076,24,41,15,127,17,1*71
$GBGSV,3,3,12,14,12,051,19,39,05,332,42,42,02,029,37,16,01,340,27,1*7B
$GBGSV,2,1,07,27,71,310,35,46,53,259,25,28,46,054,33,30,25,265,34,5*77
$GBGSV,2,2,07,36,23,313,23,39,05,332,28,42,02,029,39,5*43
$GNGGA,222753.000,4000.625020,N,10514.643780,W,2,40,0.62,1648.393,M,-20.634,M,,*74
$GPGSV,3,1,12,11,85,220,40,12,62,305,38,06,53,045,46,20,37,161,,1*65
$GPGSV,3,2,12,48,35,219,31,19,32,076,32,25,29,313,48,24,19,226,19,1*6C
$GPGSV,3,3,12,17,10,086,,22,10,138,18,05,08,182,,29,02,277,,1*61
$GPGSV,1,1,04,11,85,220,32,06,53,045,37,25,29,313,35,24,19,226,18,8*6A
$GLGSV,2,1,08,76,64,287,43,86,64,302,40,85,41,034,46,75,38,180,19,1*76
$GLGSV,2,2,08,77,24,327,39,87,20,253,20,70,14,090,,69,09,029,47,1*74
$GAGSV,2,1,07,13,66,233,32,27,66,158,22,15,56,043,40,21,54,308,44,7*72
$GAGSV,2,2,07,30,15,142,19,26,13,228,26,34,06,047,23,7*45
$GAGSV,2,1,05,13,66,233,26,27,66,158,19,15,56,043,29,21,54,308,31,1*76
$GAGSV,2,2,05,34,06,047,22,1*42
$GBGSV,3,1,12,27,71,310,30,46,53,259,43,28,46,054,41,37,30,186,17,1*7A
$GBGSV,3,2,12,30,25,265,41,36,23,313,49,33,19,076,13,41,15,127,14,1*77
$GBGSV,3,3,12,14,12,051,18,39,05,332,41,42,02,029,36,16,01,340,26,1*79
$GBGSV,2,1,07,27,71,310,34,46,53,259,26,28,46,054,32,30,25,265,32,5*72
$GBGSV,2,2,07,36,23,313,25,39,05,332,28,42,02,029,39,5*45
$GNGGA,222758.000,4000.624972,N,10514.643804,W,2,39,0.62,1648.414,M,-20.634,M,,*75
$GPGSV,3,1,12,11,86,226,40,12,63,304,39,06,53,045,46,20,37,161,,1*61
$GPGSV,3,2,12,48,35,219,31,19,32,076,33,25,29,313,47,24,19,226,25,1*6D
$GPGSV,3,3,12,17,10,086,17,22,10,138,15,05,08,182,,29,02,277,,1*6A
$GPGSV,1,1,04,11,86,226,32,06,53,045,37,25,29,313,35,24,19,226,18,8*6F
$GLGSV,2,1,08,76,64,287,42,86,64,302,40,85,41,034,45,75,38,180,18,1*75
$GLGSV,2,2,08,77,24,327,39,87,20,253,15,70,14,090,,69,09,029,47,1*72
$GAGSV,2,1,07,13,66,233,34,27,66,158,23,15,56,043,40,21,54,308,44,7*75
$GAGSV,2,2,07,30,15,142,19,26,13,228,27,34,06,047,23,7*44
$GAGSV,2,1,05,13,66,233,25,27,66,158,19,15,56,043,29,21,54,308,31,1*75
$GAGSV,2,2,05,34,06,047,21,1*41
$GBGSV,3,1,11,27,71,310,31,46,53,259,43,28,46,054,41,37,30,186,,1*7E
$GBGSV,3,2,11,30,25,265,42,36,23,313,49,41,15,127,18,14,12,051,20,1*70
$GBGSV,3,3,11,39,05,332,41,42,02,029,36,16,01,340,26,1*41
$GBGSV,2,1,06,27,71,310,34,46,53,259,25,28,46,054,32,36,23,313,25,5*76
$GBGSV,2,2,06,39,05,332,28,42,02,029,39,5*76
$PAIR010,0,0,2305,80898*0E
$GNGGA,222803.000,4000.625014,N,10514.643834,W,2,40,0.62,1648.475,M,-20.634,M,,*76
$GPGSV,3,1,12,11,86,226,41,12,63,304,39,06,53,045,46,20,38,160,26,1*6A
$GPGSV,3,2,12,48,35,219,31,19,31,077,34,25,29,313,46,24,19,226,26,1*6A
$GPGSV,3,3,12,22,10,138,,17,09,087,17,05,08,182,,29,02,277,,1*67
$GPGSV,1,1,04,11,86,226,32,06,53,045,37,25,29,313,34,24,19,226,18,8*6E
$GLGSV,2,1,07,76,64,287,42,86,64,302,40,85,41,034,45,75,38,180,17,1*75
$GLGSV,2,2,07,77,24,327,38,87,20,253,17,69,09,029,48,1*4A
$GAGSV,2,1,07,13,66,233,34,27,66,158,16,15,56,043,40,21,54,308,44,7*73
$GAGSV,2,2,07,30,15,142,19,26,13,228,27,34,06,047,23,7*44
$GAGSV,2,1,05,13,66,233,25,27,66,158,20,15,56,043,29,21,54,308,32,1*7C
$GAGSV,2,2,05,34,06,047,21,1*41
$GBGSV,3,1,12,27,71,310,31,46,53,259,43,28,46,054,41,37,30,186,,1*7D
$GBGSV,3,2,12,30,25,265,42,36,23,313,49,33,19,076,26,41,15,127,22,1*77
$GBGSV,3,3,12,14,12,051,17,39,05,332,41,42,02,029,34,16,01,340,27,1*75
$GBGSV,2,1,07,27,71,310,34,46,53,259,26,28,46,054,32,30,25,265,28,5*79
$GBGSV,2,2,07,36,23,313,26,39,05,332,29,42,02,029,39,5*47
$GNGGA,222808.000,4000.624936,N,10514.643834,W,2,39,0.62,1648.411,M,-20.635,M,,*78
$GPGSV,3,1,12,11,86,226,41,12,63,304,39,06,53,045,45,20,38,160,22,1*6D
$GPGSV,3,2,12,48,35,219,31,19,31,077,34,25,30,312,46,24,18,226,21,1*65
$GPGSV,3,3,12,22,09,139,18,17,09,087,22,05,08,182,,29,02,277,,1*61
$GPGSV,1,1,04,11,86,226,33,06,53,045,37,25,30,312,34,24,18,226,19,8*66
$GLGSV,2,1,08,76,64,287,42,86,64,302,41,85,41,034,45,75,38,180,21,1*7E
$GLGSV,2,2,08,77,24,327,38,87,20,253,22,70,14,090,,69,09,029,48,1*78
$GAGSV,2,1,07,13,66,233,34,27,66,158,,15,56,043,40,21,54,308,44,7*74
$GAGSV,2,2,07,30,15,142,18,26,13,228,27,34,06,047,25,7*43
$GAGSV,2,1,05,13,66,233,26,27,66,158,20,15,56,043,29,21,54,308,32,1*7F
$GAGSV,2,2,05,34,06,047,21,1*41
$GBGSV,3,1,12,27,71,310,31,46,53,259,43,28,46,054,41,37,30,186,21,1*7E
$GBGSV,3,2,12,30,25,265,42,36,23,313,49,33,19,076,24,41,15,127,21,1*76
$GBGSV,3,3,12,14,12,051,24,39,05,332,41,42,02,029,,16,01,340,27,1*72
$GBGSV,2,1,07,27,71,310,34,46,53,259,26,28,46,054,32,30,25,265,28,5*79
$GBGSV,2,2,07,36,23,313,27,39,05,332,29,42,02,029,38,5*47
$GNGGA,222813.000,4000.624990,N,10514.643864,W,2,40,0.62,1648.480,M,-20.634,M,,*7C
$GPGSV,3,1,12,11,86,226,41,12,63,304,40,06,53,045,45,20,38,160,15,1*67
$GPGSV,3,2,12,48,35,219,31,19,31,077,33,25,30,312,46,24,18,226,16,1*66
$GPGSV,3,3,12,22,09,139,15,17,09,087,27,05,08,182,,29,03,278,,1*67
$GPGSV,1,1,04,11,86,226,33,06,53,045,37,25,30,312,34,24,18,226,19,8*66
$GLGSV,2,1,07,76,64,287,42,86,64,302,41,85,41,034,44,75,38,180,18,1*7A
$GLGSV,2,2,07,77,24,327,37,87,20,253,25,69,09,029,48,1*44
$GAGSV,2,1,07,13,66,233,34,27,66,158,20,15,56,043,41,21,54,308,44,7*77
$GAGSV,2,2,07,30,15,142,11,26,13,228,24,34,06,047,26,7*4A
$GAGSV,2,1,05,13,66,233,26,27,66,158,19,15,56,043,29,21,54,308,32,1*75
$GAGSV,2,2,05,34,06,047,20,1*40
$GBGSV,3,1,12,27,71,310,30,46,53,259,43,28,46,054,41,37,30,186,21,1*7F
$GBGSV,3,2,12,30,25,265,43,36,23,313,48,33,19,076,26,41,15,127,19,1*7F
$GBGSV,3,3,12,14,12,051,20,39,05,332,41,42,02,029,33,16,01,340,27,1*76
$GBGSV,2,1,07,27,71,310,34,46,53,259,26,28,46,054,32,30,25,265,28,5*79
$GBGSV,2,2,07,36,23,313,27,39,05,332,29,42,02,029,38,5*47
$GNGGA,222818.000,4000.624846,N,10514.643858,W,2,39,0.62,1648.247,M,-20.635,M,,*70
$GPGSV,3,1,12,11,86,226,41,12,63,304,39,06,53,045,45,20,38,160,12,1*6E
$GPGSV,3,2,12,48,35,219,31,19,31,077,33,25,30,312,46,24,18,226,17,1*67
$GPGSV,3,3,12,22,09,139,13,17,09,087,29,05,08,182,,29,03,278,,1*6F
$GPGSV,1,1,04,11,86,226,33,06,53,045,36,25,30,312,34,24,18,226,19,8*67
$GLGSV,2,1,08,76,64,287,40,86,64,302,40,85,41,034,43,75,38,180,17,1*7E
$GLGSV,2,2,08,77,24,327,37,87,20,253,27,70,14,090,,69,09,029,48,1*72
$GAGSV,2,1,07,13,66,233,34,27,66,158,19,15,56,043,41,21,54,308,44,7*7D
$GAGSV,2,2,07,30,15,142,12,26,13,228,23,34,06,047,26,7*4E
$GAGSV,2,1,05,13,66,233,26,27,66,158,19,15,56,043,30,21,54,308,32,1*7D
$GAGSV,2,2,05,34,06,047,20,1*40
$GBGSV,3,1,12,27,71,310,,46,53,259,43,28,46,054,41,37,30,186,19,1*77
$GBGSV,3,2,12,30,25,265,43,36,23,313,48,33,19,076,26,41,15,127,15,1*73
$GBGSV,3,3,12,14,12,051,17,39,05,332,41,42,02,029,31,16,01,340,27,1*70
$GBGSV,2,1,07,27,71,310,34,46,53,259,26,28,46,054,32,30,25,265,28,5*79
$GBGSV,2,2,07,36,23,313,27,39,05,332,29,42,02,029,38,5*47
$GNGGA,222823.000,4000.624834,N,10514.643876,W,2,39,0.62,1648.238,M,-20.635,M,,*79
$GPGSV,3,1,12,11,86,226,41,12,63,304,37,06,53,045,45,20,38,160,,1*63
$GPGSV,3,2,12,48,35,219,31,19,31,077,31,25,30,312,46,24,18,226,24,1*65
$GPGSV,3,3,12,22,09,139,,17,09,087,28,05,08,182,,29,03,278,,1*6C
$GPGSV,1,1,04,11,86,226,33,06,53,045,36,25,30,312,34,24,18,226,19,8*67
$GLGSV,2,1,08,76,64,287,39,86,64,302,38,85,41,034,41,75,38,180,20,1*79
$GLGSV,2,2,08,77,24,327,37,87,20,253,19,70,14,090,,69,09,029,48,1*7F
$GAGSV,2,1,07,13,66,233,34,27,66,158,19,15,56,043,41,21,54,308,44,7*7D
$GAGSV,2,2,07,30,15,142,11,26,13,228,23,34,06,047,27,7*4C
$GAGSV,2,1,05,13,66,233,26,27,66,158,19,15,56,043,30,21,54,308,33,1*7C
$GAGSV,2,2,05,34,06,047,20,1*40
$GBGSV,3,1,12,27,71,310,,46,53,259,44,28,46,054,41,37,30,186,17,1*7E
$GBGSV,3,2,12,30,25,265,44,36,23,313,48,33,19,076,23,41,15,127,17,1*73
$GBGSV,3,3,12,14,12,051,,39,05,332,41,42,02,029,,16,01,340,27,1*74
$GBGSV,2,1,07,27,71,310,34,46,53,259,26,28,46,054,32,30,25,265,28,5*79
$GBGSV,2,2,07,36,23,313,26,39,05,332,29,42,02,029,38,5*46
$GNGGA,222828.000,4000.624822,N,10514.643894,W,2,39,0.62,1648.301,M,-20.634,M,,*73
$GPGSV,3,1,12,11,86,226,41,12,63,304,37,06,53,045,45,20,38,160,,1*63
$GPGSV,3,2,12,48,35,219,31,19,31,077,32,25,30,312,46,24,18,226,23,1*61
$GPGSV,3,3,12,22,09,139,,17,09,087,24,05,08,182,,29,03,278,,1*60
$GPGSV,1,1,04,11,86,226,33,06,53,045,36,25,30,312,34,24,18,226,18,8*66
$GLGSV,2,1,07,76,64,287,41,86,64,302,38,85,41,034,42,75,38,180,21,1*7B
$GLGSV,2,2,07,77,24,327,37,87,20,253,25,69,09,029,48,1*44
$GAGSV,2,1,06,27,66,158,21,13,66,233,34,15,56,043,41,21,54,308,44,7*77
$GAGSV,2,2,06,26,13,228,24,34,06,047,25,7*78
$GAGSV,2,1,05,13,66,233,25,27,66,158,19,15,56,043,30,21,54,308,33,1*7F
$GAGSV,2,2,05,34,06,047,19,1*4A
$GBGSV,3,1,12,27,71,310,26,46,53,259,44,28,46,054,41,37,30,186,16,1*7B
$GBGSV,3,2,12,30,25,265,44,36,23,313,48,33,19,076,,41,15,127,18,1*7D
$GBGSV,3,3,12,14,12,051,19,39,05,332,41,42,02,029,29,16,01,340,26,1*76
$GBGSV,2,1,06,27,71,310,34,46,53,259,25,28,46,054,32,30,25,265,28,5*7B
$GBGSV,2,2,06,39,05,332,29,42,02,029,37,5*79
$GNGGA,222833.000,4000.624810,N,10514.643912,W,2,39,0.62,1648.342,M,-20.635,M,,*71
$GPGSV,3,1,12,11,86,226,41,12,63,304,37,06,53,045,45,20,38,160,,1*63
$GPGSV,3,2,12,48,35,219,31,19,31,077,35,25,30,312,46,24,18,226,18,1*6E
$GPGSV,3,3,12,22,09,139,,17,09,087,24,05,08,182,22,29,03,278,,1*60
$GPGSV,1,1,04,11,86,226,33,06,53,045,36,25,30,312,34,24,18,226,18,8*66
$GLGSV,2,1,08,76,64,287,41,86,64,302,38,85,41,034,42,75,38,180,15,1*73
$GLGSV,2,2,08,77,24,327,35,87,20,253,24,70,14,090,,69,09,029,48,1*73
$GAGSV,2,1,07,13,66,233,34,27,66,158,20,15,56,043,41,21,54,308,44,7*77
$GAGSV,2,2,07,30,15,142,,26,13,228,26,34,06,047,24,7*4A
$GAGSV,2,1,05,13,66,233,26,27,66,158,18,15,56,043,31,21,54,308,33,1*7C
$GAGSV,2,2,05,34,06,047,19,1*4A
$GBGSV,3,1,12,27,71,310,27,46,53,259,44,28,46,054,41,37,30,186,16,1*7A
$GBGSV,3,2,12,30,25,265,43,36,23,313,48,33,19,076,15,41,15,127,18,1*7E
$GBGSV,3,3,12,14,12,051,17,39,05,332,42,42,02,029,,16,01,340,27,1*71
$GBGSV,2,1,06,27,71,310,34,46,53,259,24,28,46,054,32,30,25,265,28,5*7A
$GBGSV,2,2,06,39,05,332,29,42,02,029,37,5*79
$GNGGA,222838.000,4000.624786,N,10514.643936,W,2,39,0.62,1648.333,M,-20.634,M,,*7B
$GPGSV,3,1,12,11,86,226,41,12,63,304,37,06,53,045,45,20,38,160,,1*63
$GPGSV,3,2,12,48,35,219,31,19,31,077,34,25,30,312,46,24,18,226,23,1*67
$GPGSV,3,3,12,22,09,139,,17,09,087,26,05,08,182,23,29,03,278,,1*63
$GPGSV,1,1,04,11,86,226,33,06,53,045,36,25,30,312,34,24,18,226,18,8*66
$GLGSV,2,1,07,76,64,287,39,86,64,302,39,85,41,034,43,75,38,180,24,1*71
$GLGSV,2,2,07,77,24,327,35,87,20,253,27,69,09,029,48,1*44
$GAGSV,2,1,07,13,67,235,34,27,66,158,19,15,55,043,41,21,54,308,44,7*79
$GAGSV,2,2,07,30,15,142,,26,13,228,26,34,06,047,29,7*47
$GAGSV,2,1,05,13,67,235,26,27,66,158,18,15,55,043,31,21,54,308,33,1*78
$GAGSV,2,2,05,34,06,047,19,1*4A
$GBGSV,3,1,12,27,71,310,28,46,53,259,44,28,46,054,41,37,30,186,,1*72
$GBGSV,3,2,12,30,25,265,42,36,23,313,48,33,19,076,20,41,15,127,14,1*75
$GBGSV,3,3,12,14,12,051,21,39,05,332,43,42,02,029,27,16,01,340,26,1*71
$GBGSV,2,1,06,27,71,310,34,46,53,259,23,28,46,054,32,36,23,313,27,5*72
$GBGSV,2,2,06,39,05,332,29,42,02,029,38,5*76
$GNGGA,222843.000,4000.624774,N,10514.643954,W,2,40,0.62,1648.311,M,-20.634,M,,*70
$GPGSV,3,1,12,11,86,226,41,12,63,304,37,06,53,045,45,20,38,160,,1*63
$GPGSV,3,2,12,48,35,219,31,19,31,077,31,25,30,312,46,24,18,226,25,1*64
$GPGSV,3,3,12,22,09,139,,17,09,087,25,05,08,182,,29,03,278,,1*61
$GPGSV,1,1,04,11,86,226,33,06,53,045,37,25,30,312,33,24,18,226,18,8*60
$GLGSV,2,1,07,76,64,287,40,86,64,302,40,85,41,034,43,75,38,180,25,1*70
$GLGSV,2,2,07,77,24,327,36,87,20,253,24,69,09,029,47,1*4B
$GAGSV,2,1,07,13,67,235,34,27,66,158,19,21,55,307,44,15,55,043,41,7*77
$GAGSV,2,2,07,30,15,142,,26,13,228,26,34,06,047,28,7*46
$GAGSV,2,1,05,13,67,235,25,27,66,158,19,15,55,043,32,21,55,307,33,1*77
$GAGSV,2,2,05,34,06,047,19,1*4A
$GBGSV,3,1,12,27,71,310,30,46,53,259,44,28,46,054,41,37,30,186,27,1*7E
$GBGSV,3,2,12,30,25,265,41,36,23,313,47,33,19,076,21,41,15,127,15,1*79
$GBGSV,3,3,12,14,12,051,22,39,05,332,44,42,02,029,32,16,01,340,26,1*71
$GBGSV,2,1,07,27,71,310,34,46,53,259,22,28,46,054,32,30,25,265,35,5*71
$GBGSV,2,2,07,36,23,313,27,39,05,332,29,42,02,029,37,5*48
$GNGGA,222848.000,4000.624732,N,10514.643942,W,2,40,0.62,1648.284,M,-20.634,M,,*73
$GPGSV,3,1,12,11,86,226,42,12,63,304,38,06,53,045,45,20,38,160,,1*6F
$GPGSV,3,2,12,48,35,219,31,19,31,077,32,25,30,312,46,24,18,226,26,1*64
$GPGSV,3,3,12,22,09,139,,17,09,087,,05,08,182,,29,03,278,,1*66
$GPGSV,1,1,04,11,86,226,33,06,53,045,37,25,30,312,32,24,18,226,18,8*61
$GLGSV,2,1,08,76,64,287,38,86,64,302,39,85,41,034,43,75,38,180,25,1*7E
$GLGSV,2,2,08,77,24,327,37,87,20,253,26,70,14,090,,69,09,029,47,1*7C
$GAGSV,2,1,07,13,67,235,34,27,66,158,19,21,55,307,44,15,55,043,41,7*77
$GAGSV,2,2,07,30,15,142,,26,14,229,25,34,06,047,28,7*43
$GAGSV,2,1,05,13,67,235,25,27,66,158,19,15,55,043,31,21,55,307,33,1*74
$GAGSV,2,2,05,34,06,047,19,1*4A
$GBGSV,3,1,12,27,71,310,31,46,53,259,43,28,46,054,41,37,30,186,26,1*79
$GBGSV,3,2,12,30,25,265,40,36,23,313,47,33,19,076,24,41,15,127,15,1*7D
$GBGSV,3,3,12,14,12,051,18,39,05,332,44,42,02,029,28,16,01,340,26,1*73
$GBGSV,2,1,07,27,71,310,34,46,53,259,20,28,46,054,32,30,25,265,35,5*73
$GBGSV,2,2,07,36,23,313,27,39,05,332,28,42,02,029,37,5*49
$GNGGA,222853.000,4000.624714,N,10514.643960,W,2,40,0.62,1648.311,M,-20.634,M,,*70
$GPGSV,3,1,12,11,86,226,42,12,63,304,38,06,53,045,45,20,38,160,25,1*68
$GPGSV,3,2,12,48,35,219,30,19,31,077,32,25,30,312,46,24,18,226,25,1*66
$GPGSV,3,3,12,22,09,139,17,17,09,087,,05,08,182,,29,03,278,,1*60
$GPGSV,1,1,04,11,86,226,33,06,53,045,37,25,30,312,32,24,18,226,18,8*61
$GLGSV,2,1,07,76,64,287,39,86,64,302,38,85,41,034,43,75,38,180,21,1*75
$GLGSV,2,2,07,77,24,327,37,87,20,253,20,69,09,029,47,1*4E
$GAGSV,2,1,07,13,67,235,35,27,65,159,21,15,55,043,41,21,55,307,44,7*7F
$GAGSV,2,2,07,30,14,143,,26,14,229,24,34,06,047,28,7*42
$GAGSV,2,1,05,13,67,235,25,27,65,159,19,15,55,043,32,21,55,307,33,1*75
$GAGSV,2,2,05,34,06,047,19,1*4A
$GBGSV,3,1,11,27,71,310,32,46,53,259,43,28,46,054,42,37,30,186,,1*7E
$GBGSV,3,2,11,30,25,265,40,36,23,313,45,33,19,076,27,14,12,051,17,1*7A
$GBGSV,3,3,11,39,05,332,44,42,02,029,29,16,01,340,25,1*49
$GBGSV,2,1,07,27,71,310,34,46,53,259,20,28,46,054,32,30,25,265,35,5*73
$GBGSV,2,2,07,36,23,313,27,39,05,332,28,42,02,029,37,5*49
$GNGGA,222858.000,4000.624642,N,10514.643966,W,2,40,0.62,1648.191,M,-20.634,M,,*75
$GPGSV,3,1,12,11,86,226,42,12,63,304,40,06,53,045,45,20,38,160,24,1*66
$GPGSV,3,2,12,48,35,219,30,19,31,077,33,25,30,312,46,24,18,226,21,1*63
$GPGSV,3,3,12,22,09,139,10,17,09,087,,05,08,182,,29,03,278,,1*67
$GPGSV,1,1,04,11,86,226,33,06,53,045,38,25,30,312,31,24,18,226,18,8*6D
$GLGSV,2,1,07,76,64,287,39,86,64,302,38,85,41,034,43,75,38,180,29,1*7D
$GLGSV,2,2,07,77,24,327,37,87,20,253,27,69,09,029,46,1*48
$GAGSV,2,1,07,13,67,235,35,27,65,159,25,15,55,043,41,21,55,307,44,7*7B
$GAGSV,2,2,07,30,14,143,,26,14,229,27,34,05,047,26,7*4C
$GAGSV,2,1,05,13,67,235,25,27,65,159,18,15,55,043,32,21,55,307,33,1*74
$GAGSV,2,2,05,34,05,047,18,1*48
$GBGSV,3,1,12,27,71,310,33,46,53,259,43,28,46,054,42,37,30,186,,1*7C
$GBGSV,3,2,12,30,25,265,40,36,23,313,45,33,19,076,24,41,15,127,,1*7B
$GBGSV,3,3,12,14,12,051,,39,05,332,45,42,02,029,33,16,01,340,27,1*70
$GBGSV,2,1,07,27,71,310,34,46,53,259,22,28,46,054,33,30,25,265,35,5*70
$GBGSV,2,2,07,36,23,313,27,39,05,332,28,42,02,029,37,5*49
$PAIR010,0,0,2305,80958*03
$GNGGA,222903.000,4000.624660,N,10514.643990,W,2,40,0.62,1648.173,M,-20.634,M,,*7F
$GPGSV,3,1,12,11,86,226,42,12,63,304,41,06,53,045,46,20,38,160,,1*62
$GPGSV,3,2,12,48,35,219,31,19,31,077,34,25,30,312,45,24,18,226,20,1*67
$GPGSV,3,3,12,22,09,139,13,17,09,087,,05,08,182,,29,03,278,,1*64
$GPGSV,1,1,04,11,86,226,33,06,53,045,38,25,30,312,31,24,18,226,18,8*6D
$GLGSV,2,1,08,76,64,287,40,86,64,302,38,85,41,034,42,75,38,180,28,1*7C
$GLGSV,2,2,08,77,24,327,36,87,20,253,20,70,14,090,,69,09,028,45,1*78
$GAGSV,2,1,06,13,67,235,35,27,65,159,24,21,55,307,44,15,55,043,41,7*7B
$GAGSV,2,2,06,26,14,229,26,34,05,047,25,7*7F
$GAGSV,2,1,05,13,67,235,25,27,65,159,18,15,55,043,33,21,55,307,33,1*75
$GAGSV,2,2,05,34,05,047,19,1*49
$GBGSV,3,1,11,27,71,310,33,46,53,259,43,28,46,054,42,37,30,186,,1*7F
$GBGSV,3,2,11,30,25,265,41,36,23,313,45,33,19,076,18,41,15,127,,1*76
$GBGSV,3,3,11,39,05,332,45,42,02,029,33,16,01,340,26,1*40
$GBGSV,2,1,07,27,71,310,33,46,53,259,21,28,46,054,33,30,25,265,35,5*74
$GBGSV,2,2,07,36,23,313,27,39,05,332,27,42,02,029,36,5*47
$GNGGA,222908.000,4000.624510,N,10514.643960,W,2,40,0.62,1647.956,M,-20.634,M,,*7F
$GPGSV,3,1,12,11,86,226,42,12,63,304,40,06,53,045,46,20,38,160,,1*63
$GPGSV,3,2,12,48,35,219,31,19,31,077,34,25,30,312,46,24,18,226,17,1*60
$GPGSV,3,3,12,22,09,139,16,17,09,087,17,05,08,182,,29,03,278,,1*67
$GPGSV,1,1,04,11,86,226,33,06,53,045,38,25,30,312,31,24,18,226,18,8*6D
$GLGSV,2,1,08,76,64,287,41,86,64,302,39,85,41,034,42,75,38,180,23,1*77
$GLGSV,2,2,08,77,24,327,35,87,20,253,26,70,15,088,,69,09,028,44,1*74
$GAGSV,2,1,07,13,67,235,36,27,65,159,24,15,55,043,41,21,55,307,44,7*79
$GAGSV,2,2,07,30,14,143,16,26,14,229,21,34,05,047,21,7*4A
$GAGSV,2,1,05,13,67,235,25,27,65,159,18,15,55,043,33,21,55,307,33,1*75
$GAGSV,2,2,05,34,05,047,19,1*49
$GBGSV,3,1,12,27,71,310,32,46,53,259,43,28,46,054,42,37,30,186,20,1*7F
$GBGSV,3,2,12,30,25,265,42,36,23,313,46,33,19,076,18,41,15,127,,1*75
$GBGSV,3,3,12,14,12,051,,39,05,332,45,42,02,029,33,16,01,340,26,1*71
$GBGSV,2,1,07,27,71,310,33,46,53,259,20,28,46,054,33,30,25,265,28,5*79
$GBGSV,2,2,07,36,23,313,27,39,05,332,27,42,02,029,36,5*47
$GNGGA,222913.000,4000.624492,N,10514.643978,W,2,40,0.62,1647.981,M,-20.634,M,,*7D
$GPGSV,3,1,12,11,86,226,43,12,63,304,40,06,53,045,46,48,39,209,31,1*63
$GPGSV,3,2,12,20,38,160,28,19,31,077,35,25,30,312,47,24,18,226,21,1*63
$GPGSV,3,3,12,22,09,139,20,17,09,087,19,05,08,182,,29,03,278,,1*6C
$GPGSV,1,1,04,11,86,226,33,06,53,045,38,25,30,312,30,24,18,226,18,8*6C
$GLGSV,2,1,08,76,64,283,41,86,64,302,38,85,41,034,42,75,36,180,14,1*78
$GLGSV,2,2,08,77,25,327,34,87,20,253,28,70,15,088,,69,09,028,44,1*7A
$GAGSV,2,1,07,13,67,235,36,27,65,159,24,15,55,043,41,21,55,307,45,7*78
$GAGSV,2,2,07,30,14,143,19,26,14,229,22,34,05,047,18,7*4C
$GAGSV,2,1,05,13,67,235,25,27,65,159,18,15,55,043,33,21,55,307,33,1*75
$GAGSV,2,2,05,34,05,047,18,1*48
$GBGSV,3,1,12,27,71,310,31,46,53,259,43,28,46,054,42,37,30,186,21,1*7D
$GBGSV,3,2,12,30,25,265,42,36,23,313,46,33,19,076,16,41,15,127,18,1*72
$GBGSV,3,3,12,14,12,051,18,39,05,332,46,42,02,029,33,16,01,340,26,1*7B
$GBGSV,2,1,07,27,71,310,33,46,53,259,21,28,46,054,33,30,25,265,29,5*79
$GBGSV,2,2,07,36,23,313,26,39,05,332,27,42,02,029,36,5*46
$GNGGA,222918.000,4000.624516,N,10514.643990,W,2,40,0.62,1648.043,M,-20.634,M,,*75
$GPGSV,3,1,12,11,86,226,43,12,63,304,41,06,53,045,46,48,39,209,31,1*62
$GPGSV,3,2,12,20,38,160,26,19,31,077,35,25,30,312,47,24,18,226,25,1*69
$GPGSV,3,3,12,22,09,139,,17,09,087,19,05,08,182,19,29,03,278,,1*66
$GPGSV,1,1,04,11,86,226,33,06,53,045,38,25,30,312,29,24,18,226,18,8*64
$GLGSV,2,1,08,76,64,283,40,86,64,302,38,85,41,034,42,75,36,180,21,1*7F
$GLGSV,2,2,08,77,25,327,34,87,20,253,32,70,15,088,,69,09,028,44,1*71
$GAGSV,2,1,07,13,67,235,36,27,65,159,21,15,55,043,41,21,55,307,45,7*7D
$GAGSV,2,2,07,30,14,143,18,26,14,229,23,34,05,047,20,7*47
$GAGSV,2,1,05,13,67,235,25,27,65,159,19,15,55,043,33,21,55,307,33,1*74
$GAGSV,2,2,05,34,05,047,18,1*48
$GBGSV,3,1,12,27,71,310,31,46,53,259,43,28,46,054,42,37,30,186,20,1*7C
$GBGSV,3,2,12,30,25,265,42,36,23,313,46,33,19,076,,41,15,127,15,1*78
$GBGSV,3,3,12,14,12,051,17,39,05,332,46,42,02,029,34,16,01,340,25,1*70
$GBGSV,2,1,07,27,71,310,33,46,53,259,22,28,46,054,33,30,25,265,28,5*7B
$GBGSV,2,2,07,36,23,313,26,39,05,332,27,42,02,029,36,5*46
$GNGGA,222923.000,4000.624522,N,10514.643990,W,2,39,0.62,1648.054,M,-20.634,M,,*72
$GPGSV,3,1,12,11,86,226,43,12,63,304,40,06,53,045,46,48,39,209,31,1*63
$GPGSV,3,2,12,20,38,160,,19,31,077,34,25,30,312,47,24,18,226,25,1*6C
$GPGSV,3,3,12,22,09,139,,17,09,087,17,05,08,182,,29,03,278,,1*60
$GPGSV,1,1,03,11,86,226,33,06,53,045,38,24,18,226,18,8*5C
$GLGSV,2,1,08,76,64,283,39,86,64,305,38,85,39,035,42,75,36,180,16,1*7C
$GLGSV,2,2,08,77,25,327,35,87,21,254,32,70,15,088,,69,09,028,43,1*71
$GAGSV,2,1,07,13,67,235,36,27,65,159,26,15,55,043,41,21,55,307,45,7*7A
$GAGSV,2,2,07,30,14,143,16,26,14,229,20,34,05,047,22,7*48
$GAGSV,2,1,05,13,67,235,26,27,65,159,18,15,55,043,33,21,55,307,33,1*76
$GAGSV,2,2,05,34,05,047,18,1*48
$GBGSV,3,1,12,27,71,310,30,46,53,259,43,28,46,054,42,37,30,186,,1*7F
$GBGSV,3,2,12,30,25,265,41,36,23,313,46,33,19,076,22,41,15,127,13,1*7D
$GBGSV,3,3,12,14,12,051,15,39,05,332,46,42,02,029,36,16,01,340,26,1*73
$GBGSV,2,1,07,27,71,310,33,46,53,259,23,28,46,054,32,30,25,265,28,5*7B
$GBGSV,2,2,07,36,23,313,27,39,05,332,27,42,02,029,36,5*47
$GNGGA,222928.000,4000.624480,N,10514.643984,W,2,39,0.62,1648.031,M,-20.634,M,,*76
$GPGSV,3,1,12,11,86,226,43,12,63,304,40,06,53,045,46,48,39,209,31,1*63
$GPGSV,3,2,12,20,38,160,,19,31,077,34,25,30,312,47,24,18,226,24,1*6D
$GPGSV,3,3,12,22,09,139,19,17,09,087,,05,08,182,25,29,03,278,,1*69
$GPGSV,1,1,03,11,86,226,33,06,53,045,38,24,18,226,18,8*5C
$GLGSV,2,1,08,76,64,283,39,86,64,305,40,85,39,035,43,75,36,180,19,1*7D
$GLGSV,2,2,08,77,25,327,34,87,21,254,34,70,15,088,,69,09,028,41,1*74
$GAGSV,2,1,07,13,67,235,36,27,65,159,23,15,55,043,41,21,55,307,45,7*7F
$GAGSV,2,2,07,30,14,143,,26,14,229,20,34,05,047,23,7*4E
$GAGSV,2,1,05,13,67,235,25,27,65,159,18,15,55,043,33,21,55,307,33,1*75
$GAGSV,2,2,05,34,05,047,18,1*48
$GBGSV,3,1,12,27,71,310,32,46,53,259,44,28,46,054,43,37,30,186,,1*7B
$GBGSV,3,2,12,30,25,265,41,36,23,313,45,33,19,076,20,41,15,127,15,1*7A
$GBGSV,3,3,12,14,12,051,18,39,05,332,46,42,02,029,37,16,01,340,27,1*7E
$GBGSV,2,1,07,27,71,310,33,46,53,259,23,28,46,054,32,30,25,265,29,5*7A
$GBGSV,2,2,07,36,23,313,26,39,05,332,27,42,02,029,36,5*46
$GNGGA,222933.000,4000.624498,N,10514.644026,W,2,40,0.58,1648.138,M,-20.634,M,,*7C
$GPGSV,3,1,12,11,86,226,43,12,63,304,39,06,53,045,46,48,39,209,31,1*6D
$GPGSV,3,2,12,20,38,160,25,19,31,077,36,25,30,312,47,24,18,226,20,1*6C
$GPGSV,3,3,12,22,09,139,17,17,09,087,21,05,08,182,23,29,03,278,,1*62
$GPGSV,1,1,03,11,86,226,33,06,53,045,39,24,18,226,18,8*5D
$GLGSV,2,1,07,76,64,283,37,86,64,305,40,85,39,035,45,75,36,180,19,1*7A
$GLGSV,2,2,07,77,25,327,34,87,21,254,36,69,09,028,41,1*4A
$GAGSV,2,1,07,13,67,235,36,27,65,159,22,15,55,043,41,21,55,307,45,7*7E
$GAGSV,2,2,07,30,14,143,18,26,14,229,21,34,05,047,21,7*44
$GAGSV,2,1,05,13,67,235,25,27,65,159,19,15,55,043,34,21,55,307,33,1*73
$GAGSV,2,2,05,34,05,047,18,1*48
$GBGSV,3,1,12,27,71,310,34,46,53,259,44,28,46,054,43,37,30,186,18,1*74
$GBGSV,3,2,12,30,25,265,39,36,23,313,45,33,19,076,,41,15,127,15,1*77
$GBGSV,3,3,12,14,12,051,18,39,05,332,46,42,02,029,39,16,01,340,26,1*71
$GBGSV,2,1,07,27,71,310,33,46,53,259,24,28,46,054,32,30,25,265,28,5*7C
$GBGSV,2,2,07,36,23,313,26,39,05,332,28,42,02,029,36,5*49
$GNGGA,222938.000,4000.624462,N,10514.644026,W,2,39,0.58,1648.191,M,-20.635,M,,*7E
$GPGSV,3,1,12,11,86,226,43,12,63,304,39,06,53,045,46,48,39,209,31,1*6D
$GPGSV,3,2,12,20,38,160,17,19,31,077,36,25,30,312,48,24,18,226,,1*60
$GPGSV,3,3,12,22,09,139,17,17,09,087,17,05,08,182,22,29,03,278,,1*66
$GPGSV,1,1,03,11,86,226,33,06,53,045,39,24,18,226,18,8*5D
$GLGSV,2,1,08,76,64,283,39,86,64,305,41,85,39,035,45,75,36,180,19,1*7A
$GLGSV,2,2,08,77,25,327,34,87,21,254,36,70,15,088,,69,09,028,43,1*74
$GAGSV,2,1,07,13,67,235,35,27,65,159,24,15,55,043,41,21,55,307,45,7*7B
$GAGSV,2,2,07,30,14,143,,26,14,229,22,34,05,047,19,7*45
$GAGSV,2,1,05,13,67,235,26,27,65,159,19,15,55,043,34,21,55,307,33,1*70
$GAGSV,2,2,05,34,05,047,18,1*48
$GBGSV,3,1,12,27,71,310,34,46,53,259,44,28,46,054,43,37,30,186,16,1*7A
$GBGSV,3,2,12,30,25,265,36,36,23,313,46,33,19,076,22,41,15,127,,1*7F
$GBGSV,3,3,12,14,12,050,,39,05,332,46,42,02,029,39,16,01,340,27,1*78
$GBGSV,2,1,07,27,71,310,33,46,53,259,24,28,46,054,33,30,25,265,28,5*7D
$GBGSV,2,2,07,36,23,313,25,39,05,332,26,42,02,029,35,5*47
$GNGGA,222943.000,4000.624324,N,10514.643930,W,2,40,0.62,1648.118,M,-20.635,M,,*78
$GPGSV,3,1,12,11,86,226,43,12,63,304,39,06,53,045,45,48,39,209,31,1*6E
$GPGSV,3,2,12,20,38,160,,19,31,077,36,25,30,312,48,24,18,226,26,1*62
$GPGSV,3,3,12,22,09,139,,17,09,087,14,05,08,182,21,29,03,278,,1*60
$GPGSV,1,1,04,11,86,226,33,06,53,045,39,25,30,312,34,24,18,226,18,8*69
$GLGSV,2,1,08,76,64,283,40,86,64,305,40,85,39,035,45,75,36,180,22,1*7D
$GLGSV,2,2,08,77,25,327,33,87,21,254,37,70,15,088,,69,09,028,43,1*72
$GAGSV,2,1,07,13,67,235,35,27,65,159,22,15,55,043,42,21,55,307,45,7*7E
$GAGSV,2,2,07,30,14,143,20,26,14,229,24,34,05,047,18,7*40
$GAGSV,2,1,05,13,67,235,26,27,65,159,19,15,55,043,34,21,55,307,33,1*70
$GAGSV,2,2,05,34,05,047,18,1*48
$GBGSV,3,1,12,27,71,310,35,46,53,259,44,28,46,054,43,37,30,186,,1*7C
$GBGSV,3,2,12,30,25,265,35,36,23,313,47,33,19,076,18,41,15,127,20,1*76
$GBGSV,3,3,12,14,12,050,23,39,05,332,45,42,02,029,39,16,01,340,27,1*7A
$GBGSV,2,1,07,27,71,310,33,46,53,259,24,28,46,054,33,30,25,265,28,5*7D
$GBGSV,2,2,07,36,23,313,24,39,05,332,27,42,02,029,35,5*47
$GNGGA,222948.000,4000.624258,N,10514.643882,W,2,41,0.57,1648.017,M,-20.634,M,,*79
$GPGSV,3,1,12,11,86,226,43,12,63,304,39,06,53,045,45,48,39,209,31,1*6E
$GPGSV,3,2,12,20,38,160,24,19,31,077,37,25,30,312,48,24,18,226,24,1*67
$GPGSV,3,3,12,22,09,139,,17,09,087,,05,08,182,20,29,03,278,,1*64
$GPGSV,1,1,04,11,86,226,33,06,53,045,39,25,30,312,34,24,18,226,18,8*69
$GLGSV,2,1,08,76,64,283,41,86,64,305,40,85,39,035,45,75,36,180,23,1*7D
$GLGSV,2,2,08,77,25,327,31,87,21,254,38,70,15,088,,69,09,028,42,1*7E
$GAGSV,2,1,07,13,67,235,35,27,65,159,20,15,55,043,42,21,55,307,45,7*7C
$GAGSV,2,2,07,30,14,143,19,26,14,229,24,34,05,047,22,7*43
$GAGSV,2,1,05,13,67,235,26,27,65,159,19,15,55,043,35,21,55,307,33,1*71
$GAGSV,2,2,05,34,05,047,18,1*48
$GBGSV,3,1,12,27,71,310,35,46,53,259,44,28,46,054,43,37,30,186,20,1*7E
$GBGSV,3,2,12,30,25,265,35,36,23,313,47,33,19,076,18,41,15,127,20,1*76
$GBGSV,3,3,12,14,12,050,18,39,05,332,45,42,02,029,40,16,01,340,28,1*73
$GBGSV,2,1,07,27,71,310,33,46,53,259,25,28,46,054,33,30,25,265,28,5*7C
$GBGSV,2,2,07,36,23,313,24,39,05,332,27,42,02,029,36,5*44
$GNGGA,222953.000,4000.624300,N,10514.643882,W,2,41,0.57,1648.129,M,-20.634,M,,*73
$GPGSV,3,1,12,11,86,226,43,12,63,304,38,06,53,045,45,48,39,209,31,1*6F
$GPGSV,3,2,12,20,38,160,22,19,31,077,36,25,30,312,48,24,18,226,21,1*65
$GPGSV,3,3,12,22,09,139,,17,09,087,,05,08,182,19,29,03,278,,1*6E
$GPGSV,1,1,04,11,86,226,33,06,53,045,39,25,30,312,34,24,18,226,17,8*66
$GLGSV,2,1,08,76,64,283,40,86,64,305,40,85,39,035,45,75,36,180,17,1*7B
$GLGSV,2,2,08,77,25,327,31,87,21,254,38,70,15,088,,69,09,028,43,1*7F
$GAGSV,2,1,07,13,67,235,35,27,65,159,19,15,55,043,42,21,55,307,45,7*76
$GAGSV,2,2,07,30,14,143,20,26,14,229,23,34,05,047,24,7*48
$GAGSV,2,1,05,13,67,235,26,27,65,159,19,15,55,043,35,21,55,307,33,1*71
$GAGSV,2,2,05,34,05,047,19,1*49
$GBGSV,3,1,12,27,71,314,35,46,53,259,44,28,46,055,43,37,30,186,20,1*7B
$GBGSV,3,2,12,30,26,266,35,36,23,313,48,33,19,076,23,41,15,127,25,1*74
$GBGSV,3,3,12,14,12,050,22,39,05,332,45,42,02,029,41,16,01,340,28,1*7B
$GBGSV,2,1,07,27,71,314,33,46,53,259,26,28,46,055,32,30,26,266,28,5*7B
$GBGSV,2,2,07,36,23,313,25,39,05,332,28,42,02,029,35,5*49
$GNGGA,222958.000,4000.624288,N,10514.643852,W,2,41,0.57,1648.188,M,-20.634,M,,*7F
$GPGSV,3,1,12,11,86,226,43,12,63,304,40,06,53,045,45,48,39,209,31,1*60
$GPGSV,3,2,12,20,38,160,21,19,31,077,36,25,30,312,47,24,18,226,20,1*68
$GPGSV,3,3,12,22,09,139,,17,09,087,22,05,08,182,18,29,03,278,,1*6F
$GPGSV,1,1,04,11,86,226,33,06,53,045,39,25,30,312,33,24,18,226,17,8*61
$GLGSV,2,1,08,76,64,283,40,86,64,305,41,85,39,035,45,75,36,180,20,1*7E
$GLGSV,2,2,08,77,25,327,31,87,21,254,38,70,15,088,,69,09,028,44,1*78
$GAGSV,2,1,07,13,67,235,35,27,65,159,21,15,55,043,42,21,55,307,45,7*7D
$GAGSV,2,2,07,30,14,143,17,26,14,229,22,34,05,047,25,7*4C
$GAGSV,2,1,05,13,67,235,26,27,65,159,19,15,55,043,35,21,55,307,33,1*71
$GAGSV,2,2,05,34,05,047,18,1*48
$GBGSV,3,1,12,27,71,314,34,46,53,259,44,28,46,055,44,37,30,186,18,1*76
$GBGSV,3,2,12,30,26,266,35,36,23,313,48,33,19,075,25,41,15,127,26,1*72
$GBGSV,3,3,12,14,12,050,,39,05,332,45,42,02,029,41,16,01,340,26,1*75
$GBGSV,2,1,07,27,71,314,33,46,53,259,25,28,46,055,32,30,26,266,28,5*78
$GBGSV,2,2,07,36,23,313,25,39,05,332,29,42,02,029,36,5*4B
$PAIR010,0,0,2305,81018*0F
$GNGGA,223003.000,4000.624252,N,10514.643756,W,2,41,0.57,1648.035,M,-20.634,M,,*72
$GPGSV,3,1,12,11,86,226,43,12,63,304,41,06,53,045,45,48,39,209,31,1*61
$GPGSV,3,2,12,20,38,160,21,19,31,077,37,25,30,312,47,24,18,226,27,1*6E
$GPGSV,3,3,12,22,09,139,,17,09,087,25,05,08,182,18,29,03,278,,1*68
$GPGSV,1,1,04,11,86,226,32,06,53,045,40,25,30,312,32,24,18,226,17,8*6F
$GLGSV,2,1,08,76,64,283,40,86,64,305,42,85,39,035,45,75,36,180,20,1*7D
$GLGSV,2,2,08,77,25,327,29,87,21,254,38,70,15,088,,69,09,028,45,1*70
$GAGSV,2,1,07,13,67,235,34,27,65,159,22,15,55,043,42,21,55,307,45,7*7F
$GAGSV,2,2,07,30,14,143,15,26,14,229,18,34,05,047,27,7*45
$GAGSV,2,1,05,13,67,235,26,27,65,159,19,15,55,043,35,21,55,307,33,1*71
$GAGSV,2,2,05,34,05,047,17,1*47
$GBGSV,3,1,12,27,71,314,29,46,53,259,44,28,46,055,44,37,29,185,15,1*7C
$GBGSV,3,2,12,30,26,266,36,36,23,313,48,33,19,075,,41,16,126,25,1*77
$GBGSV,3,3,12,14,12,050,22,39,05,332,45,42,02,029,41,16,01,340,26,1*75
$GBGSV,2,1,07,27,71,314,33,46,53,259,26,28,46,055,32,30,26,266,28,5*7B
$GBGSV,2,2,07,36,23,313,25,39,05,332,29,42,02,029,35,5*48
$GNGGA,223008.000,4000.624180,N,10514.643642,W,2,41,0.57,1647.857,M,-20.634,M,,*72
$GPGSV,3,1,12,11,86,226,43,12,63,304,41,06,53,045,45,48,39,209,31,1*61
$GPGSV,3,2,12,20,38,160,22,19,31,077,37,25,30,312,47,24,18,226,28,1*62
$GPGSV,3,3,12,22,09,139,,17,09,087,22,05,08,182,,29,03,278,,1*66
$GPGSV,1,1,04,11,86,226,32,06,53,045,40,25,30,312,28,24,18,226,16,8*65
$GLGSV,2,1,08,76,64,283,40,86,64,305,42,85,39,035,45,75,36,180,15,1*7B
$GLGSV,2,2,08,77,25,327,28,87,21,254,37,70,15,088,,69,09,028,45,1*7E
$GAGSV,2,1,07,13,67,235,35,27,65,159,23,15,55,043,43,21,55,307,44,7*7F
$GAGSV,2,2,07,30,14,143,15,26,14,229,15,34,05,047,29,7*46
$GAGSV,2,1,05,13,67,235,26,27,65,159,19,15,55,043,35,21,55,307,33,1*71
$GAGSV,2,2,05,34,05,047,17,1*47
$GBGSV,3,1,12,27,71,314,25,46,52,257,44,28,46,055,44,37,29,185,15,1*7F
$GBGSV,3,2,12,30,26,266,37,36,23,313,48,33,19,075,,41,16,126,19,1*79
$GBGSV,3,3,12,14,12,050,24,39,05,332,45,42,02,028,41,16,01,340,26,1*72
$GBGSV,2,1,07,27,71,314,32,46,52,257,26,28,46,055,32,30,26,266,28,5*75
$GBGSV,2,2,07,36,23,313,26,39,05,332,29,42,02,028,35,5*4A
$GNGGA,223013.000,4000.624138,N,10514.643624,W,2,40,0.57,1647.711,M,-20.634,M,,*77
$GPGSV,3,1,12,11,86,226,43,12,63,304,42,06,53,045,45,48,39,209,30,1*63
$GPGSV,3,2,12,20,38,160,16,19,31,077,37,25,30,312,47,24,18,226,29,1*64
$GPGSV,3,3,12,22,09,139,,17,09,087,,05,08,182,,29,03,278,,1*66
$GPGSV,1,1,04,11,86,226,32,06,53,045,40,25,30,312,27,24,18,226,16,8*6A
$GLGSV,2,1,08,76,64,283,40,86,64,305,42,85,39,035,46,75,36,180,22,1*7C
$GLGSV,2,2,08,77,25,327,28,87,21,254,35,70,15,088,,69,09,028,44,1*7D
$GAGSV,2,1,07,13,67,235,35,27,65,159,23,15,55,043,43,21,55,307,44,7*7F
$GAGSV,2,2,07,30,14,143,12,26,14,229,22,34,05,047,29,7*45
$GAGSV,2,1,05,13,67,235,26,27,65,159,19,15,55,043,35,21,55,307,32,1*70
$GAGSV,2,2,05,34,05,047,17,1*47
$GBGSV,3,1,12,27,71,314,,46,52,257,44,28,46,055,45,37,29,185,14,1*78
$GBGSV,3,2,12,30,26,266,40,36,23,313,47,33,19,075,22,41,16,126,,1*7E
$GBGSV,3,3,12,14,12,050,24,39,05,332,46,42,02,028,40,16,01,340,26,1*70
$GBGSV,2,1,07,27,71,314,32,46,52,257,26,28,46,055,32,30,26,266,28,5*75
$GBGSV,2,2,07,36,23,313,26,39,05,332,29,42,02,028,34,5*4B
$GNGGA,223018.000,4000.624090,N,10514.643642,W,2,40,0.57,1647.435,M,-20.634,M,,*7A
$GPGSV,3,1,12,11,86,226,43,12,63,304,42,06,53,045,45,48,39,209,31,1*62
$GPGSV,3,2,12,20,38,160,17,19,31,077,37,25,30,312,47,24,18,226,27,1*6B
$GPGSV,3,3,12,22,09,139,23,17,09,087,16,05,08,182,,29,03,278,,1*60
$GPGSV,1,1,04,11,86,226,32,06,53,045,40,25,30,312,28,24,18,226,16,8*65
$GLGSV,2,1,08,76,64,283,39,86,64,305,42,85,39,035,46,75,36,180,22,1*72
$GLGSV,2,2,08,77,25,327,29,87,21,254,34,70,15,088,,69,09,028,44,1*7D
$GAGSV,2,1,07,13,67,235,35,27,65,159,21,15,55,043,43,21,55,307,44,7*7D
$GAGSV,2,2,07,30,14,143,08,26,14,229,21,34,05,047,29,7*4D
$GAGSV,2,1,05,13,67,235,27,27,65,159,19,15,55,043,35,21,55,307,32,1*71
$GAGSV,2,2,05,34,05,047,18,1*48
$GBGSV,3,1,12,27,71,314,,46,52,257,43,28,46,055,45,37,29,185,15,1*7E
$GBGSV,3,2,12,30,26,266,42,36,23,313,46,33,19,075,25,41,16,126,16,1*7D
$GBGSV,3,3,12,14,12,050,24,39,05,332,46,42,02,028,42,16,01,340,26,1*72
$GBGSV,2,1,07,27,71,314,32,46,52,257,26,28,46,055,32,30,26,266,28,5*75
$GBGSV,2,2,07,36,23,313,27,39,05,332,30,42,02,028,35,5*43
$GNGGA,223023.000,4000.624036,N,10514.643696,W,2,41,0.57,1646.879,M,-20.634,M,,*73
$GPGSV,3,1,12,11,86,226,43,12,63,304,42,06,53,045,45,48,39,209,31,1*62
$GPGSV,3,2,12,20,38,160,22,19,31,077,37,25,30,312,47,24,18,226,25,1*6F
$GPGSV,3,3,12,22,09,139,24,17,09,087,,05,08,182,,29,03,278,,1*60
$GPGSV,1,1,04,11,86,226,32,06,53,045,40,25,30,312,28,24,18,226,17,8*64
$GLGSV,2,1,08,76,64,283,40,86,64,305,42,85,39,035,46,75,36,180,28,1*76
$GLGSV,2,2,08,77,25,327,29,87,21,254,33,70,15,088,,69,09,028,42,1*7C
$GAGSV,2,1,07,13,67,235,36,27,65,159,22,15,55,043,43,21,55,307,44,7*7D
$GAGSV,2,2,07,30,14,143,07,26,14,229,24,34,05,047,31,7*4E
$GAGSV,2,1,05,13,67,235,27,27,65,159,19,15,55,043,35,21,55,307,32,1*71
$GAGSV,2,2,05,34,05,047,18,1*48
$GBGSV,3,1,12,27,71,314,20,46,52,257,42,28,46,055,45,37,29,185,20,1*7B
$GBGSV,3,2,12,30,26,266,43,36,23,313,46,33,19,075,20,41,16,126,13,1*7C
$GBGSV,3,3,12,14,12,050,28,39,05,332,46,42,02,028,44,16,01,340,26,1*78
$GBGSV,2,1,07,27,71,314,32,46,52,257,26,28,46,055,32,30,26,266,29,5*74
$GBGSV,2,2,07,36,23,313,27,39,05,332,30,42,02,028,35,5*43
$GNGGA,223028.000,4000.623976,N,10514.643666,W,2,40,0.57,1646.539,M,-20.634,M,,*75
$GPGSV,3,1,12,11,86,226,43,12,63,304,43,06,53,045,44,48,39,209,31,1*62
$GPGSV,3,2,12,20,38,160,20,19,31,077,37,25,30,312,47,24,18,226,29,1*61
$GPGSV,3,3,12,22,09,139,21,17,09,087,,05,08,182,,29,03,278,,1*65
$GPGSV,1,1,04,11,86,226,32,06,53,045,39,25,30,312,28,24,18,226,16,8*6B
