$PAIR001,062,0*3F
$PAIR001,062,0*3F
$PAIR001,062,0*3F
$PAIR001,062,0*3F
$PAIR001,062,0*3F
$PAIR001,062,0*3F
$PAIR001,062,0*3F
$PAIR001,062,0*3F
$PAIR001,062,0*3F
$GNGGA,005637.000,4005.098356,N,10513.208784,W,2,51,0.46,1584.670,M,-20.670,M,,*72
$GPGSV,3,1,11,29,75,169,47,18,50,305,36,15,48,138,44,05,45,047,43,1*6F
$GPGSV,3,2,11,46,37,214,46,13,36,090,45,23,32,234,46,26,19,289,40,1*65
$GPGSV,3,3,11,20,14,055,33,16,10,321,36,25,07,199,42,1*57
$GPGSV,1,1,04,18,50,305,32,23,32,234,42,26,19,289,30,25,07,199,44,8*6C
$GLGSV,3,1,10,66,62,159,,88,56,344,42,65,50,045,,72,48,045,39,1*71
$GLGSV,3,2,10,87,45,088,38,79,13,307,38,81,11,309,37,78,08,258,45,1*70
$GLGSV,3,3,10,71,04,026,41,86,01,112,44,1*77
$GAGSV,3,1,09,15,62,050,37,13,47,303,34,03,43,094,44,08,30,158,45,7*70
$GAGSV,3,2,09,21,28,282,42,27,24,224,47,05,17,042,38,34,17,088,41,7*72
$GAGSV,3,3,09,26,01,281,,7*44
$GAGSV,2,1,08,15,62,050,33,13,47,303,35,03,43,094,41,08,30,158,42,1*71
$GAGSV,2,2,08,21,28,282,27,27,24,224,44,05,17,042,29,34,17,088,33,1*71
$GBGSV,3,1,10,43,83,002,42,42,72,114,43,11,66,098,46,14,58,182,45,1*7C
$GBGSV,3,2,10,34,42,118,41,33,33,200,48,21,32,046,45,28,23,307,31,1*78
$GBGSV,3,3,10,12,13,119,47,37,02,289,,1*79
$GBGSV,2,1,06,43,83,002,36,42,72,114,34,34,42,118,46,33,33,200,44,5*75
$GBGSV,2,2,06,21,32,046,38,28,23,307,25,5*77
$GNGGA,005642.000,4005.098332,N,10513.208736,W,2,51,0.46,1584.573,M,-20.670,M,,*7B
$GPGSV,3,1,11,29,75,169,47,18,50,305,35,15,48,138,44,05,45,047,43,1*6C
$GPGSV,3,2,11,46,37,214,46,13,36,090,45,23,32,234,47,26,19,289,40,1*64
$GPGSV,3,3,11,20,14,055,33,16,10,321,36,25,07,199,43,1*56
$GPGSV,1,1,04,18,50,305,32,23,32,234,42,26,19,289,32,25,07,199,44,8*6E
$GLGSV,3,1,09,66,62,159,,88,56,344,41,72,48,045,39,87,45,088,38,1*78
$GLGSV,3,2,09,79,13,307,35,81,11,309,37,78,08,258,46,71,04,026,42,1*73
$GLGSV,3,3,09,86,01,112,45,1*4D
$GAGSV,3,1,09,15,62,050,37,13,47,303,35,03,43,094,44,08,30,158,45,7*71
$GAGSV,3,2,09,21,28,282,42,27,24,224,47,05,17,042,38,34,17,088,41,7*72
$GAGSV,3,3,09,26,01,281,,7*44
$GAGSV,2,1,08,15,62,050,33,13,47,303,35,03,43,094,41,08,30,158,42,1*71
$GAGSV,2,2,08,21,28,282,28,27,24,224,44,05,17,042,29,34,17,088,33,1*7E
$GBGSV,3,1,10,43,83,002,42,42,72,114,43,11,65,101,46,14,60,182,45,1*75
$GBGSV,3,2,10,34,42,118,41,33,33,200,48,21,32,046,45,28,23,307,31,1*78
$GBGSV,3,3,10,12,12,120,47,37,02,289,,1*72
$GBGSV,2,1,06,43,83,002,36,42,72,114,34,34,42,118,46,33,33,200,44,5*75
$GBGSV,2,2,06,21,32,046,38,28,23,307,23,5*71
$GNGGA,005647.000,4005.098350,N,10513.208706,W,2,51,0.46,1584.552,M,-20.670,M,,*7A
$GPGSV,3,1,11,29,75,169,47,18,50,305,35,15,48,138,44,05,45,047,44,1*6B
$GPGSV,3,2,11,46,37,214,46,13,36,090,45,23,32,234,47,26,19,289,40,1*64
$GPGSV,3,3,11,20,14,055,32,16,10,321,36,25,07,199,43,1*57
$GPGSV,1,1,04,18,50,305,31,23,32,234,42,26,19,289,32,25,07,199,44,8*6D
$GLGSV,3,1,10,66,62,159,,88,56,344,41,65,50,045,,72,48,045,39,1*72
$GLGSV,3,2,10,87,45,088,38,79,13,307,31,81,11,309,36,78,08,258,44,1*79
$GLGSV,3,3,10,71,04,026,42,86,01,112,44,1*74
$GAGSV,3,1,09,15,62,050,37,13,47,303,35,03,43,094,44,08,30,158,45,7*71
$GAGSV,3,2,09,21,28,282,42,27,24,224,47,05,17,042,38,34,17,088,41,7*72
$GAGSV,3,3,09,26,01,281,,7*44
$GAGSV,2,1,08,15,62,050,33,13,47,303,36,03,43,094,41,08,30,158,42,1*72
$GAGSV,2,2,08,21,28,282,29,27,24,224,44,05,17,042,30,34,17,088,33,1*77
$GBGSV,3,1,10,43,83,002,42,42,72,114,43,11,65,101,46,14,60,182,45,1*75
$GBGSV,3,2,10,34,42,118,41,33,33,200,47,21,32,046,45,28,23,307,30,1*76
$GBGSV,3,3,10,12,12,120,47,37,02,289,,1*72
$GBGSV,2,1,06,43,83,002,36,42,72,114,34,34,42,118,46,33,33,200,44,5*75
$GBGSV,2,2,06,21,32,046,38,28,23,307,19,5*78
$GNGGA,005652.000,4005.098350,N,10513.208640,W,2,51,0.46,1584.530,M,-20.670,M,,*79
$GPGSV,3,1,11,29,75,169,47,18,50,305,35,15,48,138,44,05,45,047,44,1*6B
$GPGSV,3,2,11,46,37,214,45,13,36,090,45,23,32,234,47,26,19,289,39,1*69
$GPGSV,3,3,11,20,14,055,31,16,10,321,37,25,07,199,45,1*53
$GPGSV,1,1,04,18,50,305,31,23,32,234,43,26,19,289,32,25,07,199,43,8*6B
$GLGSV,3,1,10,66,62,159,,88,56,344,41,65,50,045,,72,48,045,39,1*72
$GLGSV,3,2,10,87,45,088,38,79,13,307,33,81,11,309,36,78,08,258,45,1*7A
$GLGSV,3,3,10,71,04,026,42,86,01,112,45,1*75
$GAGSV,3,1,09,15,62,050,37,13,47,303,34,03,43,094,44,08,30,158,45,7*70
$GAGSV,3,2,09,21,28,282,42,27,24,224,47,05,17,042,38,34,17,088,41,7*72
$GAGSV,3,3,09,26,01,281,,7*44
$GAGSV,2,1,08,15,62,050,34,13,47,303,36,03,43,094,42,08,30,158,42,1*76
$GAGSV,2,2,08,21,28,282,30,27,24,224,44,05,17,042,32,34,17,088,34,1*7A
$GBGSV,3,1,10,43,83,002,42,42,72,114,42,11,65,101,46,14,60,182,46,1*77
$GBGSV,3,2,10,34,42,118,41,33,33,200,47,21,31,046,45,28,23,307,30,1*75
$GBGSV,3,3,10,12,12,120,47,37,02,289,,1*72
$GBGSV,2,1,06,43,83,002,36,42,72,114,34,34,42,118,46,33,33,200,44,5*75
$GBGSV,2,2,06,21,31,046,38,28,23,307,14,5*76
$GNGGA,005657.000,4005.098320,N,10513.208616,W,2,51,0.46,1584.513,M,-20.670,M,,*79
$GPGSV,3,1,11,29,75,169,47,18,50,305,36,15,48,138,45,05,45,047,44,1*69
$GPGSV,3,2,11,46,37,214,46,13,36,090,45,23,32,234,47,26,19,289,40,1*64
$GPGSV,3,3,11,20,14,055,30,16,10,321,37,25,07,199,44,1*53
$GPGSV,1,1,04,18,50,305,30,23,32,234,43,26,19,289,31,25,07,199,43,8*69
$GLGSV,3,1,10,66,62,159,,88,56,344,41,65,50,045,,72,48,045,40,1*7C
$GLGSV,3,2,10,87,45,088,38,79,13,307,36,81,11,309,36,78,08,258,42,1*78
$GLGSV,3,3,10,71,04,026,42,86,01,112,45,1*75
$GAGSV,3,1,09,15,62,050,36,13,47,303,34,03,43,094,44,08,30,158,45,7*71
$GAGSV,3,2,09,21,28,282,42,27,24,224,47,05,17,042,38,34,17,088,41,7*72
$GAGSV,3,3,09,26,01,281,,7*44
$GAGSV,2,1,08,15,62,050,33,13,47,303,36,03,43,094,42,08,30,158,42,1*71
$GAGSV,2,2,08,21,28,282,30,27,24,224,44,05,17,042,31,34,17,088,34,1*79
$GBGSV,3,1,10,43,83,002,42,42,72,114,42,11,65,101,46,14,60,182,46,1*77
$GBGSV,3,2,10,34,42,118,41,33,33,200,47,21,31,046,46,28,24,307,30,1*71
$GBGSV,3,3,10,12,12,120,47,37,02,289,,1*72
$GBGSV,2,1,06,43,83,002,36,42,72,114,34,34,42,118,46,33,33,200,44,5*75
$GBGSV,2,2,06,21,31,046,38,28,24,307,15,5*70
$GNGGA,005702.000,4005.098278,N,10513.208622,W,2,51,0.46,1584.326,M,-20.670,M,,*73
$GPGSV,3,1,11,29,75,169,47,18,50,305,36,15,48,138,45,05,45,047,44,1*69
$GPGSV,3,2,11,46,37,214,46,13,36,090,45,23,32,234,47,26,19,289,40,1*64
$GPGSV,3,3,11,20,14,055,31,16,10,321,36,25,07,199,46,1*51
$GPGSV,1,1,04,18,50,305,30,23,32,234,43,26,19,289,31,25,07,199,43,8*69
$GLGSV,3,1,09,66,62,159,,88,56,344,42,72,48,045,41,87,45,088,38,1*74
$GLGSV,3,2,09,79,13,307,38,81,11,309,36,78,08,258,45,71,04,026,42,1*7C
$GLGSV,3,3,09,86,01,112,45,1*4D
$GAGSV,3,1,09,15,62,050,35,13,47,303,33,03,43,094,44,08,30,158,45,7*75
$GAGSV,3,2,09,21,28,282,42,27,24,224,47,05,17,042,39,34,17,088,41,7*73
$GAGSV,3,3,09,26,01,281,,7*44
$GAGSV,2,1,08,15,62,050,34,13,47,303,36,03,43,094,42,08,30,158,42,1*76
$GAGSV,2,2,08,21,28,282,30,27,24,224,44,05,17,042,32,34,17,088,34,1*7A
$GBGSV,3,1,10,43,83,002,42,42,72,114,42,11,65,101,46,14,60,182,46,1*77
$GBGSV,3,2,10,34,41,119,41,33,35,201,47,21,31,046,46,28,24,307,33,1*77
$GBGSV,3,3,10,12,12,120,47,37,02,289,,1*72
$GBGSV,2,1,06,43,83,002,36,42,72,114,34,34,41,119,46,33,35,201,44,5*70
$GBGSV,2,2,06,21,31,046,37,28,24,307,17,5*7D
$GNGGA,005707.000,4005.098302,N,10513.208586,W,2,51,0.46,1584.145,M,-20.670,M,,*70
$GPGSV,3,1,11,29,75,169,47,18,50,305,38,15,48,138,45,05,45,047,44,1*67
$GPGSV,3,2,11,46,37,214,46,13,36,090,45,23,32,234,47,26,19,289,40,1*64
$GPGSV,3,3,11,20,14,055,30,16,10,321,36,25,07,199,45,1*53
$GPGSV,1,1,04,18,50,305,29,23,32,234,43,26,19,289,30,25,07,199,43,8*60
$GLGSV,3,1,10,66,62,159,,88,56,344,40,65,50,045,,72,48,045,41,1*7C
$GLGSV,3,2,10,87,45,088,38,79,13,307,38,81,11,309,36,78,08,258,44,1*70
$GLGSV,3,3,10,71,04,026,42,86,01,112,47,1*77
$GAGSV,3,1,09,15,62,050,34,13,47,303,33,03,43,094,44,08,30,158,45,7*74
$GAGSV,3,2,09,21,28,282,42,27,24,224,47,05,17,042,39,34,17,088,41,7*73
$GAGSV,3,3,09,26,01,281,,7*44
$GAGSV,2,1,08,15,62,050,34,13,47,303,36,03,43,094,42,08,30,158,42,1*76
$GAGSV,2,2,08,21,28,282,30,27,24,224,44,05,17,042,31,34,17,088,34,1*79
$GBGSV,3,1,10,43,83,002,42,42,72,114,43,11,65,101,46,14,60,182,46,1*76
$GBGSV,3,2,10,34,41,119,40,33,35,201,47,21,31,046,46,28,24,307,34,1*71
$GBGSV,3,3,10,12,12,120,47,37,01,289,,1*71
$GBGSV,2,1,06,43,83,002,36,42,72,114,34,34,41,119,46,33,35,201,44,5*70
$GBGSV,2,2,06,21,31,046,37,28,24,307,15,5*7F
$GNGGA,005712.000,4005.098368,N,10513.208580,W,2,51,0.46,1583.975,M,-20.670,M,,*72
$GPGSV,3,1,11,29,75,169,47,18,50,305,38,15,48,138,45,05,45,047,43,1*60
$GPGSV,3,2,11,46,37,214,46,13,36,090,45,23,32,234,47,26,19,289,40,1*64
$GPGSV,3,3,11,20,14,055,31,16,10,321,36,25,07,199,46,1*51
$GPGSV,1,1,04,18,50,305,31,23,32,234,43,26,19,289,30,25,07,199,42,8*68
$GLGSV,3,1,10,66,62,159,,88,56,344,41,65,50,045,,72,48,045,41,1*7D
$GLGSV,3,2,10,87,45,088,39,79,13,307,38,81,11,309,35,78,08,258,42,1*74
$GLGSV,3,3,10,71,04,026,40,86,01,112,47,1*75
$GAGSV,3,1,09,15,62,050,34,13,47,303,32,03,43,094,44,08,30,158,45,7*75
$GAGSV,3,2,09,21,28,282,42,27,24,224,47,05,17,042,39,34,17,088,41,7*73
$GAGSV,3,3,09,26,01,281,,7*44
$GAGSV,2,1,08,15,62,050,34,13,47,303,37,03,43,094,42,08,30,158,43,1*76
$GAGSV,2,2,08,21,28,282,30,27,24,224,44,05,17,042,32,34,17,088,33,1*7D
$GBGSV,3,1,10,43,84,009,42,42,73,110,43,11,65,101,46,14,60,182,46,1*7F
$GBGSV,3,2,10,34,41,119,41,33,35,201,47,21,31,046,46,28,24,307,36,1*72
$GBGSV,3,3,10,12,12,120,47,37,01,289,,1*71
$GBGSV,2,1,06,43,84,009,36,42,73,110,34,34,41,119,46,33,35,201,44,5*79
$GBGSV,2,2,06,21,31,046,38,28,24,307,14,5*71
$GNGGA,005717.000,4005.098434,N,10513.208658,W,2,51,0.46,1583.855,M,-20.670,M,,*7C
$GPGSV,3,1,11,29,75,169,47,18,50,305,38,15,48,138,45,05,45,047,43,1*60
$GPGSV,3,2,11,46,37,214,46,13,36,090,45,23,32,234,47,26,19,289,40,1*64
$GPGSV,3,3,11,20,14,055,31,16,10,321,37,25,07,199,46,1*50
$GPGSV,1,1,04,18,50,305,30,23,32,234,43,26,19,289,30,25,07,199,42,8*69
$GLGSV,3,1,10,66,62,159,,88,56,344,41,65,50,045,,72,48,045,41,1*7D
$GLGSV,3,2,10,87,45,088,39,79,13,307,37,81,11,309,35,78,08,258,44,1*7D
$GLGSV,3,3,10,71,04,026,40,86,01,112,47,1*75
$GAGSV,3,1,09,15,62,050,35,13,47,303,32,03,43,094,44,08,30,158,45,7*74
$GAGSV,3,2,09,21,28,282,42,27,24,224,47,05,17,042,39,34,17,088,41,7*73
$GAGSV,3,3,09,26,01,281,,7*44
$GAGSV,2,1,08,15,62,050,34,13,47,303,37,03,43,094,42,08,30,158,43,1*76
$GAGSV,2,2,08,21,28,282,30,27,24,224,44,05,17,042,31,34,17,088,36,1*7B
$GBGSV,3,1,10,43,84,009,42,42,73,110,43,11,65,101,46,14,60,182,46,1*7F
$GBGSV,3,2,10,34,41,119,41,33,35,201,47,21,31,046,46,28,24,307,35,1*71
$GBGSV,3,3,10,12,12,120,47,37,01,289,,1*71
$GBGSV,2,1,06,43,84,009,36,42,73,110,34,34,41,119,46,33,35,201,44,5*79
$GBGSV,2,2,06,21,31,046,38,28,24,307,16,5*73
$GNGGA,005722.000,4005.098488,N,10513.208622,W,2,51,0.46,1583.800,M,-20.670,M,,*70
$GPGSV,3,1,11,29,75,169,47,18,50,305,38,15,48,138,45,05,45,047,43,1*60
$GPGSV,3,2,11,46,37,214,46,13,36,090,45,23,32,234,47,26,19,289,40,1*64
$GPGSV,3,3,11,20,14,055,31,16,10,321,38,25,07,199,47,1*5E
$GPGSV,1,1,04,18,50,305,29,23,32,234,43,26,19,289,30,25,07,199,41,8*62
$GLGSV,3,1,10,66,62,159,,88,56,344,40,65,50,045,,72,48,045,40,1*7D
$GLGSV,3,2,10,87,45,088,37,79,13,307,37,81,11,309,35,78,08,258,44,1*73
$GLGSV,3,3,10,71,04,026,40,86,01,112,47,1*75
$GAGSV,3,1,09,15,62,050,35,13,47,303,33,03,43,094,44,08,30,158,45,7*75
$GAGSV,3,2,09,21,28,282,42,27,24,224,47,05,17,042,39,34,17,088,41,7*73
$GAGSV,3,3,09,26,01,281,,7*44
$GAGSV,2,1,08,15,62,050,34,13,47,303,37,03,43,094,42,08,30,158,43,1*76
$GAGSV,2,2,08,21,28,282,30,27,24,224,44,05,17,042,31,34,17,088,36,1*7B
$GBGSV,3,1,10,43,84,009,43,42,73,110,42,11,65,101,46,14,60,182,46,1*7F
$GBGSV,3,2,10,34,41,119,41,33,35,201,47,21,31,046,46,28,24,307,35,1*71
$GBGSV,3,3,10,12,12,120,47,37,01,289,,1*71
$GBGSV,2,1,06,43,84,009,36,42,73,110,34,34,41,119,47,33,35,201,44,5*78
$GBGSV,2,2,06,21,31,046,38,28,24,307,18,5*7D
$GNGGA,005727.000,4005.098524,N,10513.208568,W,2,51,0.46,1583.715,M,-20.670,M,,*74
$GPGSV,3,1,11,29,75,169,47,18,50,305,38,15,48,138,45,05,45,047,43,1*60
$GPGSV,3,2,11,46,37,214,46,13,36,090,45,23,32,234,47,26,19,289,40,1*64
$GPGSV,3,3,11,20,14,055,30,16,10,321,38,25,07,199,47,1*5F
$GPGSV,1,1,04,18,50,305,29,23,32,234,44,26,19,289,31,25,07,199,41,8*64
$GLGSV,3,1,10,66,62,159,,88,56,344,40,65,50,045,,72,48,045,40,1*7D
$GLGSV,3,2,10,87,45,088,36,79,13,307,36,81,11,309,34,78,08,258,42,1*74
$GLGSV,3,3,10,71,04,026,40,86,01,112,47,1*75
$GAGSV,3,1,09,15,62,050,35,13,47,303,34,03,43,094,44,08,30,158,45,7*72
$GAGSV,3,2,09,21,28,282,42,27,24,224,47,05,17,042,38,34,17,088,41,7*72
$GAGSV,3,3,09,26,01,281,,7*44
$GAGSV,2,1,08,15,62,050,34,13,47,303,37,03,43,094,42,08,30,158,43,1*76
$GAGSV,2,2,08,21,28,282,29,27,24,224,44,05,17,042,30,34,17,088,35,1*71
$GBGSV,3,1,10,43,84,009,43,42,73,110,42,11,65,101,46,14,60,182,46,1*7F
$GBGSV,3,2,10,34,41,119,41,33,35,201,47,21,31,046,46,28,24,307,35,1*71
$GBGSV,3,3,10,12,12,120,47,37,01,289,,1*71
$GBGSV,2,1,06,43,84,009,36,42,73,110,34,34,41,119,47,33,35,201,44,5*78
$GBGSV,2,2,06,21,31,046,37,28,24,307,20,5*79
$PAIR010,0,1,2308,349068*33
$GNGGA,005732.000,4005.098482,N,10513.208520,W,2,51,0.46,1583.608,M,-20.670,M,,*7C
$GPGSV,3,1,11,29,75,169,47,18,50,305,37,15,48,138,45,05,45,047,43,1*6F
$GPGSV,3,2,11,46,37,214,46,13,36,090,45,23,32,234,48,26,19,289,40,1*6B
$GPGSV,3,3,11,20,14,055,28,16,10,321,39,25,07,199,47,1*57
$GPGSV,1,1,04,18,50,305,29,23,32,234,44,26,19,289,31,25,07,199,39,8*6B
$GLGSV,2,1,08,88,56,344,40,72,48,045,40,87,45,088,36,79,13,307,36,1*7D
$GLGSV,2,2,08,81,11,309,34,78,08,258,43,71,04,026,40,86,01,112,47,1*77
$GAGSV,3,1,09,15,62,050,35,13,47,303,35,03,43,094,44,08,30,158,45,7*73
$GAGSV,3,2,09,21,28,282,42,27,24,224,47,05,17,042,38,34,17,088,41,7*72
$GAGSV,3,3,09,26,01,281,,7*44
$GAGSV,2,1,08,15,62,050,34,13,47,303,37,03,43,094,42,08,30,158,43,1*76
$GAGSV,2,2,08,21,28,282,28,27,24,224,44,05,17,042,29,34,17,088,35,1*78
$GBGSV,3,1,10,43,84,009,43,42,73,110,42,11,65,101,46,14,60,182,46,1*7F
$GBGSV,3,2,10,34,41,119,42,33,35,201,47,21,31,046,46,28,24,307,35,1*72
$GBGSV,3,3,10,12,12,120,47,37,01,289,,1*71
$GBGSV,2,1,06,43,84,009,36,42,73,110,34,34,41,119,47,33,35,201,44,5*78
$GBGSV,2,2,06,21,31,046,37,28,24,307,20,5*79
$GNGGA,005737.000,4005.098506,N,10513.208376,W,2,51,0.46,1583.470,M,-20.670,M,,*7C
$GPGSV,3,1,11,29,75,169,47,18,50,305,37,15,48,138,45,05,44,047,43,1*6E
$GPGSV,3,2,11,46,37,214,46,13,36,090,45,23,32,234,48,26,19,289,40,1*6B
$GPGSV,3,3,11,20,14,055,28,16,10,321,39,25,07,199,47,1*57
$GPGSV,1,1,04,18,50,305,28,23,32,234,44,26,19,289,31,25,07,199,39,8*6A
$GLGSV,3,1,10,66,62,159,,88,56,344,40,65,50,045,,72,48,045,40,1*7D
$GLGSV,3,2,10,87,45,088,37,79,13,307,36,81,11,309,35,78,08,258,43,1*75
$GLGSV,3,3,10,71,04,026,40,86,01,112,47,1*75
$GAGSV,3,1,09,15,62,050,36,13,47,303,35,03,43,094,44,08,30,158,45,7*70
$GAGSV,3,2,09,21,28,282,42,27,24,224,47,05,17,042,38,34,17,088,41,7*72
$GAGSV,3,3,09,26,01,281,,7*44
$GAGSV,2,1,08,15,62,050,34,13,47,303,37,03,43,094,42,08,30,158,43,1*76
$GAGSV,2,2,08,21,28,282,28,27,24,224,44,05,17,042,29,34,17,088,35,1*78
$GBGSV,3,1,10,43,84,009,43,42,73,110,42,11,65,101,47,14,60,182,46,1*7E
$GBGSV,3,2,10,34,41,119,42,33,35,201,47,21,31,046,46,28,24,307,35,1*72
$GBGSV,3,3,10,12,12,120,47,37,01,289,,1*71
$GBGSV,2,1,06,43,84,009,36,42,73,110,34,34,41,119,47,33,35,201,44,5*78
$GBGSV,2,2,06,21,31,046,37,28,24,307,20,5*79
$GNGGA,005742.000,4005.098518,N,10513.208250,W,2,51,0.46,1583.360,M,-20.670,M,,*72
$GPGSV,3,1,12,29,75,169,47,18,50,305,37,15,48,138,45,05,44,047,43,1*6D
$GPGSV,3,2,12,46,37,214,46,13,36,090,45,23,32,234,48,26,19,289,40,1*68
$GPGSV,3,3,12,20,14,055,28,16,10,321,39,25,07,199,47,10,01,231,,1*64
$GPGSV,1,1,04,18,50,305,28,23,32,234,44,26,19,289,31,25,07,199,38,8*6B
$GLGSV,3,1,10,66,62,159,,88,56,344,41,65,50,045,,72,48,045,40,1*7C
$GLGSV,3,2,10,87,45,088,37,79,13,307,38,81,11,309,36,78,08,258,40,1*7B
$GLGSV,3,3,10,71,04,026,40,86,01,112,47,1*75
$GAGSV,3,1,09,15,62,050,36,13,47,303,35,03,43,094,44,08,30,158,45,7*70
$GAGSV,3,2,09,21,28,282,42,27,24,224,47,34,17,088,41,05,17,042,38,7*72
$GAGSV,3,3,09,26,01,281,,7*44
$GAGSV,2,1,08,15,62,050,34,13,47,303,37,03,43,094,42,08,30,158,43,1*76
$GAGSV,2,2,08,21,28,282,28,27,24,224,44,05,17,042,29,34,17,088,35,1*78
$GBGSV,3,1,10,43,84,009,43,42,73,110,41,11,65,101,47,14,60,182,46,1*7D
$GBGSV,3,2,10,34,41,119,42,33,35,201,47,21,31,046,46,28,24,307,35,1*72
$GBGSV,3,3,10,12,12,120,47,37,01,289,,1*71
$GBGSV,2,1,06,43,84,009,36,42,73,110,34,34,41,119,47,33,35,201,44,5*78
$GBGSV,2,2,06,21,31,046,37,28,24,307,22,5*7B
$GNGGA,005747.000,4005.098548,N,10513.208178,W,2,51,0.46,1583.306,M,-20.670,M,,*7B
$GPGSV,3,1,12,29,75,169,47,18,50,305,37,15,49,136,45,05,44,047,43,1*62
$GPGSV,3,2,12,46,37,214,46,13,36,088,44,23,32,234,48,26,19,289,41,1*61
$GPGSV,3,3,12,20,14,055,29,16,11,320,39,25,07,199,48,10,01,231,,1*6A
$GPGSV,1,1,04,18,50,305,28,23,32,234,44,26,19,289,31,25,07,199,38,8*6B
$GLGSV,3,1,09,66,62,159,,88,56,344,41,72,48,045,40,87,45,088,37,1*79
$GLGSV,3,2,09,79,13,307,39,81,11,309,35,78,08,258,41,71,04,026,40,1*78
$GLGSV,3,3,09,86,01,112,48,1*40
$GAGSV,2,1,08,15,62,050,37,13,47,303,35,03,43,094,44,08,30,158,45,7*71
$GAGSV,2,2,08,21,28,282,42,27,24,224,47,34,17,088,41,05,17,042,38,7*72
$GAGSV,2,1,08,15,62,050,34,13,47,303,37,03,43,094,42,08,30,158,43,1*76
$GAGSV,2,2,08,21,28,282,28,27,24,224,44,05,17,042,28,34,17,088,35,1*79
$GBGSV,3,1,10,43,84,009,43,42,73,110,41,11,65,101,47,14,60,182,46,1*7D
$GBGSV,3,2,10,34,41,119,42,33,35,201,47,21,31,046,46,28,24,307,35,1*72
$GBGSV,3,3,10,12,12,120,47,37,01,289,,1*71
$GBGSV,2,1,06,43,84,009,36,42,73,110,34,34,41,119,47,33,35,201,44,5*78
$GBGSV,2,2,06,21,31,046,37,28,24,307,24,5*7D
$GNGGA,005752.000,4005.098596,N,10513.208172,W,2,51,0.46,1583.246,M,-20.670,M,,*73
$GPGSV,3,1,12,29,75,169,47,18,51,306,37,15,49,136,45,05,44,047,43,1*60
$GPGSV,3,2,12,46,37,214,46,13,36,088,44,23,32,234,48,26,19,289,41,1*61
$GPGSV,3,3,12,20,13,055,30,16,11,320,39,25,07,199,49,10,01,231,,1*64
$GPGSV,1,1,04,18,51,306,27,23,32,234,44,26,19,289,31,25,07,199,38,8*66
$GLGSV,3,1,10,66,62,159,,88,56,344,41,65,50,045,,72,48,045,41,1*7D
$GLGSV,3,2,10,87,45,088,37,79,13,307,38,81,11,309,35,78,08,258,40,1*78
$GLGSV,3,3,10,71,04,026,40,86,01,112,47,1*75
$GAGSV,3,1,09,15,62,050,37,13,47,303,35,03,43,094,44,08,30,158,45,7*71
$GAGSV,3,2,09,21,28,282,42,27,24,224,47,34,17,088,41,05,17,042,38,7*72
$GAGSV,3,3,09,26,01,281,,7*44
$GAGSV,2,1,08,15,62,050,35,13,47,303,37,03,43,094,42,08,30,158,43,1*77
$GAGSV,2,2,08,21,28,282,28,27,24,224,44,05,17,042,30,34,17,088,36,1*73
$GBGSV,3,1,10,43,84,009,43,42,73,110,41,11,65,101,47,14,60,182,46,1*7D
$GBGSV,3,2,10,34,41,119,42,33,35,201,47,21,31,046,46,28,24,307,36,1*71
$GBGSV,3,3,10,12,12,120,46,37,01,289,,1*70
$GBGSV,2,1,06,43,84,009,37,42,73,110,34,34,41,119,47,33,35,201,44,5*79
$GBGSV,2,2,06,21,31,046,37,28,24,307,28,5*71
$GNGGA,005757.000,4005.098614,N,10513.208184,W,2,51,0.46,1583.105,M,-20.670,M,,*72
$GPGSV,3,1,12,29,75,169,47,18,51,306,36,15,49,136,45,05,44,047,43,1*61
$GPGSV,3,2,12,46,37,214,45,13,36,088,44,23,33,235,48,26,19,288,41,1*63
$GPGSV,3,3,12,20,13,055,30,16,11,320,38,25,06,198,49,10,01,231,,1*65
$GPGSV,1,1,04,18,51,306,27,23,33,235,44,26,19,288,31,25,06,198,38,8*67
$GLGSV,3,1,09,66,62,159,,88,56,344,41,72,48,045,41,87,45,088,36,1*79
$GLGSV,3,2,09,79,13,307,38,81,11,309,34,78,08,258,40,71,04,026,39,1*77
$GLGSV,3,3,09,86,01,112,47,1*4F
$GAGSV,3,1,09,15,62,050,37,13,47,303,36,03,43,094,44,08,30,158,45,7*72
$GAGSV,3,2,09,21,28,282,42,27,24,224,47,34,17,088,41,05,17,042,38,7*72
$GAGSV,3,3,09,26,01,281,,7*44
$GAGSV,2,1,08,15,62,050,35,13,47,303,37,03,43,094,42,08,30,158,43,1*77
$GAGSV,2,2,08,21,28,282,28,27,24,224,44,05,17,042,31,34,17,088,36,1*72
$GBGSV,3,1,10,43,84,009,43,42,73,110,41,11,65,101,47,14,60,182,46,1*7D
$GBGSV,3,2,10,34,41,119,43,33,35,201,47,21,31,046,46,28,24,307,35,1*73
$GBGSV,3,3,10,12,12,120,46,37,01,289,,1*70
$GBGSV,2,1,06,43,84,009,37,42,73,110,34,34,41,119,47,33,35,201,44,5*79
$GBGSV,2,2,06,21,31,046,36,28,24,307,29,5*71
$GNGGA,005802.000,4005.098650,N,10513.208178,W,2,51,0.46,1582.915,M,-20.670,M,,*76
$GPGSV,3,1,12,29,74,168,47,18,51,306,36,15,49,136,45,05,44,047,42,1*60
$GPGSV,3,2,12,46,37,214,45,13,36,088,44,23,33,235,48,26,19,288,41,1*63
$GPGSV,3,3,12,20,13,055,28,16,11,320,38,25,06,198,49,10,01,231,,1*6C
$GPGSV,1,1,04,18,51,306,27,23,33,235,44,26,19,288,32,25,06,198,36,8*6A
$GLGSV,3,1,10,66,62,159,,88,56,344,41,65,50,045,,72,48,045,41,1*7D
$GLGSV,3,2,10,87,45,088,34,79,13,307,39,81,11,309,34,78,08,258,41,1*7A
$GLGSV,3,3,10,71,04,026,39,86,01,112,47,1*7B
$GAGSV,2,1,08,15,62,050,37,13,47,303,36,03,43,094,44,08,30,158,45,7*72
$GAGSV,2,2,08,21,28,282,42,27,24,224,47,34,17,088,41,05,17,042,38,7*72
$GAGSV,2,1,08,15,62,050,34,13,47,303,37,03,43,094,42,08,30,158,43,1*76
$GAGSV,2,2,08,21,28,282,28,27,24,224,44,05,17,042,31,34,17,088,36,1*72
$GBGSV,3,1,10,43,84,009,43,42,73,110,41,11,65,101,47,14,60,182,46,1*7D
$GBGSV,3,2,10,34,41,119,43,33,35,201,47,21,31,046,46,28,24,307,36,1*70
$GBGSV,3,3,10,12,12,120,46,37,01,289,,1*70
$GBGSV,2,1,06,43,84,009,37,42,73,110,33,34,41,119,47,33,35,201,44,5*7E
$GBGSV,2,2,06,21,31,046,35,28,24,307,29,5*72
$GNGGA,005807.000,4005.098698,N,10513.208100,W,2,51,0.46,1582.673,M,-20.670,M,,*77
$GPGSV,3,1,12,29,74,168,47,18,51,306,34,15,49,136,46,05,44,047,42,1*61
$GPGSV,3,2,12,46,37,214,46,13,36,088,44,23,33,235,48,26,19,288,41,1*60
$GPGSV,3,3,12,20,13,055,30,16,11,320,38,25,06,198,49,10,01,231,,1*65
$GPGSV,1,1,04,18,51,306,26,23,33,235,43,26,19,288,31,25,06,198,35,8*6C
$GLGSV,3,1,10,66,62,159,,88,56,344,41,65,50,045,,72,48,045,41,1*7D
$GLGSV,3,2,10,87,45,088,36,79,13,307,39,81,11,309,35,78,08,258,40,1*78
$GLGSV,3,3,10,71,04,026,38,86,01,112,49,1*74
$GAGSV,3,1,09,15,62,050,37,13,47,303,36,03,43,094,44,08,30,158,45,7*72
$GAGSV,3,2,09,21,28,282,42,27,24,224,47,34,17,088,41,05,17,042,38,7*72
$GAGSV,3,3,09,26,01,281,,7*44
$GAGSV,2,1,08,15,62,050,33,13,47,303,36,03,43,094,41,08,30,158,42,1*72
$GAGSV,2,2,08,21,28,282,28,27,24,224,43,05,17,042,32,34,17,088,36,1*76
$GBGSV,3,1,10,43,84,009,42,42,73,110,41,11,65,101,47,14,60,182,46,1*7C
$GBGSV,3,2,10,34,41,119,43,33,35,201,47,21,31,046,46,28,24,307,38,1*7E
$GBGSV,3,3,10,12,12,120,46,37,01,289,,1*70
$GBGSV,2,1,06,43,84,009,36,42,73,110,33,34,41,119,46,33,35,201,43,5*79
$GBGSV,2,2,06,21,31,046,34,28,24,307,28,5*72
$GNGGA,005812.000,4005.098722,N,10513.208034,W,2,51,0.46,1582.540,M,-20.669,M,,*7E
$GPGSV,3,1,12,29,74,168,47,18,51,306,34,15,49,136,46,05,44,047,41,1*62
$GPGSV,3,2,12,46,37,214,46,13,36,088,44,23,33,235,48,26,19,288,41,1*60
$GPGSV,3,3,12,20,13,055,30,16,11,320,38,25,06,198,49,10,01,231,,1*65
$GPGSV,1,1,04,18,51,306,26,23,33,235,43,26,19,288,31,25,06,198,34,8*6D
$GLGSV,3,1,10,66,62,159,,88,56,344,41,65,50,045,,72,48,045,41,1*7D
$GLGSV,3,2,10,87,45,088,36,79,13,307,38,81,11,309,36,78,08,258,38,1*75
$GLGSV,3,3,10,71,04,026,38,86,01,112,49,1*74
$GAGSV,3,1,09,15,62,050,37,13,47,303,37,03,43,093,44,08,30,158,45,7*74
$GAGSV,3,2,09,21,28,282,42,27,24,224,47,34,17,088,41,05,17,042,38,7*72
$GAGSV,3,3,09,26,01,281,,7*44
$GAGSV,2,1,08,15,62,050,34,13,47,303,37,03,43,093,41,08,30,158,42,1*73
$GAGSV,2,2,08,21,28,282,28,27,24,224,43,05,17,042,32,34,17,088,36,1*76
$GBGSV,3,1,10,43,84,009,42,42,73,110,41,11,65,101,47,14,60,182,46,1*7C
$GBGSV,3,2,10,34,41,119,43,33,35,201,47,21,31,046,46,28,24,307,38,1*7E
$GBGSV,3,3,10,12,12,120,46,37,01,289,,1*70
$GBGSV,2,1,06,43,84,009,36,42,73,110,33,34,41,119,46,33,35,201,43,5*79
$GBGSV,2,2,06,21,31,046,33,28,24,307,28,5*75
$GNGGA,005817.000,4005.098698,N,10513.207962,W,2,51,0.46,1582.560,M,-20.669,M,,*7C
$GPGSV,3,1,12,29,74,168,47,18,51,306,33,15,49,136,46,05,44,047,41,1*65
$GPGSV,3,2,12,46,37,214,46,13,36,088,44,23,33,235,48,26,19,288,42,1*63
$GPGSV,3,3,12,20,13,055,30,16,11,320,38,25,06,198,49,10,01,231,,1*65
$GPGSV,1,1,04,18,51,306,25,23,33,235,43,26,19,288,32,25,06,198,33,8*6A
$GLGSV,3,1,09,66,62,159,,88,56,344,41,72,48,045,41,87,45,088,36,1*79
$GLGSV,3,2,09,79,13,307,38,81,11,309,35,78,08,258,39,71,04,026,38,1*79
$GLGSV,3,3,09,86,01,112,49,1*41
$GAGSV,3,1,09,15,62,050,37,13,47,303,37,03,43,093,44,08,31,157,45,7*7A
$GAGSV,3,2,09,21,28,282,42,27,24,224,47,34,17,088,41,05,16,041,37,7*7F
$GAGSV,3,3,09,26,01,281,,7*44
$GAGSV,2,1,08,15,62,050,34,13,47,303,37,03,43,093,41,08,31,157,42,1*7D
$GAGSV,2,2,08,21,28,282,28,27,24,224,43,34,17,088,36,05,16,041,33,1*75
$GBGSV,3,1,10,43,84,009,42,42,73,110,41,11,65,101,47,14,60,182,45,1*7F
$GBGSV,3,2,10,34,41,119,43,33,35,201,47,21,31,046,46,28,24,307,38,1*7E
$GBGSV,3,3,10,12,12,120,46,37,01,289,,1*70
$GBGSV,2,1,06,43,84,009,36,42,73,110,33,34,41,119,46,33,35,201,43,5*79
$GBGSV,2,2,06,21,31,046,33,28,24,307,28,5*75
$GNGGA,005822.000,4005.098680,N,10513.207926,W,2,51,0.46,1582.693,M,-20.670,M,,*74
$GPGSV,3,1,12,29,74,168,47,18,51,306,32,15,49,136,46,05,44,047,40,1*65
$GPGSV,3,2,12,46,37,214,45,13,36,088,44,23,33,235,48,26,19,288,42,1*60
$GPGSV,3,3,12,20,13,055,31,16,11,320,38,25,06,198,49,10,01,231,,1*64
$GPGSV,1,1,04,18,51,306,24,23,33,235,43,26,19,288,31,25,06,198,32,8*69
$GLGSV,3,1,10,66,62,159,,88,56,344,41,65,50,045,,72,48,045,41,1*7D
$GLGSV,3,2,10,87,45,088,36,79,13,307,37,81,11,309,35,78,08,258,39,1*78
$GLGSV,3,3,10,71,04,026,37,86,01,112,49,1*7B
$GAGSV,3,1,09,15,62,050,37,13,48,304,37,03,43,093,44,08,31,157,45,7*72
$GAGSV,3,2,09,21,28,282,42,27,24,224,47,34,17,088,41,05,16,041,37,7*7F
$GAGSV,3,3,09,26,01,281,,7*44
$GAGSV,2,1,08,15,62,050,34,13,48,304,37,03,43,093,41,08,31,157,42,1*75
$GAGSV,2,2,08,21,28,282,28,27,24,224,43,34,17,088,36,05,16,041,33,1*75
$GBGSV,3,1,10,43,84,009,42,42,73,110,42,11,65,101,47,14,60,182,45,1*7C
$GBGSV,3,2,10,34,41,119,43,33,35,201,47,21,31,046,46,28,24,307,38,1*7E
$GBGSV,3,3,10,12,12,120,46,37,01,289,,1*70
$GBGSV,2,1,06,43,84,009,36,42,73,110,33,34,41,119,46,33,35,201,43,5*79
$GBGSV,2,2,06,21,31,046,33,28,24,307,28,5*75
$GNGGA,005827.000,4005.098674,N,10513.207968,W,2,51,0.46,1582.830,M,-20.670,M,,*77
$GPGSV,3,1,12,29,74,168,47,18,51,306,32,15,49,136,46,05,44,047,40,1*65
$GPGSV,3,2,12,46,37,214,46,13,36,088,44,23,33,235,48,26,19,288,42,1*63
$GPGSV,3,3,12,20,13,055,32,16,11,320,38,25,06,198,50,10,01,231,,1*6F
$GPGSV,1,1,04,18,51,306,24,23,33,235,43,26,19,288,31,25,06,198,32,8*69
$GLGSV,3,1,10,66,62,159,,88,56,344,41,65,50,045,,72,48,045,41,1*7D
$GLGSV,3,2,10,87,45,088,36,79,13,307,33,81,11,309,34,78,08,258,36,1*72
$GLGSV,3,3,10,71,04,026,35,86,01,112,47,1*77
$GAGSV,3,1,09,15,61,052,37,13,48,304,37,03,43,093,44,08,31,157,45,7*73
$GAGSV,3,2,09,21,28,282,42,27,24,224,47,34,17,088,41,05,16,041,37,7*7F
$GAGSV,3,3,09,26,01,281,,7*44
$GAGSV,2,1,08,15,61,052,34,13,48,304,37,03,43,093,41,08,31,157,42,1*74
$GAGSV,2,2,08,21,28,282,28,27,24,224,43,34,17,088,36,05,16,041,33,1*75
$GBGSV,3,1,10,43,84,009,43,42,73,110,42,11,65,101,47,14,60,182,45,1*7D
$GBGSV,3,2,10,34,41,119,43,33,35,201,47,21,31,046,46,28,24,307,38,1*7E
$GBGSV,3,3,10,12,12,120,46,37,01,289,,1*70
$GBGSV,2,1,06,43,84,009,36,42,73,110,33,34,41,119,47,33,35,201,43,5*78
$GBGSV,2,2,06,21,31,046,33,28,24,307,28,5*75
$PAIR010,0,1,2308,349128*36
$GNGGA,005832.000,4005.098776,N,10513.208094,W,2,51,0.46,1582.999,M,-20.669,M,,*7F
$GPGSV,3,1,12,29,74,168,47,18,51,306,32,15,49,136,46,05,44,047,40,1*65
$GPGSV,3,2,12,46,37,214,46,13,36,088,44,23,33,235,48,26,19,288,41,1*60
$GPGSV,3,3,12,20,13,055,33,16,11,320,37,25,06,198,50,10,01,231,,1*61
$GPGSV,1,1,04,18,51,306,23,23,33,235,43,26,19,288,31,25,06,198,31,8*6D
$GLGSV,3,1,10,66,62,159,,88,56,344,40,65,50,045,,72,48,045,41,1*7C
$GLGSV,3,2,10,87,45,088,36,79,13,307,33,81,11,309,34,78,08,258,36,1*72
$GLGSV,3,3,10,71,04,026,35,86,01,112,47,1*77
$GAGSV,3,1,09,15,61,052,37,13,48,304,37,03,43,093,44,08,31,157,45,7*73
$GAGSV,3,2,09,21,28,281,42,27,24,224,47,34,17,088,41,05,16,041,36,7*7D
$GAGSV,3,3,09,26,01,281,,7*44
$GAGSV,2,1,08,15,61,052,34,13,48,304,37,03,43,093,41,08,31,157,42,1*74
$GAGSV,2,2,08,21,28,281,28,27,24,224,43,34,17,088,36,05,16,041,34,1*71
$GBGSV,3,1,10,43,84,009,43,42,73,110,41,11,65,101,47,14,60,182,45,1*7E
$GBGSV,3,2,10,34,41,119,43,33,35,201,47,21,31,046,46,28,24,307,38,1*7E
$GBGSV,3,3,10,12,12,120,46,37,01,289,,1*70
$GBGSV,2,1,06,43,84,009,36,42,73,110,33,34,41,119,47,33,35,201,43,5*78
$GBGSV,2,2,06,21,31,046,33,28,24,307,29,5*74
$GNGGA,005837.000,4005.098878,N,10513.208142,W,2,51,0.46,1583.082,M,-20.670,M,,*7B
$GPGSV,3,1,12,29,74,168,46,18,51,306,33,15,49,136,46,05,44,047,40,1*65
$GPGSV,3,2,12,46,37,214,46,13,36,088,44,23,33,235,48,26,19,288,41,1*60
$GPGSV,3,3,12,20,13,055,33,16,11,320,36,25,06,198,51,10,01,231,,1*61
$GPGSV,1,1,04,18,51,306,22,23,33,235,43,26,19,288,31,25,06,198,31,8*6C
$GLGSV,3,1,10,66,62,159,,88,56,344,40,65,50,045,,72,48,045,40,1*7D
$GLGSV,3,2,10,87,45,088,36,79,13,307,35,81,11,309,30,78,08,258,39,1*7F
$GLGSV,3,3,10,71,04,026,36,86,01,112,47,1*74
$GAGSV,3,1,09,15,61,052,37,13,48,304,37,03,43,093,44,08,31,157,45,7*73
$GAGSV,3,2,09,21,28,281,42,27,23,224,47,34,17,088,41,05,16,041,36,7*7A
$GAGSV,3,3,09,26,01,282,,7*47
$GAGSV,2,1,08,15,61,052,34,13,48,304,38,03,43,093,41,08,31,157,42,1*7B
$GAGSV,2,2,08,21,28,281,28,27,23,224,43,34,17,088,36,05,16,041,34,1*76
$GBGSV,3,1,10,43,84,009,43,42,73,110,41,11,65,101,47,14,60,182,45,1*7E
$GBGSV,3,2,10,34,41,119,43,33,35,201,47,21,31,046,46,28,24,307,38,1*7E
$GBGSV,3,3,10,12,12,120,46,37,01,289,,1*70
$GBGSV,2,1,06,43,84,009,36,42,73,110,33,34,41,119,47,33,35,201,43,5*78
$GBGSV,2,2,06,21,31,046,33,28,24,307,30,5*7C
$GNGGA,005842.000,4005.098878,N,10513.208202,W,2,51,0.46,1583.037,M,-20.670,M,,*70
$GPGSV,3,1,12,29,74,168,46,18,51,306,35,15,49,136,46,05,44,047,40,1*63
$GPGSV,3,2,12,46,37,214,46,13,36,088,44,23,33,235,48,26,19,288,41,1*60
$GPGSV,3,3,12,20,13,055,34,16,11,320,34,25,06,198,51,10,01,231,,1*64
$GPGSV,1,1,04,18,51,306,22,23,33,235,44,26,19,288,30,25,06,198,32,8*69
$GLGSV,3,1,10,66,62,159,,88,56,344,40,65,50,045,,72,48,045,41,1*7C
$GLGSV,3,2,10,87,45,088,36,79,13,307,38,81,11,309,31,78,08,258,37,1*7D
$GLGSV,3,3,10,71,04,026,36,86,01,112,47,1*74
$GAGSV,3,1,09,15,61,052,37,13,48,304,37,03,43,093,44,08,31,157,45,7*73
$GAGSV,3,2,09,21,28,281,42,27,23,224,47,34,17,088,41,05,16,041,36,7*7A
$GAGSV,3,3,09,26,01,282,,7*47
$GAGSV,2,1,08,15,61,052,34,13,48,304,38,03,43,093,41,08,31,157,42,1*7B
$GAGSV,2,2,08,21,28,281,28,27,23,224,43,34,17,088,36,05,16,041,34,1*76
$GBGSV,3,1,10,43,84,009,43,42,73,110,41,11,65,101,47,14,60,182,45,1*7E
$GBGSV,3,2,10,34,41,119,43,33,35,201,47,21,31,046,46,28,24,307,38,1*7E
$GBGSV,3,3,10,12,12,120,46,37,01,289,,1*70
$GBGSV,2,1,06,43,84,009,36,42,73,110,33,34,41,119,47,33,35,201,43,5*78
$GBGSV,2,2,06,21,31,046,33,28,24,307,30,5*7C
$GNGGA,005847.000,4005.098818,N,10513.208232,W,2,51,0.46,1582.896,M,-20.670,M,,*72
$GPGSV,3,1,12,29,74,168,46,18,51,306,35,15,49,136,46,05,44,047,40,1*63
$GPGSV,3,2,12,46,37,214,46,13,36,088,44,23,33,235,48,26,19,288,41,1*60
$GPGSV,3,3,12,20,13,055,35,16,11,320,33,25,06,198,51,10,01,231,,1*62
$GPGSV,1,1,04,18,51,306,23,23,33,235,44,26,19,288,31,25,06,198,33,8*68
$GLGSV,3,1,09,66,64,158,,88,56,344,40,72,48,045,40,87,45,088,37,1*7F
$GLGSV,3,2,09,79,13,307,39,81,11,309,31,78,08,258,33,71,04,026,35,1*7B
$GLGSV,3,3,09,86,01,112,45,1*4D
$GAGSV,3,1,09,15,61,052,37,13,48,304,36,03,43,093,44,08,31,157,45,7*72
$GAGSV,3,2,09,21,28,281,42,27,23,224,47,34,16,089,41,05,16,041,36,7*7A
$GAGSV,3,3,09,26,01,282,,7*47
$GAGSV,2,1,08,15,61,052,34,13,48,304,38,03,43,093,41,08,31,157,42,1*7B
$GAGSV,2,2,08,21,28,281,28,27,23,224,43,05,16,041,34,34,16,089,37,1*77
$GBGSV,3,1,10,43,84,009,43,42,73,110,40,11,65,101,47,14,60,182,45,1*7F
$GBGSV,3,2,10,34,41,119,43,33,35,201,47,21,31,046,46,28,24,307,39,1*7F
$GBGSV,3,3,10,12,12,120,46,37,01,289,,1*70
$GBGSV,2,1,06,43,84,009,37,42,73,110,34,34,41,119,47,33,35,201,44,5*79
$GBGSV,2,2,06,21,31,046,34,28,24,307,31,5*7A
$GNGGA,005852.000,4005.098776,N,10513.208238,W,2,51,0.46,1582.685,M,-20.670,M,,*77
$GPGSV,3,1,12,29,74,168,46,18,51,306,34,15,49,136,46,05,44,047,40,1*62
$GPGSV,3,2,12,46,37,214,46,13,36,088,44,23,33,235,48,26,19,288,41,1*60
$GPGSV,3,3,12,20,13,055,36,16,11,320,34,25,06,198,51,10,01,231,,1*66
$GPGSV,1,1,04,18,51,306,23,23,33,235,44,26,19,288,31,25,06,198,33,8*68
$GLGSV,3,1,10,66,64,158,,88,56,344,41,65,49,044,,72,48,045,40,1*72
$GLGSV,3,2,10,87,45,088,37,79,13,307,39,81,11,309,31,78,08,258,32,1*78
$GLGSV,3,3,10,71,03,026,35,86,01,112,43,1*74
$GAGSV,3,1,09,15,61,052,37,13,48,304,36,03,43,093,44,08,31,157,45,7*72
$GAGSV,3,2,09,21,28,281,42,27,23,224,47,34,16,089,41,05,16,041,36,7*7A
$GAGSV,3,3,09,26,01,282,,7*47
$GAGSV,2,1,08,15,61,052,33,13,48,304,38,03,43,093,41,08,31,157,41,1*7F
$GAGSV,2,2,08,21,28,281,27,27,23,224,42,05,16,041,33,34,16,089,37,1*7E
$GBGSV,3,1,10,43,84,009,43,42,73,110,40,11,65,101,47,14,60,182,45,1*7F
$GBGSV,3,2,10,34,41,119,43,33,35,201,47,21,31,046,46,28,24,307,39,1*7F
$GBGSV,3,3,10,12,12,120,46,37,01,289,,1*70
$GBGSV,2,1,06,43,84,009,36,42,73,110,33,34,41,119,47,33,35,201,44,5*7F
$GBGSV,2,2,06,21,31,046,33,28,24,307,32,5*7E
$GNGGA,005857.000,4005.098740,N,10513.208220,W,2,51,0.46,1582.607,M,-20.670,M,,*74
$GPGSV,3,1,12,29,74,168,46,18,51,306,34,15,49,136,46,05,44,047,40,1*62
$GPGSV,3,2,12,46,37,214,46,13,36,088,44,23,33,235,48,26,19,288,41,1*60
$GPGSV,3,3,12,20,13,055,37,16,11,320,34,25,06,198,51,10,01,231,,1*67
$GPGSV,1,1,04,18,51,306,24,23,33,235,44,26,19,288,32,25,06,198,34,8*6B
$GLGSV,3,1,10,66,64,158,,88,56,344,41,65,49,044,,72,47,044,38,1*73
$GLGSV,3,2,10,87,45,088,37,79,13,307,39,81,11,309,31,78,08,258,37,1*7D
$GLGSV,3,3,10,71,03,026,35,86,01,112,43,1*74
$GAGSV,2,1,08,15,61,052,36,13,48,304,36,03,43,093,44,08,31,157,45,7*73
$GAGSV,2,2,08,21,28,281,42,27,23,224,47,34,16,089,41,05,16,041,36,7*7A
$GAGSV,2,1,08,15,61,052,33,13,48,304,38,03,43,093,41,08,31,157,41,1*7F
$GAGSV,2,2,08,21,28,281,27,27,23,224,42,05,16,041,33,34,16,089,37,1*7E
$GBGSV,3,1,10,43,84,009,43,42,73,110,40,11,65,101,47,14,60,182,45,1*7F
$GBGSV,3,2,10,34,41,119,42,33,35,201,47,21,31,046,46,28,24,307,39,1*7E
$GBGSV,3,3,10,12,12,120,46,37,01,289,,1*70
$GBGSV,2,1,06,43,84,009,36,42,73,110,33,34,41,119,47,33,35,201,44,5*7F
$GBGSV,2,2,06,21,31,046,33,28,24,307,33,5*7F
$GNGGA,005902.000,4005.098668,N,10513.208160,W,2,51,0.46,1582.804,M,-20.670,M,,*74
$GPGSV,3,1,12,29,74,168,46,18,51,306,34,15,49,136,46,05,44,047,40,1*62
$GPGSV,3,2,12,46,37,214,45,13,36,088,44,23,33,235,48,26,19,288,41,1*63
$GPGSV,3,3,12,20,13,055,38,16,11,320,35,25,06,198,51,10,01,231,,1*69
$GPGSV,1,1,04,18,51,306,26,23,33,235,44,26,19,288,32,25,06,198,36,8*6B
$GLGSV,3,1,11,66,64,158,,88,56,344,41,65,49,044,,72,47,044,38,1*72
$GLGSV,3,2,11,87,45,088,37,79,12,306,38,81,12,310,29,78,07,257,34,1*7C
$GLGSV,3,3,11,71,03,026,35,80,01,353,,86,01,112,41,1*4B
$GAGSV,3,1,09,15,61,052,35,13,48,304,36,03,43,093,44,08,31,157,45,7*70
$GAGSV,3,2,09,21,28,281,42,27,23,224,47,34,16,089,41,05,16,041,36,7*7A
$GAGSV,3,3,09,26,01,282,,7*47
$GAGSV,2,1,08,15,61,052,34,13,48,304,38,03,43,093,40,08,31,157,41,1*79
$GAGSV,2,2,08,21,28,281,27,27,23,224,42,05,16,041,33,34,16,089,37,1*7E
$GBGSV,3,1,10,43,84,009,43,42,73,110,41,11,65,101,47,14,60,182,45,1*7E
$GBGSV,3,2,10,34,41,119,42,33,35,201,47,21,31,046,46,28,24,307,39,1*7E
$GBGSV,3,3,10,12,12,120,46,37,01,289,,1*70
$GBGSV,2,1,06,43,84,009,36,42,73,110,33,34,41,119,47,33,35,201,44,5*7F
$GBGSV,2,2,06,21,31,046,34,28,24,307,33,5*78
$GNGGA,005907.000,4005.098530,N,10513.208172,W,2,51,0.46,1583.099,M,-20.670,M,,*71
$GPGSV,3,1,12,29,74,168,46,18,51,306,34,15,49,136,46,05,44,047,41,1*63
$GPGSV,3,2,12,46,37,214,45,13,36,088,44,23,33,235,48,26,19,288,42,1*60
$GPGSV,3,3,12,20,13,055,38,16,11,320,36,25,06,198,51,10,01,231,,1*6A
$GPGSV,1,1,04,18,51,306,26,23,33,235,44,26,19,288,33,25,06,198,36,8*6A
$GLGSV,3,1,09,66,64,158,,88,56,344,41,72,47,044,39,87,45,088,37,1*7E
$GLGSV,3,2,09,79,12,306,36,81,12,310,29,78,07,257,38,71,03,026,34,1*7B
$GLGSV,3,3,09,86,,,40,1*7B
$GAGSV,3,1,09,15,61,052,34,13,48,304,36,03,43,093,44,08,31,157,45,7*71
$GAGSV,3,2,09,21,28,281,42,27,23,224,47,34,16,089,41,05,16,041,36,7*7A
$GAGSV,3,3,09,26,01,282,,7*47
$GAGSV,2,1,08,15,61,052,34,13,48,304,38,03,43,093,40,08,31,157,41,1*79
$GAGSV,2,2,08,21,28,281,27,27,23,224,42,05,16,041,33,34,16,089,37,1*7E
$GBGSV,3,1,10,43,84,009,43,42,73,110,41,11,65,101,47,14,60,182,45,1*7E
$GBGSV,3,2,10,34,41,119,42,33,35,201,48,21,31,046,46,28,24,307,38,1*70
$GBGSV,3,3,10,12,12,120,45,37,01,289,,1*73
$GBGSV,2,1,06,43,84,009,37,42,73,110,33,34,41,119,47,33,35,201,44,5*7E
$GBGSV,2,2,06,21,31,046,33,28,24,307,34,5*78
$GNGGA,005912.000,4005.098458,N,10513.208190,W,2,51,0.46,1583.335,M,-20.670,M,,*73
$GPGSV,3,1,12,29,74,168,46,18,51,306,34,15,49,136,46,05,44,047,41,1*63
$GPGSV,3,2,12,46,37,214,46,13,36,088,44,23,33,235,48,26,19,288,42,1*63
$GPGSV,3,3,12,20,13,055,38,16,11,320,37,25,06,198,51,10,01,231,,1*6B
$GPGSV,1,1,04,18,51,306,27,23,33,235,44,26,19,288,33,25,06,198,37,8*6A
$GLGSV,3,1,10,66,64,158,,88,57,346,41,65,49,044,,72,47,044,40,1*7F
$GLGSV,3,2,10,87,45,089,35,81,12,310,28,79,12,306,33,78,07,257,36,1*76
$GLGSV,3,3,10,71,03,026,33,80,01,353,,1*74
$GAGSV,2,1,08,15,61,052,34,13,48,304,36,03,43,093,44,08,31,157,45,7*71
$GAGSV,2,2,08,21,28,281,42,27,23,224,47,34,16,089,40,05,16,041,36,7*7B
$GAGSV,2,1,08,15,61,052,34,13,48,304,38,03,43,093,40,08,31,157,41,1*79
$GAGSV,2,2,08,21,28,281,26,27,23,224,42,05,16,041,33,34,16,089,38,1*70
$GBGSV,3,1,10,43,84,009,43,42,73,110,41,11,65,101,47,14,60,182,45,1*7E
$GBGSV,3,2,10,34,41,119,42,33,35,201,48,21,31,046,46,28,24,307,38,1*70
$GBGSV,3,3,10,12,12,120,45,37,01,289,,1*73
$GBGSV,2,1,06,43,84,009,36,42,73,110,33,34,41,119,47,33,35,201,44,5*7F
$GBGSV,2,2,06,21,31,046,32,28,24,307,34,5*79
$GNGGA,005917.000,4005.098416,N,10513.208208,W,2,51,0.46,1583.334,M,-20.670,M,,*7F
$GPGSV,3,1,12,29,74,168,46,18,51,306,34,15,49,136,46,05,44,047,41,1*63
$GPGSV,3,2,12,46,37,214,45,13,36,088,44,23,33,235,48,26,19,288,42,1*60
$GPGSV,3,3,12,20,13,055,38,16,11,320,37,25,06,198,51,10,01,231,,1*6B
$GPGSV,1,1,04,18,51,306,27,23,33,235,44,26,19,288,33,25,06,198,39,8*64
$GLGSV,3,1,10,66,64,158,,88,57,346,41,65,49,044,,72,47,044,40,1*7F
$GLGSV,3,2,10,87,45,089,35,81,12,310,30,79,12,306,34,78,07,257,36,1*78
$GLGSV,3,3,10,71,03,026,32,80,01,353,,1*75
$GAGSV,3,1,09,15,61,052,33,13,48,304,36,03,43,093,44,08,31,157,45,7*76
$GAGSV,3,2,09,21,28,281,42,27,23,224,47,34,16,089,40,05,16,041,36,7*7B
$GAGSV,3,3,09,26,01,282,,7*47
$GAGSV,2,1,08,15,61,052,34,13,48,304,39,03,43,093,40,08,31,157,41,1*78
$GAGSV,2,2,08,21,28,281,26,27,23,224,41,05,16,041,33,34,16,089,38,1*73
$GBGSV,3,1,10,43,84,009,43,42,73,110,41,11,65,101,47,14,60,182,45,1*7E
$GBGSV,3,2,10,34,41,119,42,33,35,201,48,21,31,046,46,28,24,307,38,1*70
$GBGSV,3,3,10,12,12,120,45,37,01,289,,1*73
$GBGSV,2,1,06,43,84,009,36,42,73,110,33,34,41,119,47,33,35,201,44,5*7F
$GBGSV,2,2,06,21,31,046,31,28,24,307,33,5*7D
$GNGGA,005922.000,4005.098494,N,10513.208220,W,2,51,0.46,1583.104,M,-20.670,M,,*78
$GPGSV,3,1,12,29,74,168,46,18,51,306,35,15,49,136,46,05,44,047,41,1*62
$GPGSV,3,2,12,46,37,214,45,13,36,088,44,23,33,235,48,26,19,288,42,1*60
$GPGSV,3,3,12,20,13,055,38,16,11,320,38,25,06,198,51,10,01,231,,1*64
$GPGSV,1,1,04,18,51,306,27,23,33,235,44,26,19,288,33,25,06,198,38,8*65
$GLGSV,3,1,10,66,64,158,,88,57,346,41,65,49,044,,72,47,044,40,1*7F
$GLGSV,3,2,10,87,45,089,36,81,12,310,27,79,12,306,33,78,07,257,33,1*7F
$GLGSV,3,3,10,71,03,026,32,80,01,353,,1*75
$GAGSV,3,1,09,15,61,052,33,13,48,304,36,03,43,093,44,08,31,157,45,7*76
$GAGSV,3,2,09,21,28,281,42,27,23,224,47,34,16,089,40,05,16,041,36,7*7B
$GAGSV,3,3,09,26,01,282,,7*47
$GAGSV,2,1,08,15,61,052,33,13,48,304,39,03,43,093,40,08,31,157,41,1*7F
$GAGSV,2,2,08,21,28,281,27,27,23,224,41,05,16,041,34,34,16,089,38,1*75
$GBGSV,3,1,10,43,84,009,43,42,73,110,41,11,64,103,47,14,60,182,45,1*7D
$GBGSV,3,2,10,34,41,119,42,33,35,201,48,21,31,046,46,28,24,307,39,1*71
$GBGSV,3,3,10,12,12,120,45,37,01,289,,1*73
$GBGSV,2,1,06,43,84,009,36,42,73,110,33,34,41,119,47,33,35,201,44,5*7F
$GBGSV,2,2,06,21,31,046,31,28,24,307,33,5*7D
$GNGGA,005927.000,4005.098572,N,10513.208172,W,2,51,0.46,1582.925,M,-20.670,M,,*7A
$GPGSV,3,1,12,29,74,168,46,18,51,306,36,15,49,136,46,05,44,047,41,1*61
$GPGSV,3,2,12,46,37,214,45,13,36,088,44,23,33,235,48,26,19,288,41,1*63
$GPGSV,3,3,12,20,13,055,38,16,11,320,40,25,06,198,51,10,01,231,,1*6B
$GPGSV,1,1,04,18,51,306,27,23,33,235,44,26,19,288,32,25,06,198,39,8*65
$GLGSV,3,1,10,66,64,158,,88,57,346,41,65,49,044,,72,47,044,39,1*71
$GLGSV,3,2,10,87,45,089,36,81,12,310,26,79,12,306,35,78,07,257,32,1*79
$GLGSV,3,3,10,71,03,026,31,80,01,353,,1*76
$GAGSV,2,1,08,15,61,052,33,13,48,304,36,03,43,093,44,08,31,157,45,7*76
$GAGSV,2,2,08,21,28,281,42,27,23,224,47,34,16,089,40,05,16,041,36,7*7B
$GAGSV,2,1,08,15,61,052,33,13,48,304,39,03,43,093,40,08,31,157,41,1*7F
$GAGSV,2,2,08,21,28,281,27,27,23,224,41,05,16,041,34,34,16,089,38,1*75
$GBGSV,3,1,10,43,84,009,44,42,73,110,41,11,64,103,47,14,61,182,45,1*7B
$GBGSV,3,2,10,34,41,119,42,33,35,201,48,21,31,046,45,28,24,307,40,1*7C
$GBGSV,3,3,10,12,12,120,45,37,01,289,,1*73
$GBGSV,2,1,06,43,84,009,36,42,73,110,33,34,41,119,47,33,35,201,44,5*7F
$GBGSV,2,2,06,21,31,046,32,28,24,307,33,5*7E
$PAIR010,0,1,2308,349188*3C
$GNGGA,005932.000,4005.098590,N,10513.208082,W,2,51,0.46,1582.837,M,-20.670,M,,*7E
$GPGSV,3,1,12,29,74,168,46,18,51,306,36,15,49,136,46,05,44,047,41,1*61
$GPGSV,3,2,12,46,37,214,45,13,36,088,44,23,33,235,48,26,19,288,41,1*63
$GPGSV,3,3,12,20,13,055,38,16,11,320,40,25,06,198,51,10,01,231,,1*6B
$GPGSV,1,1,04,18,51,306,28,23,33,235,44,26,19,288,32,25,06,198,40,8*64
$GLGSV,3,1,10,66,64,158,,88,57,346,41,65,49,044,,72,47,044,39,1*71
$GLGSV,3,2,10,87,45,089,36,81,12,310,27,79,12,306,34,78,07,257,37,1*7C
$GLGSV,3,3,10,71,03,026,31,80,01,353,,1*76
$GAGSV,3,1,09,15,61,052,33,13,48,304,36,03,43,093,44,08,31,157,45,7*76
$GAGSV,3,2,09,21,28,281,42,27,23,224,47,34,16,089,40,05,16,041,35,7*78
$GAGSV,3,3,09,26,01,282,,7*47
$GAGSV,2,1,08,15,61,052,33,13,48,304,39,03,43,093,40,08,31,157,41,1*7F
$GAGSV,2,2,08,21,28,281,27,27,23,224,40,05,16,041,35,34,16,089,38,1*75
$GBGSV,3,1,10,43,84,009,44,42,73,110,41,11,64,103,47,14,61,182,45,1*7B
$GBGSV,3,2,10,34,41,119,42,33,35,201,48,21,30,045,45,28,24,307,40,1*7E
$GBGSV,3,3,10,12,12,120,45,37,01,289,,1*73
$GBGSV,2,1,06,43,84,009,36,42,73,110,33,34,41,119,47,33,35,201,44,5*7F
$GBGSV,2,2,06,21,30,045,32,28,24,307,33,5*7C
$GNGGA,005937.000,4005.098584,N,10513.208034,W,2,51,0.46,1582.826,M,-20.669,M,,*7B
$GPGSV,3,1,12,29,74,168,46,18,51,306,36,15,49,136,46,05,44,047,41,1*61
$GPGSV,3,2,12,46,37,214,46,13,36,088,44,23,33,235,48,26,19,288,41,1*60
$GPGSV,3,3,12,20,13,055,38,16,11,320,40,25,06,198,51,10,01,231,,1*6B
$GPGSV,1,1,04,18,51,306,28,23,33,235,44,26,19,288,32,25,06,198,40,8*64
$GLGSV,2,1,08,88,57,346,40,65,49,044,,72,47,044,39,87,45,089,36,1*7C
$GLGSV,2,2,08,79,12,306,33,81,12,310,30,78,07,257,34,71,03,026,31,1*7F
$GAGSV,3,1,09,15,61,052,34,13,48,304,36,03,43,093,44,08,31,157,45,7*71
$GAGSV,3,2,09,21,28,281,42,27,23,224,47,34,16,089,40,05,16,041,34,7*79
$GAGSV,3,3,09,26,01,282,,7*47
$GAGSV,2,1,08,15,61,052,33,13,48,304,39,03,43,093,40,08,31,157,41,1*7F
$GAGSV,2,2,08,21,28,281,28,27,23,224,40,05,16,041,35,34,16,089,38,1*7A
$GBGSV,3,1,10,43,84,009,44,42,73,110,41,11,64,103,47,14,61,182,45,1*7B
$GBGSV,3,2,10,34,41,119,42,33,35,201,48,21,30,045,45,28,25,308,40,1*70
$GBGSV,3,3,10,12,12,120,44,37,01,289,,1*72
$GBGSV,2,1,06,43,84,009,36,42,73,110,33,34,41,119,47,33,35,201,44,5*7F
$GBGSV,2,2,06,21,30,045,32,28,25,308,33,5*72
$GNGGA,005942.000,4005.098608,N,10513.208082,W,2,51,0.46,1582.846,M,-20.670,M,,*7D
$GPGSV,3,1,12,29,74,168,46,18,51,306,35,15,49,136,47,05,44,047,41,1*63
$GPGSV,3,2,12,46,37,214,46,13,36,088,44,23,33,235,48,26,19,288,41,1*60
$GPGSV,3,3,12,20,13,055,38,16,11,320,40,25,06,198,51,10,01,231,,1*6B
$GPGSV,1,1,04,18,51,306,28,23,33,235,44,26,19,288,32,25,06,198,41,8*65
$GLGSV,3,1,09,66,64,158,,88,57,346,39,65,49,044,,72,47,044,39,1*76
$GLGSV,3,2,09,87,45,089,34,79,12,306,34,81,12,310,32,78,07,257,37,1*72
$GLGSV,3,3,09,71,03,026,31,1*42
$GAGSV,3,1,09,15,61,052,34,13,48,304,36,03,43,093,44,08,31,157,45,7*71
$GAGSV,3,2,09,21,28,281,42,27,23,224,47,34,16,089,40,05,16,041,33,7*7E
$GAGSV,3,3,09,26,01,282,,7*47
$GAGSV,2,1,08,15,61,052,34,13,48,304,39,03,43,093,40,08,31,157,41,1*78
$GAGSV,2,2,08,21,28,281,28,27,23,224,40,05,16,041,35,34,16,089,38,1*7A
$GBGSV,3,1,10,43,84,009,44,42,73,110,41,11,64,103,47,14,61,182,45,1*7B
$GBGSV,3,2,10,34,41,119,43,33,36,201,48,21,30,045,45,28,25,308,40,1*72
$GBGSV,3,3,10,12,12,120,44,37,01,289,,1*72
$GBGSV,2,1,06,43,84,009,36,42,73,110,33,34,41,119,47,33,36,201,44,5*7C
$GBGSV,2,2,06,21,30,045,32,28,25,308,34,5*75
$GNGGA,005947.000,4005.098656,N,10513.208070,W,2,51,0.46,1582.845,M,-20.670,M,,*7D
$GPGSV,3,1,12,29,74,168,45,18,51,306,35,15,49,136,47,05,44,047,41,1*60
$GPGSV,3,2,12,46,37,214,46,13,36,088,44,23,33,235,48,26,19,288,41,1*60
$GPGSV,3,3,12,20,13,055,38,16,11,320,40,25,06,198,51,10,01,231,,1*6B
$GPGSV,1,1,04,18,51,306,28,23,33,235,44,26,19,288,31,25,06,198,41,8*66
$GLGSV,3,1,10,66,64,158,,88,57,346,39,65,49,044,,72,47,044,39,1*7E
$GLGSV,3,2,10,87,45,089,33,81,12,310,34,79,12,306,36,78,07,257,39,1*77
$GLGSV,3,3,10,71,03,026,31,80,01,353,,1*76
$GAGSV,3,1,09,15,61,052,34,13,48,304,36,03,43,093,44,08,31,157,45,7*71
$GAGSV,3,2,09,21,28,281,42,27,23,224,47,34,16,089,40,05,16,041,33,7*7E
$GAGSV,3,3,09,26,01,282,,7*47
$GAGSV,2,1,08,15,61,052,34,13,48,304,39,03,43,093,40,08,31,157,41,1*78
$GAGSV,2,2,08,21,28,281,28,27,23,224,40,05,16,041,35,34,16,089,38,1*7A
$GBGSV,3,1,10,43,84,009,44,42,73,110,41,11,64,103,47,14,61,182,45,1*7B
$GBGSV,3,2,10,34,40,120,43,33,36,201,49,21,30,045,45,28,25,308,41,1*79
$GBGSV,3,3,10,12,12,120,44,37,01,288,,1*73
$GBGSV,2,1,06,43,84,009,36,42,73,110,33,34,40,120,47,33,36,201,44,5*77
$GBGSV,2,2,06,21,30,045,31,28,25,308,34,5*76
$GNGGA,005952.000,4005.098614,N,10513.208034,W,2,51,0.46,1582.880,M,-20.670,M,,*76
$GPGSV,3,1,12,29,74,168,45,18,51,306,35,15,49,136,47,05,44,047,41,1*60
$GPGSV,3,2,12,46,37,214,46,13,36,088,43,23,33,235,48,26,19,288,41,1*67
$GPGSV,3,3,12,20,13,055,38,16,11,320,40,25,06,198,51,10,01,231,19,1*63
$GPGSV,1,1,04,18,51,306,28,23,33,235,44,26,19,288,31,25,06,198,42,8*65
$GLGSV,3,1,10,66,64,158,,88,57,346,39,65,49,044,,72,47,044,39,1*7E
$GLGSV,3,2,10,87,45,089,33,81,12,310,33,79,12,306,38,78,07,257,40,1*70
$GLGSV,3,3,10,71,03,026,30,80,01,353,,1*77
$GAGSV,3,1,09,15,61,052,34,13,48,304,37,03,43,093,44,08,31,157,45,7*70
$GAGSV,3,2,09,21,28,281,42,27,23,224,47,34,16,089,40,05,16,041,34,7*79
$GAGSV,3,3,09,26,01,282,,7*47
$GAGSV,2,1,08,15,61,052,34,13,48,304,39,03,43,093,40,08,31,157,41,1*78
$GAGSV,2,2,08,21,28,281,28,27,23,224,40,05,16,041,35,34,16,089,38,1*7A
$GBGSV,3,1,10,43,84,018,43,42,73,105,42,11,64,103,47,14,61,182,45,1*7B
$GBGSV,3,2,10,34,40,120,44,33,36,201,49,21,30,045,45,28,25,308,41,1*7E
$GBGSV,3,3,10,12,12,120,43,37,01,288,,1*74
$GBGSV,2,1,06,43,84,018,36,42,73,105,33,34,40,120,47,33,36,201,44,5*73
$GBGSV,2,2,06,21,30,045,31,28,25,308,34,5*76
$GNGGA,005957.000,4005.098596,N,10513.208064,W,2,51,0.46,1582.786,M,-20.670,M,,*76
$GPGSV,3,1,12,29,74,168,45,18,51,306,35,15,49,136,47,05,44,047,41,1*60
$GPGSV,3,2,12,46,37,214,45,13,36,088,43,23,33,235,48,26,19,288,41,1*64
$GPGSV,3,3,12,20,13,055,38,16,11,320,38,25,06,198,51,10,01,231,17,1*62
$GPGSV,1,1,04,18,51,306,28,23,33,235,44,26,19,288,30,25,06,198,42,8*64
$GLGSV,3,1,10,66,64,158,,88,57,346,39,65,49,044,,72,47,044,40,1*70
$GLGSV,3,2,10,87,45,089,34,81,12,310,32,79,12,306,37,78,07,257,39,1*77
$GLGSV,3,3,10,71,03,026,29,80,01,353,,1*7F
$GAGSV,3,1,09,15,61,052,34,13,48,304,37,03,43,093,44,08,31,157,45,7*70
$GAGSV,3,2,09,21,28,281,42,27,23,224,47,34,16,089,40,05,16,041,34,7*79
$GAGSV,3,3,09,26,01,282,,7*47
$GAGSV,2,1,08,15,61,052,34,13,48,304,39,03,43,093,40,08,31,157,41,1*78
$GAGSV,2,2,08,21,28,281,27,27,23,224,40,05,16,041,35,34,16,089,38,1*75
$GBGSV,3,1,10,43,84,018,42,42,73,105,42,11,64,103,47,14,61,182,45,1*7A
$GBGSV,3,2,10,34,40,120,44,33,36,201,49,21,30,045,45,28,25,308,41,1*7E
$GBGSV,3,3,10,12,12,120,43,37,01,288,,1*74
$GBGSV,2,1,06,43,84,018,36,42,73,105,33,34,40,120,47,33,36,201,44,5*73
$GBGSV,2,2,06,21,30,045,31,28,25,308,34,5*76
$GNGGA,010002.000,4005.098560,N,10513.208142,W,2,51,0.46,1582.578,M,-20.670,M,,*74
$GPGSV,3,1,12,29,74,168,45,18,51,306,35,15,49,136,47,05,44,047,40,1*61
$GPGSV,3,2,12,46,37,214,45,13,36,088,43,23,33,235,48,26,19,288,41,1*64
$GPGSV,3,3,12,20,13,055,38,16,11,320,38,25,06,198,51,10,01,231,14,1*61
$GPGSV,1,1,04,18,51,306,28,23,33,235,44,26,19,288,31,25,06,198,43,8*64
$GLGSV,3,1,09,66,64,158,,88,57,346,38,72,47,044,41,87,45,089,35,1*7F
$GLGSV,3,2,09,79,12,306,35,81,12,310,31,78,07,257,41,71,03,026,28,1*72
$GLGSV,3,3,09,80,01,353,,1*4D
$GAGSV,3,1,09,15,61,052,35,13,48,304,37,03,43,093,44,08,31,157,45,7*71
$GAGSV,3,2,09,21,28,281,42,27,23,224,47,34,16,089,39,05,16,041,35,7*76
$GAGSV,3,3,09,26,01,282,,7*47
$GAGSV,2,1,08,15,61,052,33,13,48,304,39,03,43,093,40,08,31,157,41,1*7F
$GAGSV,2,2,08,21,28,281,27,27,23,224,40,05,16,041,35,34,16,089,38,1*75
$GBGSV,3,1,10,43,84,018,42,42,73,105,42,11,64,103,47,14,61,182,45,1*7A
$GBGSV,3,2,10,34,40,120,44,33,36,201,49,21,30,045,45,28,25,308,41,1*7E
$GBGSV,3,3,10,12,12,120,43,37,01,288,,1*74
$GBGSV,2,1,06,43,84,018,36,42,73,105,33,34,40,120,47,33,36,201,44,5*73
$GBGSV,2,2,06,21,30,045,30,28,25,308,34,5*77
$GNGGA,010007.000,4005.098590,N,10513.208172,W,2,51,0.46,1582.517,M,-20.670,M,,*74
$GPGSV,3,1,12,29,74,168,45,18,51,306,34,15,49,136,47,05,44,047,40,1*60
$GPGSV,3,2,12,46,37,214,46,13,36,088,43,23,33,235,48,26,19,288,41,1*67
$GPGSV,3,3,12,20,13,055,38,16,11,320,38,25,06,198,51,10,01,231,15,1*60
$GPGSV,1,1,04,18,51,306,28,23,33,235,44,26,19,288,30,25,06,198,43,8*65
$GLGSV,3,1,09,66,64,158,,88,57,346,37,65,49,044,,72,47,044,41,1*77
$GLGSV,3,2,09,87,45,089,35,79,12,306,34,81,12,310,30,78,07,257,39,1*7F
$GLGSV,3,3,09,71,03,026,26,1*44
$GAGSV,3,1,09,15,61,052,35,13,48,304,38,03,43,093,44,08,31,157,45,7*7E
$GAGSV,3,2,09,21,28,281,42,27,23,224,47,34,16,089,39,05,16,041,35,7*76
$GAGSV,3,3,09,26,01,282,,7*47
$GAGSV,2,1,08,15,61,052,34,13,48,304,39,03,43,093,40,08,31,157,41,1*78
$GAGSV,2,2,08,21,28,281,27,27,23,224,39,05,16,041,35,34,16,089,38,1*7B
$GBGSV,3,1,10,43,84,018,43,42,73,105,42,11,64,103,47,14,61,182,44,1*7A
$GBGSV,3,2,10,34,40,120,44,33,36,201,49,21,30,045,45,28,25,308,41,1*7E
$GBGSV,3,3,10,12,12,120,43,37,01,288,,1*74
$GBGSV,2,1,06,43,84,018,36,42,73,105,33,34,40,120,47,33,36,201,44,5*73
$GBGSV,2,2,06,21,30,045,30,28,25,308,34,5*77
$GNGGA,010012.000,4005.098590,N,10513.208190,W,2,51,0.46,1582.564,M,-20.670,M,,*78
$GPGSV,3,1,12,29,74,168,45,18,51,306,34,15,49,136,47,05,44,047,40,1*60
$GPGSV,3,2,12,46,37,214,46,13,36,088,43,23,33,235,48,26,19,288,41,1*67
$GPGSV,3,3,12,20,13,055,39,16,11,320,39,25,06,198,51,10,01,231,15,1*60
$GPGSV,1,1,04,18,51,306,29,23,33,235,44,26,19,288,31,25,06,198,43,8*65
$GLGSV,3,1,10,66,64,158,,88,57,346,37,65,49,044,,72,47,044,39,1*70
$GLGSV,3,2,10,87,45,089,34,81,12,310,29,79,12,306,32,78,07,257,40,1*76
$GLGSV,3,3,10,71,03,026,26,80,01,353,,1*70
$GAGSV,2,1,08,15,61,052,35,13,48,304,38,03,43,093,44,08,31,157,45,7*7E
$GAGSV,2,2,08,21,28,281,42,27,23,224,47,34,16,089,38,05,16,041,35,7*77
$GAGSV,2,1,08,15,61,052,34,13,48,304,39,03,43,093,40,08,31,157,41,1*78
$GAGSV,2,2,08,21,28,281,26,27,23,224,39,05,16,041,35,34,16,089,38,1*7A
$GBGSV,3,1,10,43,84,018,44,42,73,105,42,11,64,103,47,14,61,182,44,1*7D
$GBGSV,3,2,10,34,40,120,44,33,36,201,49,21,30,045,45,28,25,308,41,1*7E
$GBGSV,3,3,10,12,12,120,42,37,01,288,,1*75
$GBGSV,2,1,06,43,84,018,36,42,73,105,33,34,40,120,47,33,36,201,44,5*73
$GBGSV,2,2,06,21,30,045,29,28,25,308,34,5*7F
$GNGGA,010017.000,4005.098584,N,10513.208232,W,2,51,0.46,1582.654,M,-20.669,M,,*7B
$GPGSV,3,1,12,29,74,168,45,18,51,306,34,15,49,136,47,05,43,048,40,1*68
$GPGSV,3,2,12,46,37,214,46,13,36,088,43,23,33,235,48,26,19,288,42,1*64
$GPGSV,3,3,12,20,13,055,39,16,11,320,39,25,06,198,51,10,01,231,16,1*63
$GPGSV,1,1,04,18,51,306,30,23,33,235,45,26,19,288,32,25,06,198,44,8*68
$GLGSV,3,1,10,66,64,158,,88,57,346,38,65,49,044,,72,47,044,37,1*71
$GLGSV,3,2,10,87,45,089,31,81,12,310,32,79,12,306,32,78,07,257,41,1*78
$GLGSV,3,3,10,71,03,026,26,80,01,353,,1*70
$GAGSV,3,1,09,15,61,052,35,13,48,304,38,03,43,093,44,08,31,157,45,7*7E
$GAGSV,3,2,09,21,28,281,42,27,23,224,46,34,16,089,38,05,16,041,35,7*76
$GAGSV,3,3,09,26,01,282,,7*47
$GAGSV,2,1,08,15,61,052,35,13,48,304,40,03,43,093,41,08,31,157,41,1*76
$GAGSV,2,2,08,21,28,281,26,27,23,224,39,05,16,041,36,34,16,089,39,1*78
$GBGSV,3,1,10,43,84,018,44,42,73,105,42,11,64,103,47,14,61,182,44,1*7D
$GBGSV,3,2,10,34,40,120,44,33,36,201,49,21,30,045,45,28,25,308,41,1*7E
$GBGSV,3,3,10,12,12,120,42,37,01,288,,1*75
$GBGSV,2,1,06,43,84,018,36,42,73,105,33,34,40,120,47,33,36,201,45,5*72
$GBGSV,2,2,06,21,30,045,29,28,25,308,35,5*7E
$GNGGA,010022.000,4005.098536,N,10513.208298,W,2,51,0.46,1582.771,M,-20.670,M,,*7A
$GPGSV,3,1,12,29,74,168,45,18,51,306,34,15,49,136,47,05,43,048,40,1*68
$GPGSV,3,2,12,46,37,214,46,13,36,088,43,23,33,235,48,26,19,288,42,1*64
$GPGSV,3,3,12,20,13,055,39,16,11,320,39,25,06,198,51,10,02,232,13,1*66
$GPGSV,1,1,04,18,51,306,31,23,33,235,45,26,19,288,33,25,06,198,44,8*68
$GLGSV,3,1,09,88,57,346,38,65,49,044,,72,47,044,37,87,45,089,32,1*79
$GLGSV,3,2,09,79,12,306,33,81,12,310,32,78,07,257,40,71,03,026,26,1*78
$GLGSV,3,3,09,80,01,353,,1*4D
$GAGSV,3,1,09,15,61,052,35,13,48,304,38,03,43,093,44,08,31,157,45,7*7E
$GAGSV,3,2,09,21,28,281,42,27,23,224,46,34,16,089,38,05,16,041,34,7*77
$GAGSV,3,3,09,26,01,282,,7*47
$GAGSV,2,1,08,15,61,052,34,13,48,304,40,03,43,093,40,08,31,157,41,1*76
$GAGSV,2,2,08,21,28,281,26,27,23,224,38,05,16,041,36,34,16,089,39,1*79
$GBGSV,3,1,10,43,84,018,44,42,73,105,42,11,64,103,47,14,61,182,44,1*7D
$GBGSV,3,2,10,34,40,120,44,33,36,201,49,21,30,045,45,28,25,308,41,1*7E
$GBGSV,3,3,10,12,12,120,42,37,01,288,,1*75
$GBGSV,2,1,06,43,84,018,36,42,73,105,32,34,40,120,47,33,36,201,45,5*73
$GBGSV,2,2,06,21,30,045,28,28,25,308,35,5*7F
$GNGGA,010027.000,4005.098512,N,10513.208274,W,2,51,0.46,1582.751,M,-20.670,M,,*79
$GPGSV,3,1,12,29,74,168,45,18,51,306,34,15,50,135,47,05,43,048,40,1*63
$GPGSV,3,2,12,46,37,214,46,13,37,087,43,23,33,235,48,26,19,288,42,1*6A
$GPGSV,3,3,12,20,13,055,39,16,11,320,39,25,06,198,51,10,02,232,15,1*60
$GPGSV,1,1,04,18,51,306,31,23,33,235,45,26,19,288,33,25,06,198,45,8*69
$GLGSV,3,1,10,66,64,158,,88,57,346,39,65,49,044,,72,47,044,37,1*70
$GLGSV,3,2,10,87,45,089,32,81,12,310,31,79,12,306,31,78,07,257,44,1*7E
$GLGSV,3,3,10,71,03,026,25,80,01,353,,1*73
$GAGSV,3,1,09,15,61,052,35,13,48,304,38,03,43,093,44,08,31,157,45,7*7E
$GAGSV,3,2,09,21,28,281,42,27,23,224,46,34,16,089,38,05,16,041,33,7*70
$GAGSV,3,3,09,26,01,282,,7*47
$GAGSV,2,1,08,15,61,052,34,13,48,304,40,03,43,093,40,08,31,157,41,1*76
$GAGSV,2,2,08,21,28,281,26,27,23,224,37,05,16,041,37,34,16,089,39,1*77
$GBGSV,3,1,10,43,84,018,44,42,73,105,42,11,64,103,47,14,61,182,44,1*7D
$GBGSV,3,2,10,34,40,120,44,33,36,201,49,21,30,045,45,28,25,308,41,1*7E
$GBGSV,3,3,10,12,12,120,42,37,01,288,,1*75
$GBGSV,2,1,06,43,84,018,36,42,73,105,32,34,40,120,47,33,36,201,45,5*73
$GBGSV,2,2,06,21,30,045,29,28,25,308,35,5*7E
$PAIR010,0,1,2308,349248*33
$GNGGA,010032.000,4005.098560,N,10513.208232,W,2,51,0.46,1582.777,M,-20.669,M,,*76
$GPGSV,3,1,12,29,74,168,45,18,52,307,36,15,50,135,47,05,43,048,40,1*63
$GPGSV,3,2,12,46,37,214,45,13,37,087,43,23,33,235,48,26,19,288,42,1*69
$GPGSV,3,3,12,20,12,056,39,16,11,319,38,25,06,198,51,10,02,232,16,1*6A
$GPGSV,1,1,04,18,52,307,31,23,33,235,44,26,19,288,34,25,06,198,45,8*6D
$GLGSV,3,1,09,66,64,158,,88,57,346,38,72,47,044,38,87,45,089,32,1*76
$GLGSV,3,2,09,79,12,306,31,81,12,310,32,78,07,257,44,71,03,026,22,1*7A
$GLGSV,3,3,09,80,01,353,,1*4D
$GAGSV,3,1,09,15,61,052,33,13,48,304,38,03,43,093,44,08,31,157,45,7*78
$GAGSV,3,2,09,21,28,281,42,27,23,224,46,34,16,089,38,05,16,041,31,7*72
$GAGSV,3,3,09,26,01,282,,7*47
$GAGSV,2,1,08,15,61,052,34,13,48,304,40,03,43,093,40,08,31,157,41,1*76
$GAGSV,2,2,08,21,28,281,26,27,23,224,37,05,16,041,37,34,16,089,39,1*77
$GBGSV,3,1,10,43,84,018,44,42,73,105,42,11,64,103,47,14,61,182,44,1*7D
$GBGSV,3,2,10,34,40,120,45,33,36,201,49,21,30,045,44,28,25,308,41,1*7E
$GBGSV,3,3,10,12,12,120,42,37,01,288,,1*75
$GBGSV,2,1,06,43,84,018,36,42,73,105,33,34,40,120,47,33,36,201,45,5*72
$GBGSV,2,2,06,21,30,045,29,28,25,308,35,5*7E
$GNGGA,010037.000,4005.098602,N,10513.208166,W,2,51,0.46,1582.832,M,-20.670,M,,*70
$GPGSV,3,1,12,29,74,168,45,18,52,307,36,15,50,135,47,05,43,048,40,1*63
$GPGSV,3,2,12,46,37,214,46,13,37,087,43,23,34,236,48,26,19,288,42,1*6E
$GPGSV,3,3,12,20,12,056,40,16,11,319,38,25,06,198,51,10,02,232,15,1*67
$GPGSV,1,1,04,18,52,307,32,23,34,236,44,26,19,288,34,25,06,198,45,8*6A
$GLGSV,3,1,10,66,64,158,,88,57,346,37,65,49,044,,72,47,044,38,1*71
$GLGSV,3,2,10,87,45,089,31,81,12,310,31,79,12,306,29,78,07,257,44,1*74
$GLGSV,3,3,10,71,03,026,22,80,01,353,,1*74
$GAGSV,3,1,09,15,61,052,33,13,48,304,38,03,43,093,44,08,31,157,45,7*78
$GAGSV,3,2,09,21,28,281,42,27,23,224,46,34,16,089,38,05,16,041,29,7*7B
$GAGSV,3,3,09,26,01,282,,7*47
$GAGSV,2,1,08,15,61,052,34,13,48,304,40,03,43,093,40,08,31,157,41,1*76
$GAGSV,2,2,08,21,28,281,26,27,23,224,37,05,16,041,38,34,16,089,39,1*78
$GBGSV,3,1,10,43,84,018,44,42,73,105,42,11,64,103,47,14,61,182,44,1*7D
$GBGSV,3,2,10,34,40,120,45,33,36,201,49,21,30,045,44,28,25,308,41,1*7E
$GBGSV,3,3,10,12,12,120,41,37,01,288,,1*76
$GBGSV,2,1,06,43,84,018,36,42,73,105,33,34,40,120,47,33,36,201,45,5*72
$GBGSV,2,2,06,21,30,045,28,28,25,308,35,5*7F
$GNGGA,010042.000,4005.098608,N,10513.208112,W,2,51,0.46,1582.846,M,-20.669,M,,*70
$GPGSV,3,1,12,29,73,168,45,18,52,307,37,15,50,135,47,05,43,048,38,1*6A
$GPGSV,3,2,12,13,37,087,43,46,37,214,45,23,34,236,48,26,19,287,42,1*62
$GPGSV,3,3,12,20,12,056,40,16,11,319,38,25,06,198,51,10,02,232,16,1*64
$GPGSV,1,1,04,18,52,307,32,23,34,236,44,26,19,287,34,25,06,198,46,8*66
$GLGSV,3,1,10,66,64,158,,88,57,346,39,65,49,044,,72,47,044,38,1*7F
$GLGSV,3,2,10,87,45,089,32,81,12,310,30,79,12,306,31,78,07,257,45,1*7E
$GLGSV,3,3,10,71,03,026,21,80,01,353,,1*77
$GAGSV,3,1,09,15,61,052,33,13,48,304,38,03,43,093,44,08,31,157,45,7*78
$GAGSV,3,2,09,21,28,281,42,27,23,224,46,34,16,089,38,05,16,041,28,7*7A
$GAGSV,3,3,09,26,01,282,,7*47
$GAGSV,2,1,08,15,61,052,34,13,48,304,40,03,43,093,40,08,31,157,41,1*76
$GAGSV,2,2,08,21,28,281,26,27,23,224,37,05,16,041,38,34,16,089,39,1*78
$GBGSV,3,1,11,43,84,018,44,42,73,105,43,11,64,103,47,14,61,182,44,1*7D
$GBGSV,3,2,11,34,40,120,45,33,36,201,49,21,30,045,44,28,25,308,41,1*7F
$GBGSV,3,3,11,12,12,120,41,37,01,288,,31,,,26,1*71
$GBGSV,2,1,06,43,84,018,36,42,73,105,32,34,40,120,47,33,36,201,45,5*73
$GBGSV,2,2,06,21,30,045,28,28,25,308,36,5*7C
$GNGGA,010047.000,4005.098584,N,10513.208058,W,2,51,0.46,1582.877,M,-20.670,M,,*77
$GPGSV,3,1,12,29,73,168,45,18,52,307,37,15,50,135,47,05,43,048,38,1*6A
$GPGSV,3,2,12,46,37,214,46,13,37,087,43,23,34,236,48,26,19,287,42,1*61
$GPGSV,3,3,12,20,12,056,40,16,11,319,38,25,06,198,51,10,02,232,17,1*65
$GPGSV,1,1,04,18,52,307,32,23,34,236,44,26,19,287,34,25,06,198,46,8*66
$GLGSV,2,1,08,66,64,158,,88,57,346,37,72,47,044,38,87,45,089,33,1*78
$GLGSV,2,2,08,79,12,306,32,81,12,310,27,78,07,257,44,71,03,026,21,1*7E
$GAGSV,3,1,09,15,61,052,33,13,48,304,38,03,43,093,44,08,31,157,45,7*78
$GAGSV,3,2,09,21,28,281,42,27,23,224,46,34,16,089,37,05,16,041,28,7*75
$GAGSV,3,3,09,26,01,282,,7*47
$GAGSV,2,1,08,15,61,052,34,13,48,304,40,03,43,093,40,08,31,157,41,1*76
$GAGSV,2,2,08,21,28,281,26,27,23,224,36,05,16,041,38,34,16,089,39,1*79
$GBGSV,3,1,11,43,84,018,44,42,73,105,43,11,64,103,47,14,61,182,44,1*7D
$GBGSV,3,2,11,34,40,120,45,33,36,201,49,21,30,045,44,28,25,308,41,1*7F
$GBGSV,3,3,11,12,12,120,40,37,01,288,,31,,,26,1*70
$GBGSV,2,1,06,43,84,018,36,42,73,105,33,34,40,120,47,33,36,201,45,5*72
$GBGSV,2,2,06,21,30,045,28,28,25,308,36,5*7C
