$PAIR001,062,0*3F
$PAIR001,062,0*3F
$PAIR001,062,0*3F
$PAIR001,062,0*3F
$PAIR001,062,0*3F
$PAIR001,062,0*3F
$PAIR001,062,0*3F
$PAIR001,062,0*3F
$PAIR001,062,0*3F
$GNGGA,223006.000,4000.585900,N,10514.620008,W,2,36,0.52,1605.628,M,-20.635,M,,*7D
$GPGSV,4,1,13,05,69,161,44,20,61,063,,25,52,236,41,29,47,313,23,1*65
$GPGSV,4,2,13,12,41,191,50,11,38,056,24,46,37,214,48,18,13,259,45,1*6D
$GPGSV,4,3,13,06,04,067,,13,03,137,45,09,03,033,,28,02,286,,1*69
$GPGSV,4,4,13,15,02,169,49,1*53
$GPGSV,1,1,02,25,52,236,38,18,13,259,39,8*6C
$GLGSV,2,1,05,76,38,258,38,71,30,140,45,87,17,287,20,75,11,202,48,1*79
$GLGSV,2,2,05,69,06,019,18,1*45
$GAGSV,2,1,08,34,71,328,21,30,56,255,33,36,36,055,15,02,32,183,46,7*7E
$GAGSV,2,2,08,15,29,264,29,09,17,071,17,05,15,124,47,04,01,028,10,7*7B
$GAGSV,2,1,05,34,71,328,17,30,56,255,38,02,32,183,46,15,29,264,34,1*77
$GAGSV,2,2,05,05,15,124,36,1*43
$GBGSV,3,1,10,34,71,030,,11,62,323,,12,47,075,29,21,47,105,49,1*71
$GBGSV,3,2,10,42,27,167,49,44,26,091,33,22,23,046,24,25,20,231,49,1*79
$GBGSV,3,3,10,14,08,184,39,52,,,27,1*4F
$GBGSV,2,1,06,21,47,105,46,42,27,167,42,44,26,091,24,22,23,046,15,5*79
$GBGSV,2,2,06,23,23,284,21,25,20,231,39,5*76
$GNGGA,223011.000,4000.585996,N,10514.620086,W,2,38,0.53,1606.542,M,-20.634,M,,*70
$GPGSV,4,1,14,05,69,161,44,20,61,063,22,25,52,236,41,29,47,313,17,1*65
$GPGSV,4,2,14,12,41,191,50,11,38,056,26,46,37,214,48,18,13,259,44,1*69
$GPGSV,4,3,14,06,04,067,,13,03,137,46,09,03,033,,28,02,286,,1*6D
$GPGSV,4,4,14,15,02,169,49,31,01,312,,1*67
$GPGSV,1,1,02,25,52,236,39,18,13,259,40,8*63
$GLGSV,2,1,05,76,38,258,38,71,30,140,46,87,17,287,20,75,11,202,48,1*7A
$GLGSV,2,2,05,69,06,019,20,1*4E
$GAGSV,3,1,09,34,71,328,23,30,56,255,33,36,36,055,19,02,32,183,46,7*70
$GAGSV,3,2,09,15,29,264,32,27,24,315,,09,17,071,15,05,15,124,47,7*79
$GAGSV,3,3,09,04,01,028,13,7*47
$GAGSV,2,1,06,34,71,328,17,30,56,255,38,02,32,183,47,15,29,264,35,1*74
$GAGSV,2,2,06,09,17,071,17,05,15,124,37,1*7E
$GBGSV,4,1,13,34,71,030,26,11,62,323,,21,47,105,49,12,47,075,25,1*7D
$GBGSV,4,2,13,43,42,299,,42,27,167,49,44,26,091,29,22,23,046,21,1*78
$GBGSV,4,3,13,23,23,284,30,25,20,231,48,14,08,184,39,37,03,329,,1*72
$GBGSV,4,4,13,52,,,26,1*77
$GBGSV,2,1,06,21,47,105,46,42,27,167,42,44,26,091,28,22,23,046,17,5*77
$GBGSV,2,2,06,23,23,284,21,25,20,231,42,5*7A
$GNGGA,223016.000,4000.586242,N,10514.619900,W,2,37,0.51,1606.732,M,-20.635,M,,*72
$GPGSV,4,1,14,05,70,159,44,20,61,063,20,25,52,236,41,29,47,313,23,1*63
$GPGSV,4,2,14,12,41,191,51,11,38,056,17,46,37,214,48,18,13,259,44,1*6A
$GPGSV,4,3,14,13,03,137,46,06,03,068,,09,02,032,,15,02,169,50,1*6C
$GPGSV,4,4,14,28,02,286,,31,01,312,,1*66
$GPGSV,1,1,02,25,52,236,39,18,13,259,40,8*63
$GLGSV,2,1,05,76,38,258,34,71,30,140,45,87,17,287,17,75,11,202,48,1*71
$GLGSV,2,2,05,69,06,019,17,1*4A
$GAGSV,3,1,09,34,71,328,22,30,56,255,33,36,36,055,19,02,32,183,46,7*71
$GAGSV,3,2,09,15,29,264,34,27,24,315,22,09,17,071,,05,15,124,47,7*7B
$GAGSV,3,3,09,04,01,028,14,7*40
$GAGSV,2,1,06,34,71,328,17,30,56,255,38,02,32,183,47,15,29,264,35,1*74
$GAGSV,2,2,06,09,17,071,15,05,15,124,36,1*7D
$GBGSV,3,1,11,34,71,030,24,11,62,323,24,12,47,075,28,21,47,105,49,1*71
$GBGSV,3,2,11,42,27,167,49,44,26,091,27,23,23,284,29,22,23,046,,1*76
$GBGSV,3,3,11,25,20,231,48,14,08,184,41,52,,,26,1*79
$GBGSV,2,1,06,21,47,105,46,42,27,167,42,44,26,091,28,22,23,046,16,5*76
$GBGSV,2,2,06,23,23,284,21,25,20,231,42,5*7A
$GNGGA,223021.000,4000.586260,N,10514.619966,W,2,37,0.51,1607.175,M,-20.635,M,,*72
$GPGSV,4,1,14,05,70,159,44,20,61,063,18,25,52,236,41,29,47,313,24,1*6F
$GPGSV,4,2,14,12,40,191,51,46,37,214,48,11,37,057,18,18,13,259,43,1*6D
$GPGSV,4,3,14,13,04,136,46,06,03,068,,09,02,032,,28,02,286,,1*63
$GPGSV,4,4,14,15,02,169,50,31,01,312,,1*6F
$GPGSV,1,1,02,25,52,236,39,18,13,259,40,8*63
$GLGSV,2,1,06,70,42,076,,76,38,258,35,71,30,140,44,87,17,287,19,1*72
$GLGSV,2,2,06,75,11,202,48,69,06,019,23,1*70
$GAGSV,3,1,09,34,71,328,23,30,56,255,32,36,36,055,,02,32,183,46,7*79
$GAGSV,3,2,09,15,29,264,35,27,24,315,,09,17,071,,05,15,124,47,7*7A
$GAGSV,3,3,09,04,01,028,11,7*45
$GAGSV,2,1,06,34,71,328,17,30,56,255,38,02,32,183,47,15,29,264,35,1*74
$GAGSV,2,2,06,09,17,071,14,05,15,124,36,1*7C
$GBGSV,3,1,11,34,71,030,17,11,62,323,21,12,47,075,26,21,47,105,49,1*7A
$GBGSV,3,2,11,42,27,167,49,44,26,091,27,22,23,046,,23,23,284,28,1*77
$GBGSV,3,3,11,25,20,231,48,14,08,184,40,52,,,26,1*78
$GBGSV,2,1,06,21,47,105,46,42,27,167,41,44,26,091,29,22,23,046,18,5*7A
$GBGSV,2,2,06,23,23,284,20,25,20,231,42,5*7B
$GNGGA,223026.000,4000.586098,N,10514.620104,W,2,38,0.53,1607.520,M,-20.634,M,,*7E
$GPGSV,4,1,14,05,70,159,45,20,61,063,21,25,52,236,41,29,47,313,,1*62
$GPGSV,4,2,14,12,40,191,51,46,37,214,48,11,37,057,,18,14,260,40,1*6A
$GPGSV,4,3,14,13,04,136,46,06,03,068,,15,03,168,50,09,02,032,20,1*68
$GPGSV,4,4,14,28,02,286,,31,01,312,,1*66
$GPGSV,1,1,03,25,52,236,39,11,37,057,18,18,14,260,40,8*50
$GLGSV,2,1,07,70,42,076,,76,38,258,37,71,30,140,44,77,27,313,,1*79
$GLGSV,2,2,07,87,17,287,15,75,11,202,48,69,06,019,20,1*42
$GAGSV,3,1,09,34,71,328,23,30,56,255,32,36,36,055,19,02,32,183,46,7*71
$GAGSV,3,2,09,15,29,264,35,27,24,315,22,09,17,071,20,05,15,124,47,7*78
$GAGSV,3,3,09,04,01,028,12,7*46
$GAGSV,2,1,06,34,71,328,17,30,56,255,38,02,32,183,47,15,29,264,35,1*74
$GAGSV,2,2,06,09,17,071,14,05,15,124,36,1*7C
$GBGSV,4,1,13,34,71,030,19,11,62,323,,21,47,105,50,12,47,075,20,1*7C
$GBGSV,4,2,13,42,27,167,49,44,26,091,27,22,23,046,26,23,23,284,28,1*76
$GBGSV,4,3,13,25,20,231,48,14,08,184,42,37,03,329,,63,,,23,1*47
$GBGSV,4,4,13,52,,,26,1*77
$GBGSV,2,1,05,21,47,105,46,42,27,167,41,44,26,091,29,22,23,046,18,5*79
$GBGSV,2,2,05,25,20,231,41,5*47
$GNGGA,223031.000,4000.585900,N,10514.620236,W,2,39,0.51,1607.899,M,-20.634,M,,*7D
$GPGSV,4,1,14,05,70,159,45,20,60,061,18,25,52,236,40,29,47,313,22,1*6A
$GPGSV,4,2,14,12,40,191,51,46,37,214,48,11,37,057,27,18,14,260,37,1*6F
$GPGSV,4,3,14,13,04,136,46,06,03,068,,15,03,168,50,09,02,032,16,1*6D
$GPGSV,4,4,14,28,02,286,,31,01,312,,1*66
$GPGSV,1,1,03,25,52,236,40,11,37,057,17,18,14,260,40,8*51
$GLGSV,2,1,05,76,38,258,37,71,30,140,43,87,17,287,25,75,11,202,48,1*75
$GLGSV,2,2,05,69,06,019,28,1*46
$GAGSV,3,1,09,34,71,328,18,30,56,255,31,36,36,055,20,02,32,183,46,7*70
$GAGSV,3,2,09,15,29,264,35,27,24,315,26,09,17,071,14,05,15,124,47,7*7B
$GAGSV,3,3,09,04,01,028,12,7*46
$GAGSV,2,1,05,34,71,328,17,30,56,255,38,02,32,183,48,15,29,264,35,1*78
$GAGSV,2,2,05,05,15,124,36,1*43
$GBGSV,4,1,13,34,71,030,,11,62,323,15,21,47,105,50,12,47,075,18,1*7B
$GBGSV,4,2,13,43,42,299,,42,27,167,49,44,26,091,30,22,23,046,27,1*76
$GBGSV,4,3,13,23,23,284,,25,20,231,48,14,08,184,42,37,03,329,,1*7D
$GBGSV,4,4,13,52,,,26,1*77
$GBGSV,2,1,06,34,71,030,16,21,47,105,46,42,27,167,41,44,26,091,29,5*75
$GBGSV,2,2,06,22,23,046,18,25,20,231,41,5*7E
$GNGGA,223036.000,4000.585846,N,10514.620392,W,2,38,0.54,1608.017,M,-20.634,M,,*73
$GPGSV,4,1,14,05,70,159,45,20,60,061,20,25,51,235,40,29,48,313,16,1*69
$GPGSV,4,2,14,12,40,191,51,11,37,057,26,46,37,214,48,18,14,260,39,1*60
$GPGSV,4,3,14,13,04,136,46,06,03,068,,15,03,168,50,09,02,032,19,1*62
$GPGSV,4,4,14,28,01,285,,31,01,312,,1*66
$GPGSV,1,1,03,25,51,235,40,11,37,057,17,18,14,260,40,8*51
$GLGSV,2,1,05,76,38,258,37,71,30,140,43,87,17,287,18,75,11,202,49,1*7A
$GLGSV,2,2,05,69,06,019,25,1*4B
$GAGSV,3,1,09,34,71,328,16,30,56,255,31,36,36,055,22,02,32,183,46,7*7C
$GAGSV,3,2,09,15,29,264,35,27,24,315,20,09,17,071,19,05,15,124,47,7*70
$GAGSV,3,3,09,04,01,028,12,7*46
$GAGSV,2,1,05,34,71,328,17,30,56,255,38,02,32,183,48,15,29,264,36,1*7B
$GAGSV,2,2,05,05,15,124,36,1*43
$GBGSV,3,1,11,34,71,030,20,12,47,075,,21,47,105,50,43,42,299,19,1*7C
$GBGSV,3,2,11,42,27,167,49,44,26,091,32,22,23,046,27,23,23,284,27,1*79
$GBGSV,3,3,11,25,20,231,48,14,08,184,43,52,,,26,1*7B
$GBGSV,2,1,07,34,71,030,16,21,47,105,46,42,27,167,41,44,26,091,28,5*75
$GBGSV,2,2,07,22,23,046,17,23,23,284,18,25,20,231,41,5*47
$GNGGA,223041.000,4000.585978,N,10514.620386,W,2,40,0.51,1608.008,M,-20.635,M,,*7F
$GPGSV,4,1,14,05,70,159,45,20,60,061,28,25,51,235,40,29,48,313,22,1*66
$GPGSV,4,2,14,12,40,191,51,46,37,214,48,11,37,057,22,18,14,260,41,1*6B
$GPGSV,4,3,14,13,04,136,46,15,03,168,50,06,03,068,,09,02,032,22,1*6A
$GPGSV,4,4,14,28,01,285,,31,01,311,,1*65
$GPGSV,1,1,03,25,51,235,40,11,37,057,16,18,14,260,40,8*50
$GLGSV,2,1,06,76,38,258,37,71,30,140,42,77,27,313,,87,17,287,17,1*7C
$GLGSV,2,2,06,75,11,202,50,69,06,019,17,1*7E
$GAGSV,3,1,09,34,71,328,17,30,56,255,30,36,36,055,19,02,32,183,46,7*74
$GAGSV,3,2,09,15,29,264,35,27,24,315,20,09,17,071,16,05,15,124,47,7*7F
$GAGSV,3,3,09,04,01,028,12,7*46
$GAGSV,2,1,05,34,71,328,17,30,56,255,38,02,32,183,48,15,29,264,36,1*7B
$GAGSV,2,2,05,05,15,124,36,1*43
$GBGSV,3,1,12,34,71,030,16,11,62,323,,21,47,105,50,12,47,075,18,1*7E
$GBGSV,3,2,12,43,42,299,20,42,27,167,49,44,26,091,33,22,23,046,23,1*75
$GBGSV,3,3,12,23,23,284,29,25,20,231,49,14,08,184,43,52,,,26,1*4C
$GBGSV,2,1,07,34,71,030,16,21,47,105,46,42,27,167,41,44,26,091,27,5*7A
$GBGSV,2,2,07,22,23,046,17,23,23,284,19,25,20,231,41,5*46
$GNGGA,223046.000,4000.586110,N,10514.620434,W,2,38,0.51,1608.052,M,-20.635,M,,*73
$GPGSV,4,1,14,05,70,159,45,20,60,061,30,25,51,235,40,29,48,313,22,1*6F
$GPGSV,4,2,14,12,40,191,51,11,37,057,23,46,37,214,48,18,14,260,42,1*69
$GPGSV,4,3,14,13,04,136,46,06,03,068,,15,03,168,50,09,02,032,18,1*63
$GPGSV,4,4,14,28,01,285,,31,01,311,,1*65
$GPGSV,1,1,03,25,51,235,40,11,37,057,16,18,14,260,41,8*51
$GLGSV,2,1,05,76,38,258,37,71,30,140,42,87,17,287,24,75,11,202,50,1*7C
$GLGSV,2,2,05,69,06,019,25,1*4B
$GAGSV,3,1,09,34,71,328,,30,56,255,30,36,36,055,17,02,32,183,46,7*7C
$GAGSV,3,2,09,15,29,264,35,27,24,315,17,09,17,071,11,05,15,124,47,7*7C
$GAGSV,3,3,09,04,01,028,10,7*44
$GAGSV,2,1,05,34,71,328,17,30,56,255,38,02,32,183,48,15,29,264,36,1*7B
$GAGSV,2,2,05,05,15,124,35,1*40
$GBGSV,3,1,11,34,71,030,17,12,47,075,17,21,47,105,50,43,42,299,,1*76
$GBGSV,3,2,11,42,27,167,49,44,26,091,33,22,23,046,,23,23,284,28,1*72
$GBGSV,3,3,11,25,20,231,49,14,08,184,44,52,,,27,1*7C
$GBGSV,2,1,07,34,71,030,16,21,47,105,46,42,27,167,41,44,26,091,26,5*7B
$GBGSV,2,2,07,22,23,046,16,23,23,284,21,25,20,231,40,5*4D
$PAIR010,0,0,2309,340266*36
$GNGGA,223051.000,4000.586224,N,10514.620416,W,2,37,0.52,1607.863,M,-20.635,M,,*78
$GPGSV,4,1,14,05,70,159,45,20,60,061,24,25,51,235,40,29,48,313,26,1*6E
$GPGSV,4,2,14,12,40,191,51,46,37,214,47,11,37,057,,18,14,260,44,1*61
$GPGSV,4,3,14,13,04,136,45,06,03,068,,15,03,168,50,09,02,032,19,1*61
$GPGSV,4,4,14,31,01,311,,28,01,285,,1*65
$GPGSV,1,1,03,25,51,235,40,11,37,057,17,18,14,260,40,8*51
$GLGSV,2,1,05,76,38,258,35,71,30,140,42,87,17,287,17,75,11,202,50,1*7E
$GLGSV,2,2,05,69,06,019,15,1*48
$GAGSV,3,1,09,34,71,328,,30,56,255,29,36,36,055,19,02,30,183,46,7*78
$GAGSV,3,2,09,15,29,264,32,27,24,315,14,09,17,071,16,05,16,123,47,7*7B
$GAGSV,3,3,09,04,01,027,08,7*42
$GAGSV,2,1,05,34,71,328,17,30,56,255,38,02,30,183,48,15,29,264,35,1*7A
$GAGSV,2,2,05,05,16,123,32,1*43
$GBGSV,3,1,12,34,71,030,26,11,62,323,,12,47,075,,21,47,105,50,1*74
$GBGSV,3,2,12,43,42,299,24,42,27,167,49,44,26,091,34,23,23,284,,1*7A
$GBGSV,3,3,12,22,23,046,27,25,20,231,49,14,08,184,44,52,,,26,1*48
$GBGSV,2,1,07,34,71,030,15,21,47,105,46,42,27,167,41,44,26,091,24,5*7A
$GBGSV,2,2,07,22,23,046,13,23,23,284,20,25,20,231,39,5*47
$GNGGA,223056.000,4000.586440,N,10514.620326,W,2,38,0.53,1607.444,M,-20.635,M,,*78
$GPGSV,4,1,14,05,70,159,45,20,60,061,24,25,51,235,40,29,48,313,22,1*6A
$GPGSV,4,2,14,12,40,191,51,46,37,214,47,11,37,057,21,18,14,260,42,1*64
$GPGSV,4,3,14,13,04,136,45,15,03,168,50,06,03,068,,09,02,032,21,1*6A
$GPGSV,4,4,14,28,01,285,,31,01,311,,1*65
$GPGSV,1,1,03,25,51,235,41,11,37,057,17,18,14,260,41,8*51
$GLGSV,2,1,07,70,42,076,,76,38,258,35,71,30,140,42,77,27,313,,1*7D
$GLGSV,2,2,07,87,17,287,19,75,11,202,50,69,06,019,20,1*47
$GAGSV,3,1,09,34,71,328,21,30,56,255,30,36,36,055,17,02,30,183,46,7*7D
$GAGSV,3,2,09,15,29,264,35,27,24,315,15,09,17,070,18,05,16,123,46,7*73
$GAGSV,3,3,09,04,01,027,10,7*4B
$GAGSV,2,1,05,34,71,328,18,30,56,255,38,02,30,183,48,15,29,264,36,1*76
$GAGSV,2,2,05,05,16,123,34,1*45
$GBGSV,4,1,13,34,71,030,30,11,62,323,,21,47,105,50,12,47,075,19,1*7D
$GBGSV,4,2,13,43,42,299,17,42,27,167,50,44,26,091,34,22,23,046,,1*79
$GBGSV,4,3,13,23,23,284,18,25,20,231,50,14,08,184,45,37,03,329,,1*7A
$GBGSV,4,4,13,52,,,26,1*77
$GBGSV,2,1,06,34,71,030,16,21,47,105,46,42,27,167,41,44,26,091,22,5*7E
$GBGSV,2,2,06,23,23,284,21,25,20,231,39,5*76
$GNGGA,223101.000,4000.586590,N,10514.620374,W,2,38,0.53,1607.061,M,-20.635,M,,*73
$GPGSV,4,1,14,05,70,159,46,20,60,061,21,25,51,235,41,29,48,313,27,1*68
$GPGSV,4,2,14,12,40,191,51,46,37,214,47,11,37,057,18,18,14,260,42,1*6E
$GPGSV,4,3,14,13,04,136,45,15,03,168,50,06,03,068,,09,02,032,17,1*6F
$GPGSV,4,4,14,28,01,285,,31,01,311,,1*65
$GPGSV,1,1,03,25,51,235,41,11,37,057,17,18,14,260,41,8*51
$GLGSV,2,1,05,76,38,258,35,71,30,140,42,87,17,287,23,75,11,202,49,1*71
$GLGSV,2,2,05,69,06,019,16,1*4B
$GAGSV,3,1,09,34,71,328,14,30,56,255,30,36,36,055,15,15,30,265,35,7*70
$GAGSV,3,2,09,02,30,183,46,27,24,315,17,09,17,070,16,05,16,123,46,7*7F
$GAGSV,3,3,09,04,01,027,06,7*4C
$GAGSV,2,1,06,34,71,328,18,30,56,255,38,02,30,183,48,15,30,265,35,1*7F
$GAGSV,2,2,06,27,24,315,16,05,16,123,33,1*72
$GBGSV,4,1,13,34,71,030,18,11,62,323,25,21,47,105,50,12,47,075,16,1*7F
$GBGSV,4,2,13,43,42,299,,42,27,167,50,44,26,091,34,22,23,046,23,1*7E
$GBGSV,4,3,13,23,23,284,21,25,20,231,50,14,08,184,46,37,03,329,,1*73
$GBGSV,4,4,13,52,,,26,1*77
$GBGSV,2,1,06,34,71,030,15,21,47,105,46,42,27,167,40,44,26,091,22,5*7C
$GBGSV,2,2,06,23,23,284,19,25,20,231,39,5*7D
$GNGGA,223106.000,4000.586734,N,10514.620278,W,2,38,0.51,1606.550,M,-20.634,M,,*70
$GPGSV,4,1,14,05,70,159,46,20,60,061,26,25,51,235,41,29,48,313,26,1*6E
$GPGSV,4,2,14,12,40,191,51,46,37,214,48,11,37,057,18,18,14,260,38,1*6C
$GPGSV,4,3,14,13,04,136,45,15,03,168,50,06,03,068,,09,02,032,16,1*6E
$GPGSV,4,4,14,28,01,285,,31,01,311,,1*65
$GPGSV,1,1,03,25,51,235,41,11,37,057,15,18,14,260,41,8*53
$GLGSV,2,1,05,76,38,258,37,71,30,140,44,87,17,287,23,75,11,202,50,1*7D
$GLGSV,2,2,05,69,06,019,20,1*4E
$GAGSV,3,1,09,34,71,328,,30,56,255,30,36,36,055,16,15,30,265,36,7*75
$GAGSV,3,2,09,02,30,183,46,27,24,315,17,09,17,070,18,05,16,123,46,7*71
$GAGSV,3,3,09,04,01,027,09,7*43
$GAGSV,2,1,06,34,71,328,18,30,56,255,38,02,30,183,48,15,30,265,35,1*7F
$GAGSV,2,2,06,27,24,315,16,05,16,123,33,1*72
$GBGSV,3,1,09,34,71,030,30,11,62,323,23,21,47,105,50,12,47,075,20,1*7A
$GBGSV,3,2,09,42,27,167,50,44,26,091,34,22,23,046,25,25,20,231,50,1*77
$GBGSV,3,3,09,14,08,184,46,1*4D
$GBGSV,2,1,06,34,71,030,14,21,47,105,46,42,27,167,40,44,26,091,24,5*7B
$GBGSV,2,2,06,23,23,284,16,25,20,231,39,5*72
$GNGGA,223111.000,4000.586668,N,10514.620488,W,2,38,0.52,1606.716,M,-20.635,M,,*75
$GPGSV,4,1,14,05,70,159,46,20,60,061,,25,51,235,41,29,48,313,19,1*66
$GPGSV,4,2,14,12,40,191,51,46,37,214,48,11,37,057,,18,14,260,36,1*6B
$GPGSV,4,3,14,13,04,136,45,15,03,168,50,06,03,068,,09,02,032,17,1*6F
$GPGSV,4,4,14,28,01,285,,31,01,311,,1*65
$GPGSV,1,1,03,25,51,235,41,11,37,057,12,18,14,260,41,8*54
$GLGSV,2,1,05,76,38,258,37,71,30,140,43,87,17,287,18,75,11,202,50,1*72
$GLGSV,2,2,05,69,06,019,20,1*4E
$GAGSV,3,1,09,34,71,328,20,30,56,255,32,36,36,055,15,15,30,265,36,7*76
$GAGSV,3,2,09,02,30,183,46,27,24,315,,09,17,070,19,05,16,123,46,7*76
$GAGSV,3,3,09,04,01,027,09,7*43
$GAGSV,2,1,07,34,71,328,17,30,56,255,38,15,30,265,35,02,30,183,48,1*71
$GAGSV,2,2,07,27,24,315,11,09,17,070,18,05,16,123,33,1*45
$GBGSV,3,1,11,34,71,030,20,11,62,323,20,21,47,105,50,12,47,075,25,1*74
$GBGSV,3,2,11,42,27,167,50,44,26,091,32,23,23,284,19,22,23,046,25,1*7E
$GBGSV,3,3,11,25,20,231,50,14,08,184,46,37,03,329,,1*4B
$GBGSV,2,1,05,34,71,030,13,21,47,105,46,42,27,167,40,44,26,091,27,5*7C
$GBGSV,2,2,05,25,20,231,38,5*49
$GNGGA,223116.000,4000.586536,N,10514.620788,W,2,36,0.52,1606.765,M,-20.635,M,,*73
$GPGSV,4,1,14,05,70,159,46,20,60,061,,25,51,235,41,29,48,313,21,1*6D
$GPGSV,4,2,14,12,40,191,51,46,37,214,48,11,37,057,22,18,14,260,36,1*6B
$GPGSV,4,3,14,13,04,136,45,15,03,168,50,06,03,068,,09,02,032,17,1*6F
$GPGSV,4,4,14,28,01,285,,31,01,311,,1*65
$GPGSV,1,1,02,25,51,235,41,18,14,260,41,8*60
$GLGSV,2,1,05,76,38,258,38,71,30,140,41,87,17,287,16,75,11,202,50,1*71
$GLGSV,2,2,05,69,06,019,19,1*44
$GAGSV,3,1,09,34,71,328,20,30,55,253,32,36,36,055,18,15,30,265,36,7*7E
$GAGSV,3,2,09,02,30,183,46,27,25,314,14,09,17,070,21,05,16,123,46,7*78
$GAGSV,3,3,09,04,01,027,08,7*42
$GAGSV,2,1,06,34,71,328,17,30,55,253,38,02,30,183,48,15,30,265,35,1*75
$GAGSV,2,2,06,09,17,070,19,05,16,123,33,1*71
$GBGSV,3,1,12,34,71,030,,11,62,323,21,21,47,105,50,12,47,075,24,1*75
$GBGSV,3,2,12,43,42,299,,42,27,167,50,44,26,091,31,22,23,046,24,1*7A
$GBGSV,3,3,12,23,23,284,25,25,20,231,50,14,08,184,47,37,03,329,,1*70
$GBGSV,2,1,05,21,47,105,46,42,27,167,40,44,26,091,28,23,23,284,18,5*74
$GBGSV,2,2,05,25,20,231,38,5*49
$GNGGA,223121.000,4000.586464,N,10514.620962,W,2,37,0.53,1606.435,M,-20.634,M,,*7C
$GPGSV,4,1,14,05,70,159,46,20,60,061,27,25,51,235,41,29,48,313,15,1*6F
$GPGSV,4,2,14,12,40,191,51,46,37,214,48,11,37,057,20,18,14,260,36,1*69
$GPGSV,4,3,14,13,04,136,45,06,03,068,,15,03,168,50,09,02,032,17,1*6F
$GPGSV,4,4,14,31,01,311,,28,01,285,,1*65
$GPGSV,1,1,02,25,51,235,41,18,14,260,41,8*60
$GLGSV,2,1,06,70,42,076,,76,38,258,38,71,30,140,42,87,17,287,24,1*77
$GLGSV,2,2,06,75,11,202,50,69,06,019,23,1*79
$GAGSV,3,1,09,34,71,331,19,30,55,253,33,36,36,055,19,02,30,183,46,7*76
$GAGSV,3,2,09,15,30,265,36,27,25,314,,09,17,070,20,05,16,123,46,7*76
$GAGSV,3,3,09,04,01,027,08,7*42
$GAGSV,2,1,06,34,71,331,17,30,55,253,38,02,30,183,48,15,30,265,35,1*7D
$GAGSV,2,2,06,09,17,070,19,05,16,123,35,1*77
$GBGSV,3,1,11,34,71,030,19,11,62,323,19,12,47,075,13,21,47,105,50,1*71
$GBGSV,3,2,11,42,27,167,51,44,26,091,30,22,23,046,23,23,23,284,21,1*70
$GBGSV,3,3,11,25,20,231,50,14,08,184,47,55,,,27,1*70
$GBGSV,2,1,05,21,47,105,46,42,27,167,40,44,26,091,29,23,23,284,19,5*74
$GBGSV,2,2,05,25,20,231,38,5*49
$GNGGA,223126.000,4000.586344,N,10514.620932,W,2,37,0.53,1605.928,M,-20.634,M,,*79
$GPGSV,4,1,14,05,70,159,47,20,60,061,27,25,51,235,41,29,48,313,,1*6A
$GPGSV,4,2,14,12,40,191,51,46,37,214,47,11,37,057,29,18,14,260,40,1*6E
$GPGSV,4,3,14,13,04,136,43,15,03,168,50,06,03,068,,09,02,032,,1*6F
$GPGSV,4,4,14,28,01,285,,31,01,311,,1*65
$GPGSV,1,1,02,25,51,235,41,18,14,260,40,8*61
$GLGSV,2,1,05,76,38,258,37,71,30,140,42,87,17,287,16,75,11,202,50,1*7D
$GLGSV,2,2,05,69,06,019,25,1*4B
$GAGSV,3,1,09,34,71,331,16,30,55,253,32,36,35,056,19,15,30,265,34,7*70
$GAGSV,3,2,09,02,30,183,46,27,25,314,,09,17,070,10,05,16,123,45,7*7C
$GAGSV,3,3,09,04,01,027,08,7*42
$GAGSV,2,1,06,34,71,331,18,30,55,253,38,02,30,183,48,15,30,265,34,1*73
$GAGSV,2,2,06,09,17,070,18,05,16,123,36,1*75
$GBGSV,3,1,12,34,71,030,21,11,62,323,,21,47,105,50,12,47,075,26,1*77
$GBGSV,3,2,12,43,42,299,25,42,27,167,51,44,26,091,29,22,23,046,25,1*74
$GBGSV,3,3,12,23,23,284,24,25,20,231,50,14,08,184,47,37,03,329,,1*71
$GBGSV,2,1,05,21,47,105,46,42,27,167,42,44,26,091,29,23,23,284,21,5*7D
$GBGSV,2,2,05,25,20,231,39,5*48
$GNGGA,223131.000,4000.586332,N,10514.620944,W,2,37,0.53,1605.352,M,-20.635,M,,*79
$GPGSV,4,1,14,05,70,159,47,20,60,061,23,25,51,235,39,29,48,313,,1*61
$GPGSV,4,2,14,12,40,191,51,46,37,214,47,11,37,057,18,18,14,260,39,1*62
$GPGSV,4,3,14,13,04,136,43,15,03,168,50,06,03,068,,09,02,032,,1*6F
$GPGSV,4,4,14,28,01,285,,31,01,311,,1*65
$GPGSV,1,1,02,25,51,235,41,18,14,260,40,8*61
$GLGSV,2,1,06,76,38,258,35,71,31,139,42,77,27,313,,87,17,287,23,1*76
$GLGSV,2,2,06,75,11,202,51,69,05,019,21,1*79
$GAGSV,3,1,09,34,71,331,17,30,55,253,31,36,35,056,19,15,30,265,33,7*75
$GAGSV,3,2,09,02,30,183,46,27,25,314,17,09,17,070,11,05,16,123,45,7*7B
$GAGSV,3,3,09,04,01,027,09,7*43
$GAGSV,2,1,06,34,71,331,17,30,55,253,38,02,30,183,48,15,30,265,36,1*7E
$GAGSV,2,2,06,09,17,070,16,05,16,123,36,1*7B
$GBGSV,3,1,12,34,71,030,23,21,47,105,50,12,47,075,29,43,42,299,19,1*77
$GBGSV,3,2,12,42,27,167,51,44,26,091,30,23,23,284,24,22,23,046,28,1*7D
$GBGSV,3,3,12,25,20,231,49,14,08,184,47,37,03,329,,63,,,28,1*4E
$GBGSV,2,1,05,21,47,105,46,42,27,167,41,44,26,091,28,23,23,284,21,5*7F
$GBGSV,2,2,05,25,20,231,39,5*48
$GNGGA,223136.000,4000.586398,N,10514.621100,W,2,37,0.53,1604.927,M,-20.635,M,,*7E
$GPGSV,4,1,14,05,70,159,47,20,60,061,18,25,51,235,38,29,48,313,,1*68
$GPGSV,4,2,14,12,40,191,51,46,37,214,47,11,37,057,12,18,14,260,39,1*68
$GPGSV,4,3,14,13,04,136,42,15,03,168,50,06,03,068,,09,02,032,,1*6E
$GPGSV,4,4,14,28,01,285,,31,01,311,,1*65
$GPGSV,1,1,02,25,51,235,41,18,14,260,40,8*61
$GLGSV,2,1,05,76,37,257,37,71,31,139,42,87,17,287,22,75,10,202,51,1*75
$GLGSV,2,2,05,69,05,019,21,1*4C
$GAGSV,3,1,09,34,71,331,14,30,55,253,30,36,35,056,17,15,30,265,34,7*7E
$GAGSV,3,2,09,02,30,183,46,27,25,314,17,09,17,070,13,05,16,123,45,7*79
$GAGSV,3,3,09,04,01,027,08,7*42
$GAGSV,2,1,06,34,71,331,17,30,55,253,38,02,30,183,48,15,30,265,36,1*7E
$GAGSV,2,2,06,09,17,070,16,05,16,123,37,1*7A
$GBGSV,3,1,11,34,71,030,23,21,47,105,50,12,47,075,30,43,42,299,24,1*72
$GBGSV,3,2,11,42,27,167,51,44,26,091,27,23,23,284,,22,23,046,25,1*73
$GBGSV,3,3,11,25,20,231,49,14,08,184,47,37,03,329,,1*42
$GBGSV,2,1,05,21,47,105,46,42,27,167,40,44,26,091,27,23,23,284,22,5*72
$GBGSV,2,2,05,25,20,231,39,5*48
$GNGGA,223141.000,4000.586524,N,10514.621058,W,2,37,0.53,1604.358,M,-20.635,M,,*71
$GPGSV,4,1,14,05,70,159,47,20,60,061,25,25,51,235,39,29,48,313,,1*67
$GPGSV,4,2,14,12,40,191,51,46,37,214,47,11,37,057,18,18,14,260,39,1*62
$GPGSV,4,3,14,13,04,136,42,15,03,168,50,06,03,068,,09,02,032,,1*6E
$GPGSV,4,4,14,28,01,285,,31,01,311,,1*65
$GPGSV,1,1,03,25,51,235,41,11,37,057,18,18,14,260,40,8*5F
$GLGSV,2,1,05,76,37,257,40,71,31,139,42,87,17,287,13,75,10,202,51,1*77
$GLGSV,2,2,05,69,05,019,22,1*4F
$GAGSV,3,1,09,34,71,331,,30,55,253,30,36,35,056,18,15,30,265,33,7*73
$GAGSV,3,2,09,02,30,183,45,27,25,314,17,09,17,070,15,05,16,123,45,7*7C
$GAGSV,3,3,09,04,01,027,09,7*43
$GAGSV,2,1,06,34,71,331,17,30,55,253,38,02,30,183,48,15,30,265,36,1*7E
$GAGSV,2,2,06,09,17,070,16,05,16,123,37,1*7A
$GBGSV,3,1,10,34,71,030,17,11,62,323,,21,47,105,50,12,47,075,28,1*7E
$GBGSV,3,2,10,43,42,299,24,42,27,167,51,44,26,091,26,22,23,046,25,1*78
$GBGSV,3,3,10,25,20,231,49,14,08,184,47,1*7C
$GBGSV,2,1,05,21,47,105,46,42,27,167,40,44,26,091,26,23,23,284,24,5*75
$GBGSV,2,2,05,25,20,231,39,5*48
$GNGGA,223146.000,4000.586746,N,10514.621106,W,2,36,0.53,1603.681,M,-20.634,M,,*7C
$GPGSV,4,1,14,05,70,159,45,20,60,061,21,25,51,235,39,29,48,313,,1*61
$GPGSV,4,2,14,12,40,191,50,46,37,214,45,11,37,057,19,18,14,260,39,1*60
$GPGSV,4,3,14,13,04,136,41,15,03,168,49,06,03,068,,09,02,032,,1*65
$GPGSV,4,4,14,28,01,285,,31,01,311,,1*65
$GPGSV,1,1,03,25,51,235,41,11,37,057,18,18,14,260,41,8*5E
$GLGSV,2,1,05,76,37,257,40,71,31,139,44,87,18,288,24,75,10,202,51,1*75
$GLGSV,2,2,05,69,05,019,15,1*4B
$GAGSV,3,1,09,34,71,331,,30,55,253,29,36,35,056,15,15,30,265,33,7*76
$GAGSV,3,2,09,02,30,183,43,27,25,314,18,09,17,070,,05,16,123,43,7*77
$GAGSV,3,3,09,04,01,027,09,7*43
$GAGSV,2,1,06,34,71,331,17,30,55,253,38,02,30,183,48,15,30,265,36,1*7E
$GAGSV,2,2,06,09,17,070,17,05,16,123,36,1*7A
$GBGSV,3,1,12,34,71,030,16,11,62,323,21,21,47,105,50,12,47,075,17,1*72
$GBGSV,3,2,12,43,42,299,16,42,27,167,51,44,26,091,26,22,23,046,18,1*75
$GBGSV,3,3,12,23,23,284,25,25,20,231,49,14,08,184,48,37,03,329,,1*77
$GBGSV,2,1,05,21,47,105,46,42,27,167,42,44,26,091,25,23,23,284,23,5*73
$GBGSV,2,2,05,25,20,231,39,5*48
$PAIR010,0,0,2309,340326*33
$PAIR010,0,1,2309,340326*32
$GNGGA,223151.000,4000.586914,N,10514.621124,W,2,37,0.53,1603.304,M,-20.635,M,,*7B
$GPGSV,4,1,14,05,70,159,44,20,60,061,16,25,51,235,37,29,48,313,24,1*6C
$GPGSV,4,2,14,12,40,191,49,46,37,214,45,11,37,057,16,18,14,260,39,1*67
$GPGSV,4,3,14,13,04,136,38,15,03,168,47,06,03,068,,09,02,032,,1*65
$GPGSV,4,4,14,28,01,285,,31,01,311,,1*65
$GPGSV,1,1,03,25,51,235,41,11,37,057,17,18,14,260,40,8*50
$GLGSV,2,1,05,76,37,257,37,71,31,139,44,87,18,288,21,75,10,202,51,1*70
$GLGSV,2,2,05,69,05,019,19,1*47
$GAGSV,3,1,09,34,71,331,18,30,55,253,29,36,35,056,17,15,30,265,30,7*7E
$GAGSV,3,2,09,02,30,183,42,27,25,314,17,09,17,070,20,05,16,123,42,7*7A
$GAGSV,3,3,09,04,01,027,10,7*4B
$GAGSV,2,1,06,34,71,331,16,30,55,253,38,02,30,183,48,15,30,265,35,1*7C
$GAGSV,2,2,06,09,17,070,17,05,16,123,37,1*7B
$GBGSV,3,1,11,34,71,030,,11,62,323,20,21,47,105,50,12,47,075,21,1*72
$GBGSV,3,2,11,43,42,299,15,42,27,167,51,44,26,091,25,23,23,284,21,1*71
$GBGSV,3,3,11,22,23,046,,25,20,231,49,14,08,184,49,1*40
$GBGSV,2,1,05,21,47,105,46,42,27,167,42,44,26,091,24,23,23,284,20,5*71
$GBGSV,2,2,05,25,20,231,39,5*48
$GNGGA,223156.000,4000.587052,N,10514.621112,W,2,37,0.52,1603.078,M,-20.634,M,,*7B
$GPGSV,4,1,14,05,70,159,45,20,60,061,12,25,51,235,37,29,48,313,24,1*69
$GPGSV,4,2,14,12,40,191,50,46,37,214,46,11,37,057,17,18,14,260,41,1*62
$GPGSV,4,3,14,13,04,136,39,15,03,168,48,06,03,068,,09,02,032,,1*6B
$GPGSV,4,4,14,28,01,285,,31,01,311,,1*65
$GPGSV,1,1,02,25,51,235,42,18,14,260,41,8*63
$GLGSV,2,1,05,76,37,257,40,71,31,139,44,87,18,288,23,75,10,202,51,1*72
$GLGSV,2,2,05,69,05,019,17,1*49
$GAGSV,3,1,09,34,71,331,,30,55,253,31,36,35,056,19,15,30,265,32,7*72
$GAGSV,3,2,09,02,30,183,44,27,25,314,,09,17,070,22,05,16,123,43,7*79
$GAGSV,3,3,09,04,01,027,11,7*4A
$GAGSV,2,1,06,34,71,331,16,30,55,253,38,02,30,183,48,15,30,265,36,1*7F
$GAGSV,2,2,06,09,17,070,17,05,16,123,37,1*7B
$GBGSV,3,1,11,34,71,030,20,11,62,323,,21,47,105,50,12,47,075,27,1*74
$GBGSV,3,2,11,43,42,299,,42,27,167,51,44,26,091,27,22,23,046,19,1*71
$GBGSV,3,3,11,25,20,231,49,14,08,184,49,37,03,329,,1*4C
$GBGSV,2,1,05,21,47,105,46,42,27,167,42,44,26,091,25,23,23,284,19,5*7A
$GBGSV,2,2,05,25,20,231,38,5*49
$GNGGA,223201.000,4000.587076,N,10514.621004,W,2,39,0.52,1602.779,M,-20.635,M,,*72
$GPGSV,4,1,14,05,70,159,46,20,60,061,18,25,51,235,39,29,48,313,24,1*6E
$GPGSV,4,2,14,12,40,191,50,46,37,214,47,11,37,057,21,18,14,260,41,1*66
$GPGSV,4,3,14,13,04,136,39,15,03,168,49,06,03,068,,09,02,032,,1*6A
$GPGSV,4,4,14,28,01,285,,31,01,311,,1*65
$GPGSV,1,1,03,25,51,235,41,11,37,057,20,18,14,260,41,8*55
$GLGSV,2,1,06,76,37,257,39,71,31,139,43,77,27,312,,87,18,288,21,1*78
$GLGSV,2,2,06,75,10,202,51,69,05,019,13,1*79
$GAGSV,2,1,08,34,71,331,,30,55,253,31,36,35,056,23,15,30,265,31,7*78
$GAGSV,2,2,08,02,30,183,45,09,17,070,23,05,16,123,43,04,01,027,15,7*79
$GAGSV,2,1,06,34,71,331,16,30,55,253,38,02,30,183,48,15,30,265,36,1*7F
$GAGSV,2,2,06,09,17,070,16,05,16,123,37,1*7A
$GBGSV,4,1,13,34,71,030,20,11,63,325,14,21,47,105,50,12,46,076,28,1*7E
$GBGSV,4,2,13,43,42,299,29,42,27,167,51,44,26,091,25,23,23,284,,1*78
$GBGSV,4,3,13,22,23,046,20,25,20,231,49,14,09,184,49,37,03,329,20,1*7B
$GBGSV,4,4,13,52,,,28,1*79
$GBGSV,2,1,07,34,71,030,17,21,47,105,46,43,42,299,17,42,27,167,41,5*77
$GBGSV,2,2,07,44,26,091,25,23,23,284,18,25,20,231,37,5*48
$GNGGA,223206.000,4000.587100,N,10514.620962,W,2,39,0.52,1602.672,M,-20.634,M,,*76
$GPGSV,4,1,14,05,70,159,44,20,60,061,17,25,51,235,38,29,48,313,23,1*65
$GPGSV,4,2,14,12,40,191,49,46,37,214,46,11,37,057,18,18,14,260,40,1*64
$GPGSV,4,3,14,13,04,136,37,06,03,068,,15,03,168,48,09,02,032,,1*65
$GPGSV,4,4,14,31,01,311,,28,01,285,,1*65
$GPGSV,1,1,03,25,51,235,41,11,37,057,19,18,14,260,41,8*5F
$GLGSV,2,1,05,76,37,257,40,71,31,139,43,87,18,288,14,75,10,202,51,1*71
$GLGSV,2,2,05,69,05,019,17,1*49
$GAGSV,2,1,08,34,71,331,,30,55,253,32,36,35,056,19,15,30,265,29,7*7B
$GAGSV,2,2,08,02,30,183,43,09,17,070,22,05,16,123,42,04,01,027,15,7*7F
$GAGSV,2,1,06,34,71,331,16,30,55,253,38,02,30,183,48,15,30,265,36,1*7F
$GAGSV,2,2,06,09,17,070,16,05,16,123,37,1*7A
$GBGSV,4,1,13,34,71,030,25,11,63,325,,21,47,105,50,12,46,076,22,1*74
$GBGSV,4,2,13,43,42,299,26,42,27,167,51,44,26,091,17,22,23,046,19,1*73
$GBGSV,4,3,13,23,23,284,,25,20,231,49,14,09,184,50,37,03,329,19,1*76
$GBGSV,4,4,13,52,,,27,1*76
$GBGSV,2,1,07,34,71,030,17,21,47,105,46,43,42,299,18,42,27,167,41,5*78
$GBGSV,2,2,07,44,26,091,26,23,23,284,18,25,20,231,35,5*49
$GNGGA,223211.000,4000.587034,N,10514.620908,W,2,37,0.52,1602.780,M,-20.635,M,,*79
$GPGSV,4,1,14,05,70,159,42,20,60,061,,25,51,235,36,29,48,313,12,1*69
$GPGSV,4,2,14,12,40,191,47,11,37,057,15,46,37,214,43,18,14,260,38,1*6D
$GPGSV,4,3,14,13,04,136,31,06,03,068,,15,03,168,46,09,02,032,,1*6D
$GPGSV,4,4,14,28,01,285,,31,01,311,,1*65
$GPGSV,1,1,03,25,51,235,41,11,37,057,19,18,14,260,40,8*5E
$GLGSV,2,1,05,76,37,257,38,71,31,139,41,87,18,288,15,75,10,202,51,1*7D
$GLGSV,2,2,05,69,05,019,15,1*4B
$GAGSV,2,1,08,34,71,331,19,30,55,253,29,36,35,056,17,15,30,265,26,7*78
$GAGSV,2,2,08,02,30,183,41,09,17,070,20,05,16,123,39,04,01,027,13,7*75
$GAGSV,2,1,06,34,71,331,16,30,55,253,38,02,30,183,48,15,30,265,35,1*7C
$GAGSV,2,2,06,09,17,070,16,05,16,123,39,1*74
$GBGSV,3,1,12,34,71,030,,21,48,103,50,12,46,076,18,43,42,299,23,1*76
$GBGSV,3,2,12,42,27,167,51,44,26,091,,23,23,282,21,22,22,045,19,1*7D
$GBGSV,3,3,12,25,19,230,49,14,09,184,50,37,03,329,20,52,,,28,1*42
$GBGSV,2,1,07,34,71,030,20,21,48,103,46,43,42,299,17,42,27,167,41,5*7A
$GBGSV,2,2,07,44,26,091,27,23,23,282,18,25,19,230,36,5*46
$GNGGA,223216.000,4000.587046,N,10514.621076,W,2,38,0.52,1602.821,M,-20.634,M,,*70
$GPGSV,4,1,14,05,70,159,39,20,60,061,,25,51,235,35,29,48,313,18,1*6C
$GPGSV,4,2,14,12,40,191,44,46,37,214,40,11,37,057,,18,14,260,36,1*67
$GPGSV,4,3,14,13,04,136,31,15,03,168,41,06,03,068,,09,02,032,,1*6A
$GPGSV,4,4,14,28,01,285,,31,01,311,,1*65
$GPGSV,1,1,03,25,51,235,41,11,37,057,18,18,14,260,40,8*5F
$GLGSV,2,1,05,76,37,257,38,71,31,139,43,87,18,288,18,75,10,202,51,1*72
$GLGSV,2,2,05,69,05,019,18,1*46
$GAGSV,2,1,08,34,71,331,,30,55,253,27,36,35,056,18,15,30,265,24,7*73
$GAGSV,2,2,08,02,30,183,37,09,17,070,18,05,16,123,34,04,01,027,14,7*75
$GAGSV,2,1,06,34,71,331,16,30,55,253,38,02,30,183,48,15,30,265,35,1*7C
$GAGSV,2,2,06,09,17,070,13,05,16,123,39,1*71
$GBGSV,3,1,11,34,71,030,18,11,63,325,,21,48,103,50,12,46,076,26,1*72
$GBGSV,3,2,11,42,27,167,51,44,26,091,26,23,23,282,25,22,22,045,17,1*70
$GBGSV,3,3,11,25,19,230,49,14,09,184,50,37,03,329,,1*4E
$GBGSV,2,1,08,34,71,030,18,21,48,103,46,43,42,299,16,42,27,167,41,5*7F
$GBGSV,2,2,08,44,26,091,28,23,23,282,18,22,22,045,17,25,19,230,33,5*74
$GNGGA,223221.000,4000.587112,N,10514.621316,W,2,35,0.53,1602.853,M,-20.634,M,,*78
$GPGSV,4,1,14,05,70,159,40,20,60,061,,25,51,235,36,29,48,313,19,1*60
$GPGSV,4,2,14,12,40,191,45,46,37,214,41,11,37,057,17,18,14,260,37,1*60
$GPGSV,4,3,14,13,04,136,31,15,03,168,42,06,03,068,,09,02,032,,1*69
$GPGSV,4,4,14,28,01,285,,31,01,311,,1*65
$GPGSV,1,1,03,25,51,235,41,11,37,057,18,18,14,260,40,8*5F
$GLGSV,2,1,05,76,37,257,37,71,31,139,41,87,18,288,18,75,10,202,51,1*7F
$GLGSV,2,2,05,69,05,019,17,1*49
$GAGSV,2,1,08,34,71,331,,30,55,253,27,36,35,056,18,15,30,265,22,7*75
$GAGSV,2,2,08,02,30,183,38,09,17,070,,05,16,123,35,04,01,027,14,7*72
$GAGSV,2,1,05,34,71,331,16,30,55,253,38,02,30,183,48,15,30,265,35,1*7F
$GAGSV,2,2,05,05,16,123,39,1*48
$GBGSV,3,1,12,34,71,034,,11,63,325,20,21,48,103,50,12,46,076,26,1*7E
$GBGSV,3,2,12,43,42,299,,42,27,167,51,44,26,091,30,23,23,282,28,1*7D
$GBGSV,3,3,12,22,22,045,,25,19,230,49,14,09,184,50,37,03,329,21,1*7F
$GBGSV,2,1,08,34,71,034,14,21,48,103,46,43,42,299,17,42,27,167,41,5*76
$GBGSV,2,2,08,44,26,091,27,23,23,282,18,22,22,045,16,25,19,230,36,5*7F
$GNGGA,223226.000,4000.587220,N,10514.621604,W,2,36,0.53,1603.338,M,-20.635,M,,*7E
$GPGSV,4,1,14,05,70,159,40,20,60,061,,25,51,235,37,29,48,313,17,1*6F
$GPGSV,4,2,14,12,40,191,46,46,37,214,41,11,37,057,18,18,14,260,38,1*63
$GPGSV,4,3,14,13,04,136,34,15,03,168,43,06,03,068,,09,02,032,,1*6D
$GPGSV,4,4,14,28,01,285,,31,01,311,,1*65
$GPGSV,1,1,03,25,51,235,41,11,37,057,18,18,14,260,40,8*5F
$GLGSV,2,1,06,76,37,257,38,71,31,139,41,77,27,312,,87,18,288,19,1*70
$GLGSV,2,2,06,75,10,202,51,69,05,019,24,1*7D
$GAGSV,2,1,08,34,71,331,,30,55,253,27,36,35,056,16,15,30,265,21,7*78
$GAGSV,2,2,08,02,30,183,38,09,17,070,,05,16,123,36,04,01,027,14,7*71
$GAGSV,2,1,05,34,71,331,16,30,55,253,38,02,30,183,48,15,30,265,34,1*7E
$GAGSV,2,2,05,05,16,123,40,1*46
$GBGSV,3,1,12,34,71,034,17,11,63,325,24,21,48,103,50,12,46,076,23,1*79
$GBGSV,3,2,12,43,42,299,,42,27,167,51,44,26,091,31,23,23,282,17,1*70
$GBGSV,3,3,12,22,22,045,22,25,19,230,49,14,09,184,50,37,03,329,21,1*7F
$GBGSV,2,1,07,21,48,103,46,43,42,299,18,42,27,167,42,44,26,091,27,5*7F
$GBGSV,2,2,07,23,23,282,15,22,22,045,15,25,19,230,36,5*47
$GNGGA,223231.000,4000.587226,N,10514.621748,W,2,37,0.53,1603.530,M,-20.635,M,,*78
$GPGSV,4,1,14,05,70,159,30,20,60,061,14,25,51,235,27,29,48,313,15,1*6E
$GPGSV,4,2,14,12,40,191,36,46,37,214,31,11,37,057,13,18,14,260,28,1*69
$GPGSV,4,3,14,13,04,136,28,15,03,168,33,06,03,068,,09,02,032,,1*67
$GPGSV,4,4,14,28,01,285,,31,01,311,,1*65
$GPGSV,1,1,03,25,51,235,41,11,37,057,18,18,14,260,40,8*5F
$GLGSV,2,1,05,76,37,257,41,71,31,139,42,87,18,288,23,75,10,202,51,1*75
$GLGSV,2,2,05,69,05,019,26,1*4B
$GAGSV,2,1,08,34,71,331,17,30,55,253,21,36,35,056,17,15,30,265,17,7*7C
$GAGSV,2,2,08,02,30,183,29,09,17,070,,05,16,123,26,04,01,027,14,7*70
$GAGSV,1,1,04,30,55,253,38,15,30,265,34,02,30,183,48,05,16,123,40,1*7D
$GBGSV,3,1,12,34,71,034,19,11,63,325,24,21,48,103,50,12,46,076,23,1*77
$GBGSV,3,2,12,43,43,300,,42,28,166,51,44,25,092,32,23,23,282,30,1*78
$GBGSV,3,3,12,22,22,045,17,25,19,230,49,14,09,184,50,37,03,329,20,1*78
$GBGSV,2,1,06,21,48,103,46,43,43,300,17,42,28,166,42,44,25,092,26,5*7E
$GBGSV,2,2,06,22,22,045,15,25,19,230,34,5*78
$GNGGA,223236.000,4000.587118,N,10514.621772,W,2,37,0.53,1603.694,M,-20.634,M,,*74
$GPGSV,4,1,14,05,70,159,29,20,60,061,15,25,51,235,27,29,48,313,12,1*60
$GPGSV,4,2,14,12,40,191,35,46,37,214,30,11,37,057,,18,14,260,27,1*66
$GPGSV,4,3,14,13,04,136,26,15,03,168,33,06,03,068,,09,02,032,,1*69
$GPGSV,4,4,14,28,01,285,,31,01,311,,1*65
$GPGSV,1,1,03,25,51,235,41,11,37,057,19,18,14,260,40,8*5E
$GLGSV,2,1,05,76,37,257,41,71,31,139,41,87,18,288,24,75,10,202,51,1*71
$GLGSV,2,2,05,69,05,019,26,1*4B
$GAGSV,2,1,08,34,71,331,17,30,55,253,18,36,35,056,18,15,30,265,17,7*79
$GAGSV,2,2,08,02,30,183,28,09,17,070,,05,16,123,26,04,01,027,14,7*71
$GAGSV,1,1,04,30,55,253,38,02,30,183,48,15,30,265,34,05,16,123,40,1*7D
$GBGSV,3,1,12,34,71,034,18,11,63,325,18,21,48,103,50,12,46,076,25,1*7F
$GBGSV,3,2,12,43,43,300,24,42,28,166,51,44,25,092,31,23,23,282,29,1*75
$GBGSV,3,3,12,22,22,045,23,25,19,230,49,14,09,184,50,37,03,329,20,1*7F
$GBGSV,2,1,07,34,71,034,17,21,48,103,46,43,43,300,18,42,28,166,42,5*78
$GBGSV,2,2,07,44,25,092,27,22,22,045,16,25,19,230,34,5*43
$GNGGA,223241.000,4000.586992,N,10514.621610,W,2,33,0.55,1603.777,M,-20.634,M,,*74
$GPGSV,4,1,14,05,70,159,29,20,60,061,,25,51,235,23,29,48,313,,1*63
$GPGSV,4,2,14,12,40,191,35,46,37,214,30,11,37,057,,18,14,260,27,1*66
$GPGSV,4,3,14,13,04,136,23,06,03,068,,15,03,168,33,09,02,032,,1*6C
$GPGSV,4,4,14,31,01,311,,28,01,285,,1*65
$GPGSV,1,1,03,25,51,235,41,11,37,057,19,18,14,260,39,8*50
$GLGSV,2,1,05,76,37,257,38,71,31,139,41,87,18,288,18,75,10,202,51,1*70
$GLGSV,2,2,05,69,05,019,21,1*4C
$GAGSV,2,1,08,34,71,331,,30,55,253,19,36,35,056,17,15,30,265,17,7*71
$GAGSV,2,2,08,02,30,183,27,09,17,070,,05,16,123,24,04,01,027,14,7*7C
$GAGSV,1,1,04,30,55,253,38,02,30,183,48,15,30,265,33,05,16,123,40,1*7A
$GBGSV,4,1,13,34,71,034,,11,63,325,26,21,48,103,50,12,46,076,23,1*7B
$GBGSV,4,2,13,43,43,300,24,42,28,166,51,44,25,092,28,23,23,282,,1*70
$GBGSV,4,3,13,22,22,045,19,25,19,230,49,14,09,184,50,37,03,329,23,1*73
$GBGSV,4,4,13,51,,,29,1*7B
$GBGSV,2,1,07,34,71,034,16,21,48,103,46,43,43,300,18,42,28,166,42,5*79
$GBGSV,2,2,07,44,25,092,27,22,22,045,14,25,19,230,34,5*41
$GNGGA,223246.000,4000.586890,N,10514.621532,W,2,33,0.56,1603.760,M,-20.635,M,,*77
$GPGSV,4,1,14,05,70,159,28,20,60,061,,25,51,235,28,29,48,313,,1*69
$GPGSV,4,2,14,12,40,191,35,46,37,214,30,11,37,057,,18,14,260,26,1*67
$GPGSV,4,3,14,13,04,136,25,15,03,168,34,06,03,068,,09,02,032,,1*6D
$GPGSV,4,4,14,28,01,285,,31,01,311,,1*65
$GPGSV,1,1,03,25,51,235,41,11,37,057,19,18,14,260,38,8*51
$GLGSV,2,1,06,76,37,257,40,71,31,139,41,77,27,312,,87,18,288,20,1*75
$GLGSV,2,2,06,75,10,202,51,69,05,019,20,1*79
$GAGSV,2,1,08,34,71,331,,30,55,253,22,15,30,265,17,02,30,183,27,7*71
$GAGSV,2,2,08,27,25,314,,09,17,070,,05,16,123,24,04,01,027,14,7*76
$GAGSV,1,1,04,30,55,253,38,02,30,183,48,15,30,265,35,05,16,123,40,1*7C
$GBGSV,3,1,10,34,71,034,25,11,63,325,24,21,48,103,50,12,46,076,17,1*7D
$GBGSV,3,2,10,42,28,166,51,44,25,092,27,23,23,282,27,22,22,045,18,1*73
$GBGSV,3,3,10,25,19,230,49,14,09,184,50,1*70
$GBGSV,2,1,07,34,71,034,16,21,48,103,46,43,43,300,18,42,28,166,43,5*78
$GBGSV,2,2,07,44,25,092,28,22,22,045,14,25,19,230,35,5*4F
$PAIR010,0,0,2309,340386*39
$PAIR010,0,1,2309,340386*38
$GNGGA,223251.000,4000.586854,N,10514.621352,W,2,32,0.58,1603.649,M,-20.635,M,,*7C
$GPGSV,4,1,14,05,70,159,25,20,60,061,,25,51,235,26,29,48,313,,1*6A
$GPGSV,4,2,14,12,40,191,33,46,37,214,28,11,37,057,,18,14,260,25,1*6B
$GPGSV,4,3,14,13,04,136,24,15,03,168,32,06,03,068,,09,02,032,,1*6A
$GPGSV,4,4,14,28,01,285,,31,01,311,,1*65
$GPGSV,1,1,03,25,51,235,41,11,37,057,18,18,14,260,38,8*50
$GLGSV,2,1,05,76,37,257,40,71,31,139,42,87,18,288,20,75,10,202,51,1*77
$GLGSV,2,2,05,69,05,019,25,1*48
$GAGSV,3,1,09,34,71,331,,30,55,253,18,36,35,056,,15,30,265,18,7*79
$GAGSV,3,2,09,02,30,183,26,27,25,314,,09,17,070,,05,16,123,22,7*7A
$GAGSV,3,3,09,04,01,027,,7*4A
$GAGSV,1,1,04,30,55,253,38,15,30,265,34,02,30,183,48,05,16,123,40,1*7D
$GBGSV,3,1,11,34,71,034,26,11,63,325,27,21,48,103,50,12,46,076,16,1*7D
$GBGSV,3,2,11,42,28,166,51,44,25,092,29,23,23,282,30,22,22,045,,1*73
$GBGSV,3,3,11,25,19,230,50,14,09,184,50,37,03,329,,1*46
$GBGSV,2,1,06,34,71,034,15,21,48,103,46,43,43,300,18,42,28,166,43,5*7A
$GBGSV,2,2,06,44,25,092,28,25,19,230,35,5*7A
$GNGGA,223256.000,4000.586788,N,10514.621286,W,2,32,0.56,1603.801,M,-20.635,M,,*71
$GPGSV,4,1,14,05,71,156,26,20,60,061,,25,51,235,26,29,48,313,,1*67
$GPGSV,4,2,14,12,40,191,34,46,37,214,28,11,37,057,,18,14,260,25,1*6C
$GPGSV,4,3,14,13,04,136,24,15,03,168,32,09,02,032,,06,02,069,,1*6A
$GPGSV,4,4,14,28,01,285,,31,01,311,,1*65
$GPGSV,1,1,03,25,51,235,41,11,37,057,18,18,14,260,38,8*50
$GLGSV,2,1,06,76,37,257,38,71,31,139,41,77,27,312,,87,18,288,19,1*70
$GLGSV,2,2,06,75,10,202,51,69,05,019,13,1*79
$GAGSV,3,1,09,34,71,331,,30,55,253,20,36,35,056,,02,30,183,26,7*72
$GAGSV,3,2,09,15,30,265,18,27,25,314,,09,17,070,,05,16,123,24,7*7C
$GAGSV,3,3,09,04,01,027,,7*4A
$GAGSV,1,1,04,30,55,253,38,15,30,265,34,02,30,183,48,05,16,123,40,1*7D
$GBGSV,3,1,11,34,71,034,22,11,63,325,27,21,48,103,50,12,46,076,18,1*77
$GBGSV,3,2,11,42,28,166,51,44,25,092,29,23,23,282,30,22,22,045,24,1*75
$GBGSV,3,3,11,25,19,230,50,14,09,184,50,37,03,329,,1*46
$GBGSV,2,1,06,34,71,034,16,21,48,103,46,43,43,300,15,42,28,166,43,5*74
$GBGSV,2,2,06,44,25,092,28,25,19,230,35,5*7A
$GNGGA,223301.000,4000.586776,N,10514.621220,W,2,32,0.58,1603.762,M,-20.635,M,,*7B
$GPGSV,4,1,14,05,71,156,25,20,60,061,,25,51,235,27,29,48,313,,1*65
$GPGSV,4,2,14,12,39,191,33,46,37,214,27,11,36,058,,18,14,260,26,1*67
$GPGSV,4,3,14,13,04,136,27,15,03,168,32,06,02,069,,09,02,031,,1*6A
$GPGSV,4,4,14,31,01,311,,28,01,285,,1*65
$GPGSV,1,1,03,25,51,235,41,11,36,058,17,18,14,260,37,8*5E
$GLGSV,2,1,05,76,37,257,38,71,31,139,41,87,18,288,18,75,10,202,51,1*70
$GLGSV,2,2,05,69,05,019,23,1*4E
$GAGSV,3,1,09,34,71,331,,30,55,253,20,36,35,056,,15,30,265,18,7*72
$GAGSV,3,2,09,02,30,183,26,27,25,314,,09,17,070,,05,16,123,24,7*7C
$GAGSV,3,3,09,04,01,027,,7*4A
$GAGSV,1,1,04,30,55,253,38,15,30,265,33,02,30,183,48,05,16,123,40,1*7A
$GBGSV,3,1,12,34,71,034,16,11,63,325,,21,48,103,50,12,46,076,23,1*7E
$GBGSV,3,2,12,43,43,300,,42,28,166,51,44,25,092,31,23,23,282,26,1*7C
$GBGSV,3,3,12,22,22,045,,25,19,230,50,14,09,184,50,37,03,329,,1*74
$GBGSV,2,1,05,34,71,034,16,21,48,103,45,42,28,166,43,44,25,092,28,5*75
$GBGSV,2,2,05,25,19,230,36,5*4C
$GNGGA,223306.000,4000.586782,N,10514.621118,W,2,34,0.54,1603.648,M,-20.635,M,,*7C
$GPGSV,4,1,13,05,71,156,24,20,60,061,,25,51,235,26,29,48,313,,1*62
$GPGSV,4,2,13,12,39,191,33,46,37,214,28,11,36,058,,18,14,260,24,1*6D
$GPGSV,4,3,13,13,05,136,23,15,04,168,32,06,02,069,,09,02,031,,1*6F
$GPGSV,4,4,13,31,01,311,,1*56
$GPGSV,1,1,03,25,51,235,41,11,36,058,17,18,14,260,36,8*5F
$GLGSV,2,1,05,76,37,257,37,71,31,139,41,87,18,288,23,75,10,202,51,1*77
$GLGSV,2,2,05,69,05,019,17,1*49
$GAGSV,3,1,09,34,71,331,,30,55,253,19,36,35,056,,02,30,183,25,7*7B
$GAGSV,3,2,09,15,30,265,18,27,25,314,,09,17,070,,05,16,123,24,7*7C
$GAGSV,3,3,09,04,01,027,,7*4A
$GAGSV,1,1,04,30,55,253,38,15,30,265,33,02,30,183,48,05,16,123,40,1*7A
$GBGSV,3,1,11,34,71,034,18,11,63,325,,21,48,103,50,12,46,076,27,1*77
$GBGSV,3,2,11,42,28,166,51,44,25,092,32,23,23,282,29,22,22,045,24,1*77
$GBGSV,3,3,11,25,19,230,50,14,09,184,50,37,03,329,,1*46
$GBGSV,2,1,06,34,71,034,15,21,48,103,45,42,28,166,43,44,25,092,26,5*7B
$GBGSV,2,2,06,23,23,282,15,25,19,230,36,5*73
$GNGGA,223311.000,4000.586830,N,10514.621046,W,2,35,0.53,1603.367,M,-20.635,M,,*78
$GPGSV,4,1,14,05,71,156,25,20,59,060,,25,51,235,26,29,48,313,,1*6F
$GPGSV,4,2,14,12,39,191,33,46,37,214,29,11,36,058,,18,15,260,25,1*6B
$GPGSV,4,3,14,13,05,136,23,15,04,168,30,06,02,069,,09,02,031,,1*6A
$GPGSV,4,4,14,31,01,311,,28,01,285,,1*65
$GPGSV,1,1,03,25,51,235,41,11,36,058,17,18,15,260,36,8*5E
$GLGSV,2,1,06,70,42,074,,76,37,257,40,71,31,139,42,87,18,288,26,1*77
$GLGSV,2,2,06,75,10,202,51,69,05,019,26,1*7F
$GAGSV,2,1,07,34,71,331,17,30,55,253,24,36,35,056,,02,30,183,23,7*7A
$GAGSV,2,2,07,15,30,265,18,09,17,070,,05,16,123,24,7*47
$GAGSV,1,1,04,30,55,253,38,15,30,265,33,02,30,183,48,05,16,123,40,1*7A
$GBGSV,3,1,11,34,71,034,18,11,63,325,17,21,48,103,50,12,46,076,27,1*71
$GBGSV,3,2,11,42,28,166,51,44,25,092,32,23,23,282,24,22,22,045,25,1*7B
$GBGSV,3,3,11,25,19,230,50,14,09,184,50,37,03,329,19,1*4E
$GBGSV,2,1,06,34,71,034,15,21,48,103,45,42,28,166,43,44,25,092,23,5*7E
$GBGSV,2,2,06,23,23,282,13,25,19,230,36,5*75
$GNGGA,223316.000,4000.586884,N,10514.621010,W,2,34,0.54,1602.935,M,-20.634,M,,*78
$GPGSV,4,1,14,05,71,156,25,20,59,060,,25,50,233,27,29,48,313,,1*69
$GPGSV,4,2,14,12,39,191,33,46,37,214,30,11,36,058,,18,15,260,27,1*61
$GPGSV,4,3,14,13,05,136,25,15,04,168,31,06,02,069,,09,02,031,,1*6D
$GPGSV,4,4,14,31,01,311,,28,01,285,,1*65
$GPGSV,1,1,03,25,50,233,41,11,36,058,17,18,15,260,35,8*5A
$GLGSV,2,1,05,76,37,257,38,71,31,139,42,87,18,288,18,75,10,202,51,1*73
$GLGSV,2,2,05,69,05,019,24,1*49
$GAGSV,3,1,09,34,71,331,,30,55,253,22,36,35,056,,15,30,265,18,7*70
$GAGSV,3,2,09,02,30,183,25,27,25,314,,09,17,070,,05,16,123,21,7*7A
$GAGSV,3,3,09,04,01,027,,7*4A
$GAGSV,1,1,04,30,55,253,38,15,30,265,32,02,30,183,48,05,16,123,40,1*7B
$GBGSV,3,1,12,34,71,034,20,11,63,325,,21,48,103,50,12,46,076,27,1*7F
$GBGSV,3,2,12,43,43,300,,42,28,166,51,44,25,092,31,23,23,282,26,1*7C
$GBGSV,3,3,12,22,22,045,24,25,19,230,50,14,09,184,50,37,03,329,21,1*71
$GBGSV,2,1,05,34,71,034,16,21,48,103,45,42,28,166,43,44,25,092,18,5*76
$GBGSV,2,2,05,25,19,230,36,5*4C
$GNGGA,223321.000,4000.586914,N,10514.621052,W,2,32,0.54,1602.653,M,-20.635,M,,*7A
$GPGSV,4,1,14,05,71,156,27,20,59,060,,25,50,233,33,29,49,314,,1*68
$GPGSV,4,2,14,12,39,191,40,46,37,214,31,11,36,058,,18,15,260,23,1*60
$GPGSV,4,3,14,13,05,136,27,15,04,168,33,06,02,069,,09,02,031,,1*6D
$GPGSV,4,4,14,31,01,310,,28,01,284,,1*65
$GPGSV,1,1,03,25,50,233,41,11,36,058,16,18,15,260,35,8*5B
$GLGSV,2,1,05,76,37,257,39,71,31,139,44,87,18,288,25,75,10,202,51,1*7A
$GLGSV,2,2,05,69,05,019,18,1*46
$GAGSV,3,1,09,34,71,331,,30,55,253,22,36,35,056,,15,30,265,18,7*70
$GAGSV,3,2,09,02,30,183,33,27,25,314,,09,17,070,,05,16,123,25,7*79
$GAGSV,3,3,09,04,01,027,,7*4A
$GAGSV,1,1,04,30,55,253,38,15,30,265,32,02,30,183,48,05,16,123,41,1*7A
$GBGSV,3,1,12,34,71,034,,11,63,325,,21,48,103,50,12,46,076,24,1*7E
$GBGSV,3,2,12,43,43,300,25,42,28,166,51,44,25,092,28,23,23,282,28,1*7D
$GBGSV,3,3,12,22,22,045,23,25,19,230,50,14,09,184,50,37,03,329,19,1*7D
$GBGSV,2,1,05,34,71,034,16,21,48,103,45,42,28,166,43,44,25,092,18,5*76
$GBGSV,2,2,05,25,19,230,36,5*4C
$GNGGA,223326.000,4000.587004,N,10514.621100,W,2,32,0.54,1602.332,M,-20.635,M,,*70
$GPGSV,4,1,14,05,71,156,28,20,59,060,,25,50,233,27,29,49,314,,1*62
$GPGSV,4,2,14,12,39,191,35,46,37,214,29,11,36,058,,18,15,260,20,1*68
$GPGSV,4,3,14,13,05,136,25,15,04,168,32,06,02,069,,09,02,031,,1*6E
$GPGSV,4,4,14,31,01,310,,28,01,284,,1*65
$GPGSV,1,1,03,25,50,233,41,11,36,058,16,18,15,260,33,8*5D
$GLGSV,2,1,05,76,37,257,40,71,31,139,44,87,18,288,20,75,10,202,51,1*71
$GLGSV,2,2,05,69,05,019,23,1*4E
$GAGSV,3,1,09,34,71,331,,30,55,253,20,36,35,056,,15,30,265,18,7*72
$GAGSV,3,2,09,02,30,183,26,27,25,314,,09,17,070,,05,16,123,25,7*7D
$GAGSV,3,3,09,04,01,027,,7*4A
$GAGSV,1,1,04,30,55,253,38,15,30,265,31,02,30,183,48,05,16,123,41,1*79
$GBGSV,3,1,12,34,71,034,,11,63,325,,21,48,103,50,12,46,076,18,1*71
$GBGSV,3,2,12,43,43,300,27,42,28,166,51,44,25,092,28,23,23,282,22,1*75
$GBGSV,3,3,12,22,22,045,27,25,19,230,50,14,09,184,51,37,03,329,19,1*78
$GBGSV,2,1,05,34,71,034,17,21,48,103,45,42,28,166,43,44,25,092,20,5*7C
$GBGSV,2,2,05,25,19,230,36,5*4C
$GNGGA,223331.000,4000.587136,N,10514.621160,W,2,34,0.54,1602.223,M,-20.635,M,,*77
$GPGSV,4,1,14,05,71,156,25,20,59,060,,25,50,233,26,29,49,314,,1*6E
$GPGSV,4,2,14,12,39,191,33,46,37,214,28,11,36,058,,18,15,260,22,1*6D
$GPGSV,4,3,14,13,05,136,23,15,04,168,31,06,02,069,,09,02,031,,1*6B
$GPGSV,4,4,14,31,01,310,,28,01,284,,1*65
$GPGSV,1,1,03,25,50,233,41,11,36,058,15,18,15,260,31,8*5C
$GLGSV,2,1,05,76,37,257,41,71,31,139,46,87,18,288,26,75,10,202,51,1*74
$GLGSV,2,2,05,69,05,019,25,1*48
$GAGSV,3,1,09,34,71,331,,30,55,253,19,36,35,056,,15,30,265,18,7*78
$GAGSV,3,2,09,02,29,183,27,27,25,314,,09,17,070,,05,16,123,21,7*70
$GAGSV,3,3,09,04,01,027,,7*4A
$GAGSV,1,1,04,30,55,253,38,15,30,265,31,02,29,183,48,05,16,123,41,1*71
$GBGSV,3,1,12,34,71,034,24,11,63,325,,21,48,103,50,12,46,076,19,1*76
$GBGSV,3,2,12,43,43,300,26,42,28,166,51,44,25,092,28,23,23,282,,1*74
$GBGSV,3,3,12,22,22,045,29,25,19,230,50,14,09,184,51,37,03,329,,1*7E
$GBGSV,2,1,07,34,71,034,17,21,48,103,45,42,28,166,43,44,25,092,24,5*7A
$GBGSV,2,2,07,23,23,282,21,22,22,045,20,25,19,230,36,5*46
$GNGGA,223336.000,4000.587256,N,10514.621298,W,2,34,0.54,1601.940,M,-20.635,M,,*7C
$GPGSV,4,1,14,05,71,156,24,20,59,060,,25,50,233,26,29,49,314,,1*6F
$GPGSV,4,2,14,12,39,191,33,46,37,214,29,11,36,058,,18,15,260,23,1*6D
$GPGSV,4,3,14,13,05,136,24,15,04,168,31,06,02,069,,09,02,031,,1*6C
$GPGSV,4,4,14,31,01,310,,28,01,284,,1*65
$GPGSV,1,1,03,25,50,233,41,11,36,058,14,18,15,260,31,8*5D
$GLGSV,2,1,05,76,37,257,41,71,31,139,45,87,18,288,21,75,10,202,51,1*70
$GLGSV,2,2,05,69,05,019,19,1*47
$GAGSV,3,1,09,34,71,331,,30,55,253,20,36,35,056,,15,30,265,18,7*72
$GAGSV,3,2,09,02,29,183,27,27,25,314,,09,17,070,,05,16,123,21,7*70
$GAGSV,3,3,09,04,01,026,,7*4B
$GAGSV,1,1,04,30,55,253,38,15,30,265,31,02,29,183,48,05,16,123,42,1*72
$GBGSV,3,1,12,34,71,034,16,11,63,325,24,21,48,103,50,12,46,076,25,1*7E
$GBGSV,3,2,12,43,43,300,20,42,28,166,51,44,25,092,32,23,23,282,27,1*7C
$GBGSV,3,3,12,22,22,045,27,25,19,230,49,14,09,184,51,37,03,329,,1*78
$GBGSV,2,1,07,34,71,034,17,21,48,103,45,42,28,166,43,44,25,092,28,5*76
$GBGSV,2,2,07,23,23,282,22,22,22,045,16,25,19,230,36,5*40
$GNGGA,223341.000,4000.587226,N,10514.621304,W,2,36,0.52,1601.914,M,-20.635,M,,*7A
$GPGSV,4,1,14,05,71,156,26,20,59,060,,25,50,233,27,29,49,314,,1*6C
$GPGSV,4,2,14,12,39,191,34,46,37,214,31,11,36,058,,18,15,260,23,1*63
$GPGSV,4,3,14,13,05,136,24,15,04,168,32,06,02,069,,09,02,031,,1*6F
$GPGSV,4,4,14,31,01,310,,28,01,284,,1*65
$GPGSV,1,1,03,25,50,233,41,11,36,058,14,18,15,260,34,8*58
$GLGSV,2,1,05,76,37,257,41,71,31,139,47,87,18,288,15,75,10,202,51,1*75
$GLGSV,2,2,05,69,05,019,22,1*4F
$GAGSV,3,1,09,34,71,331,,30,55,253,19,36,35,056,,15,30,265,17,7*77
$GAGSV,3,2,09,02,29,183,28,27,25,314,,09,18,070,18,05,16,123,24,7*7C
$GAGSV,3,3,09,04,01,026,,7*4B
$GAGSV,1,1,04,30,55,253,38,15,30,265,31,02,29,183,48,05,16,123,42,1*72
$GBGSV,3,1,12,34,71,034,24,11,63,325,18,21,48,103,50,12,46,076,27,1*72
$GBGSV,3,2,12,43,43,300,,42,28,166,51,44,25,092,33,23,23,282,30,1*79
$GBGSV,3,3,12,22,22,045,28,25,19,230,49,14,09,184,51,37,03,329,,1*77
$GBGSV,2,1,07,34,71,034,17,21,48,103,45,42,28,166,43,44,25,092,29,5*77
$GBGSV,2,2,07,23,23,282,18,22,22,045,14,25,19,230,36,5*4B
$GNGGA,223346.000,4000.587118,N,10514.621160,W,2,35,0.53,1602.019,M,-20.634,M,,*77
$GPGSV,4,1,14,05,71,156,25,20,59,060,,25,50,233,26,29,49,314,,1*6E
$GPGSV,4,2,14,12,39,191,35,46,37,214,30,11,36,058,,18,15,260,23,1*63
$GPGSV,4,3,14,13,05,136,23,15,04,168,32,06,02,069,,09,02,031,,1*68
$GPGSV,4,4,14,31,01,310,,28,01,284,,1*65
$GPGSV,1,1,02,25,50,233,40,18,15,260,32,8*63
$GLGSV,2,1,06,76,37,257,42,71,31,139,47,77,27,312,,87,18,288,20,1*71
$GLGSV,2,2,06,75,10,202,50,69,05,019,22,1*7A
$GAGSV,3,1,09,34,71,331,,30,55,253,19,36,35,056,,15,31,266,17,7*75
$GAGSV,3,2,09,02,29,183,28,27,25,314,,09,18,070,18,05,16,123,23,7*7B
$GAGSV,3,3,09,04,01,026,,7*4B
$GAGSV,1,1,04,30,55,253,38,15,31,266,30,02,29,183,48,05,16,123,42,1*71
$GBGSV,3,1,11,34,71,034,24,11,63,325,,21,48,103,50,12,46,076,25,1*7A
$GBGSV,3,2,11,42,28,166,51,44,25,092,34,23,23,282,30,22,22,045,26,1*7B
$GBGSV,3,3,11,25,19,230,49,14,09,184,51,37,03,329,22,1*4F
$GBGSV,2,1,07,34,71,034,17,21,48,103,45,42,28,166,43,44,25,092,29,5*77
$GBGSV,2,2,07,23,23,282,17,22,22,045,16,25,19,230,37,5*47
$PAIR010,0,0,2309,340446*32
$PAIR010,0,1,2309,340446*33
$GNGGA,223351.000,4000.586932,N,10514.620854,W,2,34,0.55,1602.203,M,-20.635,M,,*70
$GPGSV,4,1,14,05,71,156,33,20,59,060,,25,50,233,35,29,49,314,,1*6B
$GPGSV,4,2,14,12,39,191,42,46,37,214,40,11,36,058,,18,15,260,29,1*6E
$GPGSV,4,3,14,13,05,136,31,15,04,168,42,06,02,069,,09,02,031,,1*6C
$GPGSV,4,4,14,31,01,310,,28,01,284,,1*65
$GPGSV,1,1,02,25,50,233,40,18,15,260,32,8*63
$GLGSV,2,1,05,76,37,257,42,71,31,139,47,87,18,288,23,75,10,202,50,1*72
$GLGSV,2,2,05,69,05,019,24,1*49
$GAGSV,3,1,09,34,71,331,,30,55,253,25,36,35,056,,15,31,266,20,7*7E
$GAGSV,3,2,09,02,29,183,39,27,25,314,,09,18,070,15,05,16,123,31,7*75
$GAGSV,3,3,09,04,01,026,,7*4B
$GAGSV,1,1,04,30,55,253,38,15,31,266,30,02,29,183,47,05,16,123,43,1*7F
$GBGSV,3,1,11,34,71,034,17,11,63,325,,21,48,103,50,12,46,076,20,1*7F
$GBGSV,3,2,11,42,28,166,50,44,25,092,33,23,23,282,22,22,22,045,23,1*7B
$GBGSV,3,3,11,25,19,230,49,14,09,184,51,37,03,329,20,1*4D
$GBGSV,2,1,07,34,71,034,18,21,48,103,45,42,28,166,43,44,25,092,29,5*78
$GBGSV,2,2,07,23,23,282,17,22,22,045,14,25,19,230,37,5*45
$GNGGA,223356.000,4000.586788,N,10514.620614,W,2,34,0.54,1602.463,M,-20.634,M,,*72
$GPGSV,4,1,14,05,71,156,28,20,59,060,,25,50,233,32,29,49,314,,1*66
$GPGSV,4,2,14,12,39,191,40,46,37,214,36,11,36,058,,18,15,260,25,1*61
$GPGSV,4,3,14,13,05,136,29,15,04,168,36,06,02,069,,09,02,031,,1*66
$GPGSV,4,4,14,31,01,310,,28,01,284,,1*65
$GPGSV,1,1,02,25,50,233,40,18,15,260,31,8*60
$GLGSV,2,1,05,76,37,257,42,71,31,139,47,87,18,288,21,75,10,202,50,1*70
$GLGSV,2,2,05,69,05,019,14,1*4A
$GAGSV,3,1,09,34,71,331,17,30,55,253,24,36,35,056,,15,31,266,19,7*73
$GAGSV,3,2,09,02,29,183,32,27,25,314,18,09,18,070,14,05,16,123,28,7*7E
$GAGSV,3,3,09,04,01,026,,7*4B
$GAGSV,1,1,04,30,55,253,38,15,31,266,30,02,29,183,47,05,16,123,43,1*7F
$GBGSV,3,1,11,34,71,034,,11,63,325,,21,48,103,50,12,46,076,25,1*7C
$GBGSV,3,2,11,42,28,166,50,44,25,092,30,23,23,282,20,22,22,045,25,1*7C
$GBGSV,3,3,11,25,19,230,49,14,09,184,51,37,03,329,,1*4F
$GBGSV,2,1,07,34,71,034,18,21,48,103,45,42,28,166,43,44,25,092,27,5*76
$GBGSV,2,2,07,23,23,282,18,22,22,045,11,25,19,230,37,5*4F
$GNGGA,223401.000,4000.586686,N,10514.620428,W,2,33,0.52,1602.714,M,-20.635,M,,*76
$GPGSV,4,1,14,05,71,156,36,20,59,060,,25,50,233,40,29,49,314,21,1*6F
$GPGSV,4,2,14,12,39,191,46,46,37,214,43,11,36,058,,18,15,260,28,1*68
$GPGSV,4,3,14,13,05,136,37,15,04,168,45,06,02,069,,09,02,031,,1*6D
$GPGSV,4,4,14,31,01,310,,28,01,284,,1*65
$GPGSV,1,1,02,25,50,233,40,18,15,260,30,8*61
$GLGSV,2,1,06,76,37,257,42,71,31,139,47,77,27,312,,87,18,288,17,1*75
$GLGSV,2,2,06,75,10,202,49,69,05,019,19,1*7A
$GAGSV,2,1,07,34,71,331,17,30,55,252,28,15,31,266,21,02,29,183,42,7*7F
$GAGSV,2,2,07,27,25,314,17,09,18,070,14,05,16,123,34,7*41
$GAGSV,1,1,04,30,55,252,38,15,31,266,30,02,29,183,47,05,16,123,43,1*7E
$GBGSV,3,1,11,34,71,034,,11,63,325,21,21,48,103,50,12,46,076,27,1*7D
$GBGSV,3,2,11,42,28,166,50,44,25,092,29,23,23,282,,22,22,045,23,1*70
$GBGSV,3,3,11,25,19,230,49,14,09,184,51,37,03,329,22,1*4F
$GBGSV,2,1,06,34,71,034,18,21,48,103,45,42,28,166,43,44,25,092,26,5*76
$GBGSV,2,2,06,23,23,282,18,25,19,230,37,5*7F
$GNGGA,223406.000,4000.586644,N,10514.620536,W,2,37,0.52,1602.849,M,-20.635,M,,*72
$GPGSV,4,1,14,05,71,156,38,20,59,060,25,25,50,233,41,29,49,314,17,1*62
$GPGSV,4,2,14,12,39,191,48,46,37,214,45,11,36,058,,18,15,260,39,1*60
$GPGSV,4,3,14,13,05,136,39,15,04,168,47,06,02,069,,09,02,031,,1*61
$GPGSV,4,4,14,31,01,310,,28,01,284,,1*65
$GPGSV,1,1,02,25,50,233,40,18,15,260,28,8*68
$GLGSV,2,1,05,76,37,257,42,71,31,139,46,87,18,288,25,75,10,202,49,1*7D
$GLGSV,2,2,05,69,05,019,22,1*4F
$GAGSV,2,1,07,34,71,334,19,30,55,252,29,15,31,266,23,02,29,183,44,7*71
$GAGSV,2,2,07,27,25,314,16,09,18,070,12,05,16,123,33,7*41
$GAGSV,2,1,05,34,71,334,16,30,55,252,38,15,31,266,30,02,29,183,47,1*7B
$GAGSV,2,2,05,05,16,123,43,1*45
$GBGSV,3,1,12,34,71,034,23,11,63,325,18,21,48,103,50,12,46,076,26,1*74
$GBGSV,3,2,12,43,43,300,25,42,28,166,50,44,25,092,26,23,23,282,24,1*7E
$GBGSV,3,3,12,22,22,045,22,25,19,230,48,14,09,184,51,37,03,329,,1*7C
$GBGSV,2,1,06,34,71,034,18,21,48,103,45,42,28,166,43,44,25,092,23,5*73
$GBGSV,2,2,06,23,23,282,16,25,19,230,39,5*7F
$GNGGA,223411.000,4000.586842,N,10514.620716,W,2,35,0.64,1602.430,M,-20.634,M,,*78
$GPGSV,4,1,14,05,71,156,40,20,59,060,20,25,50,233,41,29,49,314,16,1*69
$GPGSV,4,2,14,12,39,191,50,46,37,214,47,11,36,058,,18,15,260,39,1*6B
$GPGSV,4,3,14,13,05,136,43,15,04,168,48,06,02,069,,09,02,031,,1*63
$GPGSV,4,4,14,31,01,310,,28,01,284,,1*65
$GPGSV,1,1,02,25,50,233,40,18,15,260,23,8*63
$GLGSV,2,1,05,76,37,257,41,71,33,138,46,87,18,288,17,75,10,202,48,1*7D
$GLGSV,2,2,05,69,04,018,18,1*46
$GAGSV,3,1,09,34,71,334,19,30,55,252,33,36,35,057,15,15,31,266,28,7*78
$GAGSV,3,2,09,02,29,183,46,27,25,314,17,09,18,070,16,05,16,123,35,7*7C
$GAGSV,3,3,09,04,01,026,,7*4B
$GAGSV,2,1,05,34,71,334,16,30,55,252,38,15,31,266,30,02,29,183,47,1*7B
$GAGSV,2,2,05,05,16,123,43,1*45
$GBGSV,3,1,11,34,71,034,28,11,63,325,17,21,48,103,50,12,46,076,26,1*73
$GBGSV,3,2,11,43,43,300,,42,28,166,50,44,25,092,27,22,22,045,,1*74
$GBGSV,3,3,11,25,19,230,48,14,09,184,51,37,03,329,20,1*4C
$GBGSV,2,1,06,34,71,034,18,21,48,103,45,42,28,166,43,44,25,092,21,5*71
$GBGSV,2,2,06,23,23,282,16,25,19,230,39,5*7F
$GNGGA,223416.000,4000.587010,N,10514.620896,W,2,36,0.60,1602.430,M,-20.635,M,,*70
$GPGSV,4,1,14,05,71,156,40,20,59,060,,25,50,233,42,29,49,314,22,1*6F
$GPGSV,4,2,14,12,39,191,50,46,37,214,48,11,36,058,22,18,15,260,39,1*64
$GPGSV,4,3,14,13,05,136,43,15,04,168,48,06,02,069,,09,02,031,,1*63
$GPGSV,4,4,14,31,01,310,,28,01,284,,1*65
$GPGSV,1,1,02,25,50,233,40,18,15,260,23,8*63
$GLGSV,2,1,06,76,36,255,40,71,33,138,47,87,18,288,19,75,08,201,49,1*78
$GLGSV,2,2,06,69,04,018,17,72,01,173,,1*7B
$GAGSV,2,1,08,34,71,334,21,30,55,252,33,15,31,266,29,02,29,183,46,7*76
$GAGSV,2,2,08,27,25,314,21,09,18,070,16,05,16,123,35,04,01,026,,7*79
$GAGSV,2,1,05,34,71,334,16,30,55,252,38,15,31,266,31,02,29,183,47,1*7A
$GAGSV,2,2,05,05,16,123,43,1*45
$GBGSV,3,1,12,34,71,034,24,11,63,325,25,21,48,103,50,12,46,076,27,1*7C
$GBGSV,3,2,12,43,43,300,27,42,28,166,50,44,25,092,30,23,23,282,19,1*75
$GBGSV,3,3,12,22,22,045,,25,19,230,48,14,09,184,50,37,03,329,22,1*7D
$GBGSV,2,1,06,34,71,034,19,21,48,103,45,42,28,166,43,44,25,092,22,5*73
$GBGSV,2,2,06,23,23,282,17,25,19,230,40,5*70
$GNGGA,223421.000,4000.587148,N,10514.620914,W,2,35,0.56,1602.231,M,-20.635,M,,*72
$GPGSV,4,1,14,05,71,156,40,20,59,060,22,25,50,233,43,29,49,314,18,1*67
$GPGSV,4,2,14,12,39,191,50,46,37,214,48,11,36,058,,18,15,260,39,1*64
$GPGSV,4,3,14,13,05,136,41,15,04,168,48,06,02,069,,09,02,031,,1*61
$GPGSV,4,4,14,31,01,310,,28,01,284,,1*65
$GPGSV,1,1,03,25,50,233,40,11,36,058,17,18,15,260,23,8*5C
$GLGSV,2,1,07,76,36,255,40,71,33,138,47,77,27,310,,87,18,288,18,1*7B
$GLGSV,2,2,07,75,08,201,49,69,04,018,23,72,01,173,,1*49
$GAGSV,3,1,09,34,71,334,,30,55,252,36,36,35,057,17,15,31,266,31,7*7F
$GAGSV,3,2,09,02,29,183,47,27,25,314,23,09,18,070,28,05,16,123,35,7*77
$GAGSV,3,3,09,04,01,026,,7*4B
$GAGSV,2,1,05,34,71,334,15,30,55,252,38,15,31,266,31,02,29,183,47,1*79
$GAGSV,2,2,05,05,16,123,43,1*45
$GBGSV,3,1,11,34,71,034,21,11,63,325,26,21,48,103,50,12,46,076,27,1*79
$GBGSV,3,2,11,42,28,166,50,44,25,092,32,23,23,282,28,22,22,045,24,1*77
$GBGSV,3,3,11,25,19,230,48,14,09,184,50,37,03,329,20,1*4D
$GBGSV,2,1,06,34,71,034,18,21,48,103,45,42,28,166,43,44,25,092,24,5*74
$GBGSV,2,2,06,23,23,282,20,25,19,230,41,5*75
$GNGGA,223426.000,4000.587292,N,10514.620824,W,2,34,0.57,1601.739,M,-20.635,M,,*7D
$GPGSV,4,1,14,05,71,156,39,20,59,060,25,25,50,233,42,29,49,314,,1*66
$GPGSV,4,2,14,12,39,191,50,46,37,214,48,11,36,058,,18,15,260,39,1*64
$GPGSV,4,3,14,13,05,136,42,15,04,168,47,06,02,069,,09,02,031,,1*6D
$GPGSV,4,4,14,31,01,310,,28,01,284,,1*65
$GPGSV,1,1,03,25,50,233,40,11,36,058,17,18,15,260,25,8*5A
$GLGSV,2,1,05,76,36,255,38,71,33,138,47,87,18,288,20,75,08,201,48,1*7F
$GLGSV,2,2,05,69,04,018,17,1*49
$GAGSV,2,1,08,34,71,334,,30,55,252,35,36,35,057,17,15,31,266,30,7*7D
$GAGSV,2,2,08,02,29,183,47,27,25,314,23,09,18,070,25,05,16,123,35,7*7A
$GAGSV,1,1,04,30,55,252,38,15,31,266,31,02,29,183,47,05,16,123,43,1*7F
$GBGSV,3,1,12,34,71,034,24,11,63,325,24,21,48,103,49,12,46,076,27,1*75
$GBGSV,3,2,12,43,43,300,,42,28,166,50,44,25,092,34,23,23,282,18,1*75
$GBGSV,3,3,12,22,22,045,19,25,19,230,48,14,09,184,50,37,03,329,17,1*73
$GBGSV,2,1,06,34,71,034,18,21,48,103,45,42,28,166,43,44,25,092,26,5*76
$GBGSV,2,2,06,23,23,282,21,25,19,230,41,5*74
$GNGGA,223431.000,4000.587328,N,10514.620740,W,2,34,0.58,1601.633,M,-20.634,M,,*73
$GPGSV,4,1,14,05,71,156,40,20,59,060,14,25,50,233,41,29,49,314,,1*69
$GPGSV,4,2,14,12,39,191,50,46,37,214,48,11,36,058,21,18,15,260,43,1*6A
$GPGSV,4,3,14,13,05,136,44,15,04,168,47,09,02,031,,06,02,069,,1*6B
$GPGSV,4,4,14,28,01,284,,31,01,310,,1*65
$GPGSV,1,1,02,25,50,233,40,18,15,260,22,8*62
$GLGSV,2,1,05,76,36,255,36,71,33,138,47,87,18,289,23,75,08,201,47,1*7C
$GLGSV,2,2,05,69,04,018,17,1*49
$GAGSV,3,1,09,34,71,334,21,30,55,252,35,36,35,057,15,15,31,266,33,7*7F
$GAGSV,3,2,09,02,29,183,47,27,25,314,21,09,18,070,26,05,16,123,34,7*7A
$GAGSV,3,3,09,04,01,026,,7*4B
$GAGSV,2,1,05,30,55,252,37,15,31,266,27,02,29,183,46,09,18,070,20,1*74
$GAGSV,2,2,05,05,16,123,43,1*45
$GBGSV,3,1,12,34,71,034,,11,63,325,,21,48,103,49,12,46,076,27,1*75
$GBGSV,3,2,12,42,28,166,50,44,25,092,35,23,23,282,,22,22,045,18,1*76
$GBGSV,3,3,12,25,19,230,48,14,09,184,50,37,03,329,,31,,,28,1*44
$GBGSV,2,1,06,34,71,034,18,21,48,103,45,42,28,166,43,44,25,092,26,5*76
$GBGSV,2,2,06,23,23,282,21,25,19,230,41,5*74
$GNGGA,223436.000,4000.587088,N,10514.620878,W,2,38,0.56,1602.561,M,-20.634,M,,*7C
$GPGSV,4,1,14,05,71,156,41,20,59,060,24,25,50,233,40,29,49,314,15,1*6E
$GPGSV,4,2,14,12,39,191,50,46,37,214,48,11,36,058,24,18,15,260,44,1*68
$GPGSV,4,3,14,13,05,136,47,15,04,168,47,09,02,031,,06,02,069,,1*68
$GPGSV,4,4,14,28,01,284,,31,01,310,,1*65
$GPGSV,1,1,03,25,50,233,40,11,36,058,20,18,15,260,29,8*52
$GLGSV,2,1,05,76,36,255,37,71,33,138,48,87,18,289,23,75,08,201,45,1*70
$GLGSV,2,2,05,69,04,018,17,1*49
$GAGSV,3,1,09,34,71,334,16,30,55,252,34,36,35,057,14,15,31,266,33,7*7B
$GAGSV,3,2,09,02,29,183,48,27,25,314,21,09,18,070,26,05,16,123,35,7*74
$GAGSV,3,3,09,04,01,026,,7*4B
$GAGSV,2,1,05,30,55,252,37,15,31,266,27,02,29,183,46,09,18,070,20,1*74
$GAGSV,2,2,05,05,16,123,43,1*45
$GBGSV,3,1,11,34,71,034,18,11,63,325,20,21,48,103,49,12,46,076,26,1*7C
