$PAIR001,062,0*3F
$PAIR001,062,0*3F
$PAIR001,062,0*3F
$PAIR001,062,0*3F
$PAIR001,062,0*3F
$PAIR001,062,0*3F
$PAIR001,062,0*3F
$PAIR001,062,0*3F
$PAIR001,062,0*3F
$GNGGA,163006.000,4000.586338,N,10514.620440,W,2,30,0.75,1606.573,M,-20.634,M,,*7C
$GPGSV,4,1,14,17,84,243,40,22,69,340,18,14,67,047,17,19,52,227,46,1*65
$GPGSV,4,2,14,30,50,158,47,46,37,214,50,13,34,253,35,07,19,147,45,1*61
$GPGSV,4,3,14,15,17,284,16,21,17,042,28,24,09,318,19,06,09,179,41,1*6C
$GPGSV,4,4,14,26,,,20,05,,,21,1*61
$GPGSV,1,1,03,14,67,047,20,30,50,158,50,06,09,179,48,8*58
$GLGSV,2,1,07,74,63,359,,84,63,149,30,73,49,092,37,83,35,036,,1*7D
$GLGSV,2,2,07,75,18,312,18,85,15,192,46,72,08,257,43,1*46
$GAGSV,2,1,06,26,46,097,41,31,46,300,15,33,30,159,47,04,24,228,47,7*78
$GAGSV,2,2,06,21,20,088,20,13,19,041,15,7*7D
$GAGSV,1,1,04,26,46,097,42,33,30,159,42,04,24,228,43,21,20,088,19,1*73
$GBGSV,3,1,10,45,65,318,18,29,64,180,49,36,56,114,41,30,48,055,20,1*73
$GBGSV,3,2,10,57,26,217,,46,08,122,41,13,,,19,49,,,19,1*75
$GBGSV,3,3,10,52,,,18,16,,,18,1*77
$GBGSV,1,1,03,29,64,180,47,36,56,114,47,46,08,122,40,5*4C
$GNGGA,163011.000,4000.586752,N,10514.620404,W,2,31,0.75,1606.332,M,-20.635,M,,*71
$GPGSV,4,1,13,17,84,243,40,22,69,340,,14,67,047,25,19,52,227,46,1*6A
$GPGSV,4,2,13,30,50,158,47,46,37,214,50,13,34,253,36,07,19,147,43,1*63
$GPGSV,4,3,13,15,17,284,23,21,17,042,27,06,09,179,42,24,09,318,19,1*61
$GPGSV,4,4,13,26,,,19,1*6A
$GPGSV,1,1,04,14,67,047,20,30,50,158,49,06,09,179,48,24,09,318,17,8*64
$GLGSV,2,1,06,84,63,149,30,73,49,094,37,75,19,313,20,85,15,192,46,1*73
$GLGSV,2,2,06,72,08,257,43,80,01,116,,1*7B
$GAGSV,2,1,06,31,46,300,15,26,46,097,40,33,30,159,47,04,24,228,47,7*79
$GAGSV,2,2,06,21,20,088,21,13,19,041,15,7*7C
$GAGSV,1,1,04,26,46,097,43,33,30,159,41,04,24,228,42,21,20,088,21,1*7B
$GBGSV,4,1,13,45,65,318,17,29,64,180,49,36,56,114,41,30,48,055,20,1*78
$GBGSV,4,2,13,26,11,306,,46,08,122,42,27,02,038,,21,01,266,,1*72
$GBGSV,4,3,13,42,01,311,,49,,,19,52,,,18,13,,,19,1*46
$GBGSV,4,4,13,16,,,19,1*7B
$GBGSV,1,1,04,29,64,180,47,36,56,114,47,30,48,055,17,46,08,122,40,5*72
$GNGGA,163016.000,4000.587052,N,10514.620272,W,2,31,0.75,1606.213,M,-20.635,M,,*75
$GPGSV,3,1,12,17,84,243,39,22,69,340,,14,67,047,25,19,52,227,46,1*62
$GPGSV,3,2,12,30,50,158,46,46,37,214,50,13,34,253,36,07,19,147,43,1*64
$GPGSV,3,3,12,21,17,042,27,15,17,284,28,06,09,179,43,24,09,318,20,1*67
$GPGSV,1,1,04,14,67,047,20,30,50,158,49,06,09,179,48,24,09,318,17,8*64
$GLGSV,2,1,05,84,63,149,30,73,49,094,36,75,19,313,17,85,15,192,46,1*75
$GLGSV,2,2,05,72,08,257,45,1*41
$GAGSV,2,1,05,26,46,097,38,31,46,300,24,33,30,159,47,04,24,228,47,7*77
$GAGSV,2,2,05,21,20,088,24,7*41
$GAGSV,1,1,04,26,46,097,42,33,30,159,40,04,24,228,42,21,20,088,21,1*7B
$GBGSV,3,1,12,45,65,318,18,29,64,180,49,36,56,114,40,30,48,055,17,1*74
$GBGSV,3,2,12,26,11,306,22,46,08,122,41,42,01,311,,21,01,266,,1*7F
$GBGSV,3,3,12,13,,,19,49,,,20,52,,,19,16,,,19,1*70
$GBGSV,1,1,04,29,64,180,47,36,56,114,47,30,48,055,16,46,08,122,40,5*73
$PAIR010,0,0,2309,405036*37
$PAIR010,0,1,2309,405036*36
$GNGGA,163021.000,4000.587424,N,10514.620308,W,2,30,0.75,1606.060,M,-20.635,M,,*7F
$GPGSV,3,1,12,17,84,243,39,22,69,340,23,14,67,047,27,19,52,227,47,1*60
$GPGSV,3,2,12,30,50,158,46,46,37,214,50,13,34,253,35,07,19,147,44,1*60
$GPGSV,3,3,12,21,17,042,28,15,17,284,18,24,09,318,19,06,09,179,44,1*66
$GPGSV,1,1,04,14,67,047,21,30,50,158,50,06,09,179,46,24,09,318,16,8*62
$GLGSV,2,1,05,84,65,147,29,73,49,094,38,75,19,313,18,85,16,192,45,1*74
$GLGSV,2,2,05,72,08,257,44,1*40
$GAGSV,2,1,05,26,46,097,38,31,46,300,13,33,30,159,47,04,24,228,46,7*72
$GAGSV,2,2,05,21,20,088,25,7*40
$GAGSV,1,1,04,26,46,097,42,33,30,159,40,04,24,228,42,21,20,088,20,1*7A
$GBGSV,3,1,10,45,65,318,18,29,64,180,49,36,56,114,39,30,48,055,,1*7E
$GBGSV,3,2,10,26,11,306,,46,08,122,40,13,,,18,49,,,19,1*76
$GBGSV,3,3,10,52,,,19,16,,,20,1*7D
$GBGSV,1,1,04,29,64,180,47,36,56,114,47,30,48,055,17,46,08,122,38,5*7D
$GNGGA,163026.000,4000.587802,N,10514.620470,W,2,31,0.65,1605.886,M,-20.635,M,,*7B
$GPGSV,3,1,12,17,84,243,39,22,69,340,25,14,67,047,20,19,52,227,47,1*61
$GPGSV,3,2,12,30,50,158,46,46,37,214,50,13,34,253,36,07,19,147,44,1*63
$GPGSV,3,3,12,15,17,284,29,21,17,042,28,06,09,179,44,24,09,318,20,1*6E
$GPGSV,1,1,04,14,67,047,21,30,50,158,50,06,09,179,44,24,09,318,17,8*61
$GLGSV,2,1,05,84,65,147,31,73,49,094,38,75,19,313,18,85,16,192,45,1*7D
$GLGSV,2,2,05,72,08,257,43,1*47
$GAGSV,2,1,05,26,46,097,39,31,46,300,12,33,30,159,47,04,24,228,45,7*71
$GAGSV,2,2,05,21,20,088,25,7*40
$GAGSV,1,1,04,26,46,097,42,33,30,159,40,04,24,228,41,21,20,088,19,1*73
$GBGSV,2,1,08,45,65,318,18,29,64,180,49,36,56,114,40,30,48,055,,1*78
$GBGSV,2,2,08,46,08,122,39,52,,,18,49,,,20,16,,,20,1*4B
$GBGSV,1,1,04,29,64,180,48,36,56,114,47,30,48,055,17,46,08,122,39,5*73
$GNGGA,163031.000,4000.587826,N,10514.620458,W,2,30,0.71,1605.744,M,-20.635,M,,*74
$GPGSV,3,1,12,17,84,243,39,22,69,340,25,14,67,047,,19,52,227,47,1*63
$GPGSV,3,2,12,30,50,158,46,46,37,214,50,13,34,253,33,07,19,147,43,1*61
$GPGSV,3,3,12,21,17,042,23,15,17,284,18,24,09,318,20,06,09,179,46,1*65
$GPGSV,1,1,04,14,67,047,21,30,50,158,50,06,09,179,43,24,09,318,17,8*66
$GLGSV,2,1,05,84,65,147,30,73,49,094,38,75,19,313,23,85,16,192,44,1*75
$GLGSV,2,2,05,72,08,257,45,1*41
$GAGSV,1,1,04,26,46,097,39,33,30,159,47,04,24,228,45,21,20,088,25,7*75
$GAGSV,1,1,04,26,46,097,42,33,30,159,40,04,24,228,40,21,20,088,18,1*73
$GBGSV,3,1,09,45,65,318,19,29,64,180,49,36,56,114,42,30,48,055,24,1*7D
$GBGSV,3,2,09,26,11,306,23,46,08,122,40,52,,,18,49,,,20,1*70
$GBGSV,3,3,09,16,,,20,1*7A
$GBGSV,1,1,04,29,64,180,48,36,56,114,47,30,48,055,17,46,08,122,39,5*73
$GNGGA,163036.000,4000.587898,N,10514.620362,W,2,31,0.75,1605.946,M,-20.635,M,,*71
$GPGSV,3,1,12,17,84,243,38,22,69,340,21,14,67,047,17,19,52,227,47,1*60
$GPGSV,3,2,12,30,50,158,46,46,37,214,50,13,34,253,34,07,19,147,43,1*66
$GPGSV,3,3,12,15,17,284,30,21,17,042,,24,09,318,20,06,09,179,47,1*6F
$GPGSV,1,1,04,14,67,047,21,30,50,158,50,06,09,179,42,24,09,318,17,8*67
$GLGSV,2,1,05,84,65,147,30,73,49,094,35,75,19,313,25,85,16,192,45,1*7F
$GLGSV,2,2,05,72,08,257,46,1*42
$GAGSV,2,1,06,26,46,097,40,31,46,300,20,33,30,159,47,04,24,228,45,7*7D
$GAGSV,2,2,06,21,20,088,25,13,19,041,,7*7C
$GAGSV,1,1,04,26,46,097,41,33,30,159,38,04,24,228,39,21,20,088,18,1*71
$GBGSV,3,1,11,45,65,318,19,29,64,180,49,36,56,114,43,30,48,055,23,1*72
$GBGSV,3,2,11,57,26,217,,26,11,306,22,46,08,122,39,27,02,038,,1*79
$GBGSV,3,3,11,52,,,19,49,,,20,16,,,20,1*73
$GBGSV,1,1,04,29,64,180,47,36,56,114,46,30,48,055,14,46,08,122,39,5*7E
$GNGGA,163041.000,4000.587940,N,10514.620194,W,2,31,0.66,1606.082,M,-20.635,M,,*7E
$GPGSV,3,1,12,17,84,243,38,22,69,340,25,14,67,047,19,19,52,227,47,1*6A
$GPGSV,3,2,12,30,50,158,46,46,37,214,50,13,34,253,36,07,19,147,43,1*64
$GPGSV,3,3,12,15,17,284,25,21,17,042,,24,09,318,21,06,09,179,47,1*6A
$GPGSV,1,1,04,14,67,047,22,30,50,158,50,06,09,179,43,24,09,318,17,8*65
$GLGSV,2,1,05,84,65,147,29,73,49,094,37,75,19,313,26,85,16,192,46,1*75
$GLGSV,2,2,05,72,08,257,45,1*41
$GAGSV,2,1,06,31,46,300,17,26,46,097,40,33,30,159,46,04,24,228,45,7*78
$GAGSV,2,2,06,21,20,088,25,13,19,041,17,7*7A
$GAGSV,1,1,04,26,46,097,41,33,30,159,39,04,24,228,40,21,20,088,19,1*7F
$GBGSV,3,1,10,45,65,318,18,29,64,180,48,36,56,114,43,30,48,055,24,1*74
$GBGSV,3,2,10,26,11,306,22,46,08,122,38,27,02,038,19,52,,,18,1*4D
$GBGSV,3,3,10,49,,,19,16,,,19,1*7D
$GBGSV,1,1,03,29,64,180,47,36,56,114,46,46,08,122,40,5*4D
$GNGGA,163046.000,4000.588042,N,10514.620188,W,2,31,0.62,1606.358,M,-20.634,M,,*71
$GPGSV,4,1,13,17,84,243,38,22,69,340,20,14,67,047,17,19,52,227,47,1*67
$GPGSV,4,2,13,30,50,158,47,46,37,214,50,13,34,253,35,02,29,053,24,1*63
$GPGSV,4,3,13,07,19,147,44,15,17,284,,21,17,042,25,06,09,179,47,1*67
$GPGSV,4,4,13,24,09,318,21,1*50
$GPGSV,1,1,04,14,67,047,22,30,50,158,50,06,09,179,43,24,09,318,17,8*65
$GLGSV,2,1,05,84,65,147,29,73,49,094,41,75,19,313,19,85,16,192,48,1*76
$GLGSV,2,2,05,72,08,257,45,1*41
$GAGSV,2,1,06,31,46,300,19,26,46,097,39,33,30,159,46,04,24,228,45,7*78
$GAGSV,2,2,06,21,20,088,25,13,19,041,17,7*7A
$GAGSV,1,1,04,26,46,097,41,33,30,159,38,04,24,228,40,21,20,088,20,1*74
$GBGSV,3,1,10,45,65,318,18,29,64,180,48,36,56,114,44,30,48,055,26,1*71
$GBGSV,3,2,10,57,26,217,,46,08,122,36,27,02,038,19,52,,,18,1*40
$GBGSV,3,3,10,49,,,19,16,,,19,1*7D
$GBGSV,1,1,03,29,64,180,47,36,56,114,46,46,08,122,40,5*4D
$GNGGA,163051.000,4000.588126,N,10514.620254,W,2,31,0.62,1606.746,M,-20.634,M,,*7D
$GPGSV,4,1,13,17,84,243,39,22,69,340,18,14,67,047,16,19,52,227,47,1*6C
$GPGSV,4,2,13,30,50,158,47,46,37,214,50,13,34,253,37,02,29,053,20,1*65
$GPGSV,4,3,13,07,19,147,44,15,17,284,,21,17,042,27,06,09,179,48,1*6A
$GPGSV,4,4,13,24,09,318,,1*53
$GPGSV,1,1,04,14,67,047,22,30,50,158,50,06,09,179,41,24,09,318,18,8*68
$GLGSV,2,1,05,84,65,147,28,73,49,094,41,75,19,313,22,85,16,192,49,1*7E
$GLGSV,2,2,05,72,08,257,45,1*41
$GAGSV,2,1,06,31,46,300,16,26,46,097,39,33,30,159,46,04,24,228,45,7*77
$GAGSV,2,2,06,21,20,088,26,13,19,041,17,7*79
$GAGSV,1,1,04,26,46,097,41,33,30,159,38,04,24,228,40,21,20,088,19,1*7E
$GBGSV,3,1,11,29,65,179,48,45,65,318,18,36,56,114,44,30,48,055,26,1*77
$GBGSV,3,2,11,57,26,217,,26,12,307,22,46,08,122,37,27,02,038,19,1*7D
$GBGSV,3,3,11,52,,,18,49,,,19,16,,,21,1*79
$GBGSV,1,1,03,29,65,179,47,36,56,114,46,46,08,122,39,5*44
$GNGGA,163056.000,4000.588324,N,10514.620236,W,2,31,0.62,1606.820,M,-20.635,M,,*70
$GPGSV,4,1,14,17,84,243,36,22,69,340,22,14,67,047,19,19,52,227,47,1*62
$GPGSV,4,2,14,30,50,158,47,46,37,214,50,13,34,253,38,02,29,053,17,1*69
$GPGSV,4,3,14,07,19,147,46,15,17,284,,21,17,042,27,06,09,179,48,1*6F
$GPGSV,4,4,14,24,09,318,18,11,,,24,1*5B
$GPGSV,1,1,04,14,67,047,22,30,50,158,50,06,09,179,42,24,09,318,17,8*64
$GLGSV,2,1,05,84,65,147,29,73,49,094,41,75,19,313,17,85,16,192,49,1*79
$GLGSV,2,2,05,72,08,257,42,1*46
$GAGSV,2,1,06,26,46,097,39,31,46,300,,33,30,159,46,04,24,228,44,7*71
$GAGSV,2,2,06,21,20,088,27,13,19,041,,7*7E
$GAGSV,1,1,04,26,46,097,41,33,30,159,41,04,24,228,39,21,20,088,21,1*75
$GBGSV,3,1,12,29,65,179,48,45,65,318,19,36,56,114,46,30,47,055,25,1*7B
$GBGSV,3,2,12,57,26,217,,26,12,307,20,46,08,122,38,27,02,038,19,1*73
$GBGSV,3,3,12,42,01,311,,52,,,18,49,,,19,16,,,20,1*4F
$GBGSV,1,1,03,29,65,179,47,36,56,114,46,46,08,122,38,5*45
$GNGGA,163101.000,4000.588714,N,10514.620404,W,2,31,0.62,1606.937,M,-20.635,M,,*74
$GPGSV,4,1,13,17,84,243,38,22,69,340,23,14,67,047,17,19,52,227,47,1*64
$GPGSV,4,2,13,30,50,158,47,46,37,214,50,13,34,253,41,02,29,053,21,1*65
$GPGSV,4,3,13,07,19,147,47,15,17,284,,21,17,042,26,06,09,179,49,1*69
$GPGSV,4,4,13,24,09,318,18,1*5A
$GPGSV,1,1,04,14,67,047,22,30,50,158,50,06,09,179,43,24,09,318,17,8*65
$GLGSV,2,1,05,84,65,147,29,73,49,094,40,75,19,313,20,85,16,192,49,1*7C
$GLGSV,2,2,05,72,08,257,42,1*46
$GAGSV,2,1,06,31,46,300,28,26,46,097,39,33,30,159,46,04,24,228,44,7*7B
$GAGSV,2,2,06,21,20,088,23,13,19,041,,7*7A
$GAGSV,1,1,04,26,46,097,41,33,30,159,41,04,24,228,39,21,20,088,18,1*7F
$GBGSV,3,1,11,29,65,179,48,45,65,318,19,36,56,116,46,30,47,055,28,1*77
$GBGSV,3,2,11,57,26,217,,46,08,122,38,27,02,038,19,42,01,311,,1*75
$GBGSV,3,3,11,52,,,19,49,,,20,16,,,20,1*73
$GBGSV,1,1,03,29,65,179,47,36,56,116,46,46,08,122,38,5*47
$GNGGA,163106.000,4000.589092,N,10514.620392,W,2,31,0.61,1607.172,M,-20.634,M,,*79
$GPGSV,4,1,14,17,84,243,37,22,69,340,17,14,67,047,19,19,52,227,47,1*65
$GPGSV,4,2,14,30,50,158,47,46,37,214,50,13,34,253,41,02,29,053,26,1*65
$GPGSV,4,3,14,07,19,147,47,21,17,042,24,15,17,284,32,06,09,179,49,1*6D
$GPGSV,4,4,14,24,09,318,,08,,,24,1*5A
$GPGSV,1,1,04,14,67,047,22,30,50,158,50,06,09,179,42,24,09,318,17,8*64
$GLGSV,2,1,05,84,65,147,27,73,49,094,38,75,19,313,22,85,16,192,49,1*7F
$GLGSV,2,2,05,72,08,257,43,1*47
$GAGSV,2,1,05,31,46,300,22,26,46,097,39,33,30,159,45,04,24,228,44,7*71
$GAGSV,2,2,05,21,20,088,20,7*45
$GAGSV,1,1,04,26,46,097,41,33,30,159,41,04,24,228,40,21,20,088,17,1*7E
$GBGSV,3,1,09,45,65,318,18,29,65,179,47,36,56,116,47,30,47,055,,1*7B
$GBGSV,3,2,09,46,08,122,39,27,02,038,18,52,,,19,49,,,20,1*7A
$GBGSV,3,3,09,16,,,20,1*7A
$GBGSV,1,1,03,29,65,179,47,36,56,116,46,46,08,122,38,5*47
$GNGGA,163111.000,4000.589410,N,10514.620296,W,2,30,0.63,1607.479,M,-20.635,M,,*78
$GPGSV,4,1,13,17,84,243,38,22,69,340,20,14,67,047,27,19,52,227,47,1*64
$GPGSV,4,2,13,30,50,158,47,46,37,214,50,13,34,253,39,02,29,053,22,1*69
$GPGSV,4,3,13,07,19,147,47,15,17,284,27,21,17,042,26,06,09,179,49,1*6C
$GPGSV,4,4,13,24,09,318,,1*53
$GPGSV,1,1,04,14,67,047,22,30,50,158,50,06,09,179,42,24,09,318,16,8*65
$GLGSV,2,1,05,84,65,147,26,73,49,094,39,75,19,313,21,85,16,192,49,1*7C
$GLGSV,2,2,05,72,08,257,43,1*47
$GAGSV,2,1,05,31,46,300,19,26,46,097,40,33,30,159,45,04,24,228,42,7*71
$GAGSV,2,2,05,21,20,088,18,7*4E
$GAGSV,1,1,04,26,46,097,41,33,30,159,42,04,24,228,40,21,20,088,17,1*7D
$GBGSV,3,1,09,45,66,318,18,29,65,179,46,36,56,116,47,30,47,055,,1*79
$GBGSV,3,2,09,46,07,122,40,27,02,038,17,52,,,19,49,,,20,1*74
$GBGSV,3,3,09,16,,,19,1*70
$GBGSV,1,1,03,29,65,179,47,36,56,116,46,46,07,122,38,5*48
$GNGGA,163116.000,4000.589734,N,10514.620398,W,2,31,0.62,1607.714,M,-20.635,M,,*7D
$GPGSV,4,1,13,17,84,243,35,22,69,340,16,14,67,047,19,19,52,227,46,1*60
$GPGSV,4,2,13,30,50,158,47,46,37,214,50,13,34,253,40,02,29,053,18,1*6E
$GPGSV,4,3,13,07,19,147,48,15,17,284,17,21,17,042,26,06,09,179,50,1*68
$GPGSV,4,4,13,24,09,318,,1*53
$GPGSV,1,1,03,14,67,047,22,30,50,158,50,06,09,179,40,8*52
$GLGSV,2,1,05,84,65,147,25,73,49,094,41,75,19,313,20,85,16,192,48,1*70
$GLGSV,2,2,05,72,08,257,43,1*47
$GAGSV,2,1,06,26,46,097,40,31,46,300,17,33,30,159,45,04,24,228,41,7*7F
$GAGSV,2,2,06,21,20,088,18,13,19,041,,7*72
$GAGSV,2,1,05,26,46,097,42,31,46,300,16,33,30,159,42,04,24,228,41,1*7E
$GAGSV,2,2,05,21,20,088,24,1*47
$GBGSV,3,1,11,45,66,318,18,29,65,179,46,36,56,116,46,30,47,055,20,1*73
$GBGSV,3,2,11,57,26,217,,26,12,307,21,46,07,122,42,27,02,038,16,1*7C
$GBGSV,3,3,11,52,,,19,49,,,21,16,,,20,1*72
$GBGSV,1,1,03,29,65,179,47,36,56,116,46,46,07,122,38,5*48
$PAIR010,0,0,2309,405096*3D
$PAIR010,0,1,2309,405096*3C
$GNGGA,163121.000,4000.589812,N,10514.620488,W,2,30,0.63,1608.046,M,-20.635,M,,*7B
$GPGSV,4,1,13,17,84,243,35,22,69,340,16,14,67,047,24,19,52,227,45,1*6D
$GPGSV,4,2,13,30,50,158,47,46,37,214,50,13,34,253,42,02,29,053,19,1*6D
$GPGSV,4,3,13,07,19,147,48,15,17,284,25,21,17,042,27,06,09,179,50,1*68
$GPGSV,4,4,13,24,09,318,,1*53
$GPGSV,1,1,04,14,67,047,22,30,50,158,50,06,09,179,37,24,09,318,14,8*65
$GLGSV,2,1,05,84,65,147,27,73,49,094,41,75,19,313,16,85,16,192,49,1*76
$GLGSV,2,2,05,72,08,257,44,1*40
$GAGSV,2,1,06,26,46,097,40,31,46,300,17,33,30,159,44,04,24,228,41,7*7E
$GAGSV,2,2,06,21,20,088,15,13,19,041,,7*7F
$GAGSV,2,1,05,26,46,097,42,31,46,300,15,33,30,159,42,04,24,228,41,1*7D
$GAGSV,2,2,05,21,20,088,26,1*45
$GBGSV,3,1,10,45,66,318,18,29,65,179,46,36,56,116,46,30,47,055,,1*70
$GBGSV,3,2,10,26,12,307,21,46,07,122,42,27,02,038,16,52,,,19,1*40
$GBGSV,3,3,10,49,,,20,16,,,20,1*7D
$GBGSV,1,1,03,29,65,179,47,36,56,116,46,46,07,122,38,5*48
$GNGGA,163126.000,4000.589812,N,10514.620494,W,2,29,0.63,1608.344,M,-20.635,M,,*78
$GPGSV,4,1,13,17,84,243,35,22,69,340,19,14,67,047,20,19,52,227,45,1*66
$GPGSV,4,2,13,30,50,158,47,46,37,214,50,13,34,253,42,02,29,053,23,1*64
$GPGSV,4,3,13,07,19,147,48,15,17,284,22,21,17,042,26,06,09,179,50,1*6E
$GPGSV,4,4,13,24,09,318,,1*53
$GPGSV,1,1,04,14,67,047,21,30,50,158,50,06,09,179,35,24,09,318,13,8*63
$GLGSV,2,1,05,84,65,147,28,73,49,094,41,75,19,313,24,85,16,192,48,1*79
$GLGSV,2,2,05,72,08,257,42,1*46
$GAGSV,2,1,05,31,46,300,15,26,46,097,40,33,30,159,44,04,24,228,40,7*7E
$GAGSV,2,2,05,21,20,088,,7*47
$GAGSV,2,1,05,26,46,097,41,31,46,300,16,33,30,159,41,04,24,228,42,1*7D
$GAGSV,2,2,05,21,20,088,27,1*44
$GBGSV,3,1,11,45,66,318,18,29,65,179,46,36,56,116,46,30,47,055,,1*71
$GBGSV,3,2,11,26,12,307,,46,07,122,40,27,02,038,15,55,,,22,1*4C
$GBGSV,3,3,11,49,,,20,52,,,20,16,,,19,1*73
$GBGSV,1,1,03,29,65,179,46,36,56,116,46,46,07,122,39,5*48
$GNGGA,163131.000,4000.589404,N,10514.620440,W,2,29,0.63,1608.923,M,-20.635,M,,*77
$GPGSV,4,1,13,17,84,243,34,22,69,340,17,14,67,047,18,19,52,227,44,1*63
$GPGSV,4,2,13,30,50,158,47,46,37,214,50,13,34,253,43,02,29,053,24,1*62
$GPGSV,4,3,13,07,19,147,48,15,17,284,,21,17,042,25,06,10,179,49,1*6D
$GPGSV,4,4,13,24,09,318,,1*53
$GPGSV,1,1,03,14,67,047,23,30,50,158,50,06,10,179,28,8*55
$GLGSV,2,1,05,84,65,147,26,73,49,094,40,75,19,313,23,85,16,192,49,1*70
$GLGSV,2,2,05,72,08,257,42,1*46
$GAGSV,2,1,05,31,46,300,21,26,46,097,39,33,30,159,43,04,24,228,42,7*72
$GAGSV,2,2,05,21,20,088,,7*47
$GAGSV,2,1,05,26,46,097,41,31,46,300,15,33,30,159,41,04,24,228,34,1*7F
$GAGSV,2,2,05,21,20,088,28,1*4B
$GBGSV,3,1,09,45,66,318,18,29,65,179,45,36,56,116,46,30,47,055,,1*7B
$GBGSV,3,2,09,46,07,122,38,27,02,038,15,52,,,19,49,,,20,1*79
$GBGSV,3,3,09,16,,,20,1*7A
$GBGSV,1,1,03,29,65,179,47,36,56,116,46,46,07,122,38,5*48
$GNGGA,163136.000,4000.588816,N,10514.620488,W,2,32,0.62,1609.939,M,-20.634,M,,*7A
$GPGSV,4,1,13,17,84,243,35,22,69,340,,14,67,047,21,19,52,227,44,1*6E
$GPGSV,4,2,13,30,50,158,47,46,37,214,50,13,34,253,41,02,29,053,,1*66
$GPGSV,4,3,13,07,18,148,48,15,17,284,,21,17,042,26,06,10,179,49,1*60
$GPGSV,4,4,13,24,09,318,,1*53
$GPGSV,1,1,03,14,67,047,23,30,50,158,50,06,10,179,35,8*59
$GLGSV,2,1,05,84,65,147,28,73,49,094,40,75,19,313,18,85,16,192,49,1*76
$GLGSV,2,2,05,72,08,257,44,1*40
$GAGSV,2,1,06,26,46,097,39,31,46,300,20,33,30,159,43,04,24,228,39,7*7C
$GAGSV,2,2,06,21,20,088,21,05,05,329,,7*7F
$GAGSV,1,1,04,26,46,097,41,33,30,159,41,04,24,228,38,21,20,088,28,1*7D
$GBGSV,3,1,10,45,66,318,18,29,65,179,45,36,56,116,46,30,47,055,21,1*70
$GBGSV,3,2,10,26,12,307,,46,07,122,39,27,02,038,16,52,,,19,1*4F
$GBGSV,3,3,10,49,,,20,16,,,20,1*7D
$GBGSV,1,1,04,29,65,179,47,36,56,116,46,30,47,055,17,46,07,122,37,5*76
$GNGGA,163141.000,4000.588654,N,10514.620350,W,2,32,0.62,1610.471,M,-20.635,M,,*78
$GPGSV,4,1,13,17,84,243,38,22,69,340,25,14,67,049,19,19,52,227,44,1*61
$GPGSV,4,2,13,30,50,158,47,46,37,214,50,13,33,252,42,02,29,053,28,1*69
$GPGSV,4,3,13,07,18,148,49,21,17,042,27,15,16,283,,06,10,179,49,1*66
$GPGSV,4,4,13,24,09,318,,1*53
$GPGSV,1,1,03,14,67,049,23,30,50,158,50,06,10,179,34,8*56
$GLGSV,2,1,05,84,65,147,29,73,49,094,41,75,19,313,13,85,16,192,50,1*75
$GLGSV,2,2,05,72,08,257,44,1*40
$GAGSV,2,1,07,26,46,097,39,31,46,300,19,33,30,159,43,04,24,228,39,7*77
$GAGSV,2,2,07,21,20,088,19,13,19,041,,05,05,329,,7*4A
$GAGSV,1,1,04,26,46,097,41,33,30,159,41,04,24,228,38,21,20,088,25,1*70
$GBGSV,3,1,10,45,66,318,19,29,65,179,45,36,56,116,45,30,47,055,24,1*77
$GBGSV,3,2,10,26,12,307,,46,07,122,41,27,02,038,15,52,,,20,1*49
$GBGSV,3,3,10,49,,,22,16,,,21,1*7E
$GBGSV,1,1,04,29,65,179,47,36,56,116,46,30,47,055,18,46,07,122,38,5*76
$GNGGA,163146.000,4000.588462,N,10514.620296,W,2,30,0.62,1610.516,M,-20.634,M,,*70
$GPGSV,4,1,13,17,85,251,37,22,69,340,26,14,67,049,20,19,53,228,44,1*6B
$GPGSV,4,2,13,30,50,158,47,46,37,214,50,13,33,252,43,02,29,053,29,1*69
$GPGSV,4,3,13,07,18,148,49,15,16,283,,21,16,041,28,06,10,179,48,1*6A
$GPGSV,4,4,13,24,09,318,,1*53
$GPGSV,1,1,03,14,67,049,23,30,50,158,50,06,10,179,36,8*54
$GLGSV,2,1,05,84,65,147,30,73,49,094,41,75,19,313,21,85,16,192,50,1*7C
$GLGSV,2,2,05,72,08,257,42,1*46
$GAGSV,2,1,07,26,46,097,39,31,46,300,23,33,30,159,43,04,24,228,39,7*7E
$GAGSV,2,2,07,21,20,088,21,13,19,041,22,05,05,329,,7*41
$GAGSV,1,1,04,26,46,097,41,33,30,159,41,04,24,228,37,21,20,088,26,1*7C
$GBGSV,3,1,10,45,66,318,20,29,65,179,44,36,56,116,46,30,47,055,,1*79
$GBGSV,3,2,10,26,12,307,,46,07,122,40,27,02,038,16,52,,,22,1*49
$GBGSV,3,3,10,49,,,22,16,,,23,1*7C
$GBGSV,1,1,04,29,65,179,47,36,56,116,45,30,47,055,18,46,07,122,37,5*7A
$GNGGA,163151.000,4000.588162,N,10514.620248,W,2,30,0.62,1610.309,M,-20.635,M,,*79
$GPGSV,4,1,14,17,85,251,36,22,69,343,20,14,67,049,20,19,53,228,44,1*68
$GPGSV,4,2,14,30,50,158,47,46,37,214,50,13,33,252,43,02,29,053,,1*65
$GPGSV,4,3,14,07,18,148,48,21,16,041,28,15,16,283,,06,10,179,47,1*63
$GPGSV,4,4,14,24,10,318,22,05,,,20,1*5B
$GPGSV,1,1,03,14,67,049,23,30,50,158,49,06,10,179,39,8*53
$GLGSV,2,1,05,84,65,147,29,73,49,094,42,75,19,313,15,85,16,192,50,1*70
$GLGSV,2,2,05,72,08,257,44,1*40
$GAGSV,2,1,06,31,46,300,23,26,46,097,40,33,30,159,43,04,24,228,39,7*71
$GAGSV,2,2,06,21,20,088,19,13,19,041,22,7*73
$GAGSV,1,1,04,26,46,097,40,33,30,159,42,04,24,228,36,21,20,088,27,1*7E
$GBGSV,3,1,11,45,66,318,20,29,65,179,44,36,56,116,46,30,47,055,,1*78
$GBGSV,3,2,11,57,26,216,,26,12,307,,46,07,122,39,27,02,038,16,1*72
$GBGSV,3,3,11,52,,,21,49,,,22,16,,,21,1*7B
$GBGSV,1,1,04,29,65,179,47,36,56,116,45,30,47,055,17,46,07,122,37,5*75
$GNGGA,163156.000,4000.587664,N,10514.620230,W,2,32,0.62,1610.346,M,-20.635,M,,*76
$GPGSV,4,1,13,17,85,251,38,22,69,343,17,14,67,049,24,19,53,228,44,1*61
$GPGSV,4,2,13,30,49,158,47,46,37,214,50,13,33,252,44,02,29,053,28,1*67
$GPGSV,4,3,13,07,18,148,48,15,16,283,,21,16,041,28,06,10,179,44,1*67
$GPGSV,4,4,13,24,10,318,23,1*5A
$GPGSV,1,1,03,14,67,049,23,30,49,158,49,06,10,179,38,8*5A
$GLGSV,2,1,05,84,65,147,29,73,49,094,42,75,19,313,18,85,16,192,51,1*7C
$GLGSV,2,2,05,72,08,257,44,1*40
$GAGSV,2,1,06,26,46,097,38,31,46,300,19,33,30,159,43,04,24,228,40,7*79
$GAGSV,2,2,06,21,20,088,21,13,19,041,21,7*7B
$GAGSV,1,1,04,26,46,097,40,33,30,159,42,04,24,228,35,21,20,088,28,1*72
$GBGSV,3,1,10,45,66,318,20,29,65,179,44,36,56,116,46,30,47,055,27,1*7C
$GBGSV,3,2,10,57,26,216,,26,12,307,,46,07,122,39,27,02,038,16,1*73
$GBGSV,3,3,10,49,,,22,52,,,21,1*7E
$GBGSV,1,1,04,29,65,179,47,36,56,116,46,30,47,055,17,46,07,122,37,5*76
$GNGGA,163201.000,4000.587358,N,10514.620494,W,2,31,0.62,1610.989,M,-20.635,M,,*7F
$GPGSV,4,1,13,17,85,251,36,22,69,343,15,14,67,049,19,19,53,228,44,1*63
$GPGSV,4,2,13,30,49,158,46,46,37,214,50,13,33,252,43,02,29,053,27,1*6E
$GPGSV,4,3,13,07,18,148,48,21,16,041,26,15,16,283,,06,10,179,42,1*6F
$GPGSV,4,4,13,24,10,318,23,1*5A
$GPGSV,1,1,03,14,67,049,23,30,49,158,49,06,10,179,41,8*54
$GLGSV,2,1,05,84,65,147,29,73,49,094,42,75,19,313,19,85,16,192,51,1*7D
$GLGSV,2,2,05,72,08,257,42,1*46
$GAGSV,2,1,06,26,46,097,38,31,46,300,19,33,30,159,44,04,24,228,40,7*7E
$GAGSV,2,2,06,21,20,088,20,13,19,041,21,7*7A
$GAGSV,1,1,04,26,46,097,39,33,30,159,40,04,24,228,35,21,20,088,20,1*76
$GBGSV,2,1,08,45,66,318,19,29,65,179,45,36,56,116,47,30,47,055,29,1*70
$GBGSV,2,2,08,46,07,122,39,27,02,038,16,49,,,21,52,,,21,1*71
$GBGSV,1,1,04,29,65,179,47,36,56,116,46,30,47,055,17,46,07,122,37,5*76
$GNGGA,163206.000,4000.587394,N,10514.620698,W,2,32,0.66,1610.739,M,-20.635,M,,*74
$GPGSV,4,1,13,17,85,251,36,22,69,343,13,14,67,049,14,19,53,228,44,1*68
$GPGSV,4,2,13,30,49,158,46,46,37,214,50,13,33,252,43,02,29,053,27,1*6E
$GPGSV,4,3,13,07,18,148,48,21,16,041,23,15,16,283,29,06,10,179,41,1*62
$GPGSV,4,4,13,24,10,318,23,1*5A
$GPGSV,1,1,03,14,67,049,24,30,49,158,49,06,10,179,43,8*51
$GLGSV,2,1,07,84,65,147,29,74,64,002,,73,49,094,41,83,34,035,,1*72
$GLGSV,2,2,07,75,19,313,22,85,16,192,51,72,08,257,38,1*46
$GAGSV,2,1,06,31,46,300,13,26,46,097,37,33,30,159,43,04,24,228,40,7*7C
$GAGSV,2,2,06,21,20,088,17,13,19,041,23,7*7C
$GAGSV,1,1,04,26,46,097,39,33,30,159,40,04,24,228,34,21,20,088,22,1*75
$GBGSV,2,1,08,45,66,318,20,29,65,179,46,36,56,116,48,30,47,055,30,1*7E
$GBGSV,2,2,08,46,07,122,38,27,02,038,16,49,,,22,52,,,19,1*78
$GBGSV,1,1,04,29,65,179,47,36,56,116,46,30,47,055,17,46,07,122,37,5*76
$GNGGA,163211.000,4000.587538,N,10514.620638,W,2,32,0.59,1610.309,M,-20.635,M,,*73
$GPGSV,4,1,13,17,85,251,36,22,69,343,16,14,67,049,20,19,53,228,44,1*6A
$GPGSV,4,2,13,30,49,158,46,46,37,214,50,13,33,252,43,02,29,053,28,1*61
$GPGSV,4,3,13,07,18,148,48,21,16,041,25,15,16,283,29,06,10,179,39,1*6B
$GPGSV,4,4,13,24,10,318,22,1*5B
$GPGSV,1,1,03,14,67,049,24,30,49,158,49,06,10,179,45,8*57
$GLGSV,2,1,05,84,65,147,29,73,49,094,40,75,19,313,17,85,16,192,51,1*71
$GLGSV,2,2,05,72,08,257,39,1*4A
$GAGSV,2,1,07,26,46,097,37,31,46,300,20,33,30,159,42,04,23,227,41,7*75
$GAGSV,2,2,07,21,20,088,15,13,19,041,21,05,05,329,,7*45
$GAGSV,2,1,05,26,46,097,39,31,46,300,17,33,30,159,39,04,23,227,35,1*74
$GAGSV,2,2,05,21,20,088,20,1*43
$GBGSV,3,1,10,45,66,318,21,29,65,179,45,36,56,116,48,30,47,055,27,1*72
$GBGSV,3,2,10,57,26,216,,26,12,307,,46,07,122,36,27,02,038,16,1*7C
$GBGSV,3,3,10,49,,,23,52,,,21,1*7F
$GBGSV,1,1,04,29,65,179,47,36,56,116,45,30,47,055,17,46,07,122,37,5*75
$GNGGA,163216.000,4000.587490,N,10514.620422,W,2,31,0.59,1610.022,M,-20.635,M,,*77
$GPGSV,4,1,13,17,85,251,36,22,69,343,22,14,67,049,24,19,53,228,44,1*69
$GPGSV,4,2,13,30,49,158,47,46,37,214,50,13,33,252,43,02,29,053,29,1*61
$GPGSV,4,3,13,07,18,148,48,15,16,283,19,21,16,041,25,06,10,179,39,1*68
$GPGSV,4,4,13,24,10,318,19,1*53
$GPGSV,1,1,04,14,67,049,24,30,49,158,49,06,10,179,44,24,10,318,17,8*6A
$GLGSV,2,1,05,84,65,147,29,73,49,094,41,75,19,313,20,85,16,192,51,1*74
$GLGSV,2,2,05,72,08,257,39,1*4A
$GAGSV,2,1,07,26,46,097,38,31,46,300,21,33,30,159,41,04,23,227,41,7*78
$GAGSV,2,2,07,21,20,088,17,13,19,041,21,05,05,329,20,7*45
$GAGSV,2,1,05,26,46,097,39,31,46,300,20,33,30,159,36,04,23,227,36,1*7C
$GAGSV,2,2,05,21,20,088,20,1*43
$GBGSV,3,1,10,45,66,318,21,29,65,179,44,36,56,116,48,30,47,055,,1*76
$GBGSV,3,2,10,26,12,307,,46,07,122,36,27,02,038,16,52,,,22,1*48
$GBGSV,3,3,10,49,,,23,54,,,28,1*70
$GBGSV,1,1,04,29,65,179,47,36,56,116,46,30,47,055,16,46,07,122,37,5*77
$PAIR010,0,0,2309,405156*30
$PAIR010,0,1,2309,405156*31
$GNGGA,163221.000,4000.587448,N,10514.620566,W,2,30,0.62,1609.803,M,-20.634,M,,*7C
$GPGSV,4,1,13,17,85,251,37,22,69,343,23,14,67,049,20,19,53,228,44,1*6D
$GPGSV,4,2,13,30,49,158,48,46,37,214,50,13,33,252,43,02,29,053,,1*65
$GPGSV,4,3,13,07,18,148,48,15,16,283,,21,16,041,25,06,10,179,39,1*60
$GPGSV,4,4,13,24,10,318,,1*5B
$GPGSV,1,1,04,14,67,049,25,30,49,158,49,06,10,179,44,24,10,318,17,8*6B
$GLGSV,2,1,05,84,65,147,29,73,49,094,42,75,19,313,17,85,16,192,51,1*73
$GLGSV,2,2,05,72,08,257,35,1*46
$GAGSV,2,1,07,26,46,097,38,31,46,300,19,33,30,159,41,04,23,227,40,7*72
$GAGSV,2,2,07,21,20,088,17,13,19,040,23,05,05,329,22,7*44
$GAGSV,2,1,05,26,46,097,39,31,46,300,17,33,30,159,36,04,23,227,38,1*76
$GAGSV,2,2,05,21,20,088,19,1*49
$GBGSV,3,1,10,45,66,318,21,29,65,179,44,36,56,116,48,30,47,055,,1*76
$GBGSV,3,2,10,26,12,307,,46,07,122,38,27,02,038,16,52,,,23,1*47
$GBGSV,3,3,10,49,,,24,58,,,27,1*74
$GBGSV,1,1,04,29,65,179,47,36,56,116,45,30,47,055,17,46,07,122,37,5*75
$GNGGA,163226.000,4000.587136,N,10514.620890,W,2,31,0.62,1609.945,M,-20.634,M,,*71
$GPGSV,4,1,13,17,85,251,37,22,69,343,17,14,67,049,26,19,53,228,45,1*6D
$GPGSV,4,2,13,30,49,158,48,46,37,214,50,13,33,252,44,02,29,053,,1*62
$GPGSV,4,3,13,07,18,148,49,15,16,283,,21,16,041,23,24,10,318,,1*68
$GPGSV,4,4,13,06,10,179,39,1*54
$GPGSV,1,1,04,14,67,049,24,30,49,158,49,06,10,179,45,24,10,318,17,8*6B
$GLGSV,2,1,06,84,65,147,29,73,49,094,43,83,34,035,,75,19,313,20,1*7B
$GLGSV,2,2,06,85,16,192,51,72,08,257,38,1*7C
$GAGSV,2,1,08,26,46,097,37,31,46,300,20,33,30,159,40,09,27,281,,7*78
$GAGSV,2,2,08,04,23,227,40,21,20,089,18,13,19,040,21,05,05,329,22,7*71
$GAGSV,2,1,05,26,46,097,39,31,46,300,17,33,30,159,37,04,23,227,37,1*78
$GAGSV,2,2,05,21,20,089,19,1*48
$GBGSV,3,1,12,45,66,318,21,29,65,179,45,36,56,116,48,30,47,055,30,1*76
$GBGSV,3,2,12,57,26,216,,26,12,307,22,46,07,122,35,27,02,038,16,1*7D
$GBGSV,3,3,12,58,,,26,54,,,26,49,,,24,52,,,23,1*74
$GBGSV,1,1,04,29,65,179,46,36,56,116,45,30,47,055,16,46,07,122,37,5*75
$GNGGA,163231.000,4000.586542,N,10514.620866,W,2,32,0.66,1609.977,M,-20.634,M,,*7E
$GPGSV,4,1,13,17,85,251,39,22,69,343,,14,67,049,21,19,53,228,45,1*62
$GPGSV,4,2,13,30,49,158,48,46,37,214,50,13,33,252,44,02,29,053,,1*62
$GPGSV,4,3,13,07,18,148,49,15,16,283,22,21,16,041,24,24,10,318,,1*6F
$GPGSV,4,4,13,06,10,179,43,1*59
$GPGSV,1,1,04,14,67,049,25,30,49,158,49,06,10,179,46,24,10,318,17,8*69
$GLGSV,2,1,05,84,65,147,26,73,49,094,42,75,19,313,21,85,16,192,51,1*79
$GLGSV,2,2,05,72,08,257,37,1*44
$GAGSV,3,1,09,31,46,300,13,26,46,095,37,33,30,159,41,09,27,281,,7*7B
$GAGSV,3,2,09,04,23,227,41,21,20,089,24,13,19,040,21,05,05,329,,7*7F
$GAGSV,3,3,09,24,01,282,,7*45
$GAGSV,2,1,05,26,46,095,39,31,46,300,12,33,30,159,40,04,23,227,38,1*70
$GAGSV,2,2,05,21,20,089,18,1*49
$GBGSV,3,1,11,45,66,318,22,29,65,179,45,36,56,116,49,30,47,055,33,1*74
$GBGSV,3,2,11,57,26,216,,26,12,307,,46,07,122,34,27,02,038,16,1*7F
$GBGSV,3,3,11,54,,,27,52,,,22,49,,,24,1*7E
$GBGSV,1,1,04,29,65,179,46,36,56,116,45,30,47,055,16,46,07,122,37,5*75
$GNGGA,163236.000,4000.586266,N,10514.620710,W,2,31,0.66,1609.853,M,-20.635,M,,*73
$GPGSV,4,1,13,17,85,251,39,22,69,343,16,14,67,049,18,19,53,228,45,1*6F
$GPGSV,4,2,13,30,49,158,48,46,37,214,50,13,33,252,46,02,29,053,,1*60
$GPGSV,4,3,13,07,18,148,47,15,16,283,23,21,16,041,19,24,10,318,,1*6E
$GPGSV,4,4,13,06,10,179,42,1*58
$GPGSV,1,1,04,14,67,049,25,30,49,158,50,06,10,179,47,24,10,318,17,8*60
$GLGSV,2,1,07,84,65,147,27,74,64,002,,73,49,094,42,83,34,035,,1*7F
$GLGSV,2,2,07,75,19,313,21,85,16,192,51,72,08,257,35,1*48
$GAGSV,3,1,09,31,47,301,16,26,46,095,37,33,30,159,42,09,27,281,18,7*74
$GAGSV,3,2,09,04,23,227,41,21,20,089,,13,19,040,21,05,05,329,22,7*79
$GAGSV,3,3,09,24,01,282,,7*45
$GAGSV,1,1,04,26,46,095,39,33,30,159,40,04,23,227,39,21,20,089,21,1*70
$GBGSV,3,1,11,45,66,318,22,29,65,179,44,36,56,116,49,30,47,055,33,1*75
$GBGSV,3,2,11,57,26,216,,26,12,307,,46,07,122,36,27,02,038,15,1*7E
$GBGSV,3,3,11,52,,,23,54,,,26,49,,,24,1*7E
$GBGSV,1,1,04,29,65,179,46,36,56,116,45,30,47,055,17,46,07,122,38,5*7B
$GNGGA,163241.000,4000.586266,N,10514.620500,W,2,31,0.69,1609.794,M,-20.635,M,,*7B
$GPGSV,4,1,13,17,85,251,39,22,69,343,27,14,67,049,17,19,53,228,45,1*62
$GPGSV,4,2,13,30,49,158,48,46,37,214,50,13,33,252,46,02,29,053,,1*60
$GPGSV,4,3,13,07,18,148,47,15,16,283,18,21,16,041,19,06,10,179,43,1*64
$GPGSV,4,4,13,24,10,318,,1*5B
$GPGSV,1,1,04,14,67,049,25,30,49,158,49,06,10,179,47,24,10,318,16,8*69
$GLGSV,2,1,05,84,65,147,27,73,49,094,42,75,19,313,19,85,16,192,51,1*73
$GLGSV,2,2,05,72,08,257,36,1*45
$GAGSV,3,1,09,31,47,301,23,26,46,095,36,33,31,158,42,09,27,281,21,7*79
$GAGSV,3,2,09,04,23,227,41,21,20,089,27,13,19,040,18,05,05,329,24,7*70
$GAGSV,3,3,09,24,01,282,,7*45
$GAGSV,1,1,04,26,46,095,39,33,31,158,40,04,23,227,39,21,20,089,21,1*70
$GBGSV,3,1,10,45,66,318,21,29,65,179,44,36,56,116,49,30,47,055,34,1*70
$GBGSV,3,2,10,57,26,216,,46,07,122,39,27,02,038,15,52,,,23,1*45
$GBGSV,3,3,10,49,,,24,54,,,26,1*79
$GBGSV,1,1,04,29,65,179,46,36,56,116,45,30,47,055,17,46,07,122,38,5*7B
$GNGGA,163246.000,4000.586140,N,10514.620422,W,2,32,0.66,1609.993,M,-20.634,M,,*7E
$GPGSV,4,1,13,17,85,251,39,22,69,343,17,14,67,049,20,19,53,228,45,1*65
$GPGSV,4,2,13,30,49,158,48,46,37,214,50,13,33,252,46,02,29,053,,1*60
$GPGSV,4,3,13,07,18,148,48,15,16,283,24,21,16,041,,24,10,318,,1*6E
$GPGSV,4,4,13,06,10,179,43,1*59
$GPGSV,1,1,04,14,67,049,25,30,49,158,49,06,10,179,48,24,10,318,16,8*66
$GLGSV,2,1,05,84,65,147,27,73,49,094,43,75,19,313,19,85,16,192,51,1*72
$GLGSV,2,2,05,72,08,257,35,1*46
$GAGSV,3,1,09,31,47,301,23,26,46,095,36,33,31,158,41,09,27,281,,7*79
$GAGSV,3,2,09,04,23,227,41,21,20,089,26,13,19,040,15,05,05,329,22,7*7A
$GAGSV,3,3,09,24,01,282,,7*45
$GAGSV,1,1,04,26,46,095,39,33,31,158,40,04,23,227,37,21,20,089,21,1*7E
$GBGSV,3,1,11,45,66,318,21,29,65,179,44,36,56,116,49,30,47,055,34,1*71
$GBGSV,3,2,11,57,26,216,,26,12,307,22,46,07,122,38,27,02,038,,1*74
$GBGSV,3,3,11,54,,,26,52,,,22,49,,,24,1*7F
$GBGSV,1,1,04,29,65,179,45,36,56,116,45,30,47,055,17,46,07,122,38,5*78
$GNGGA,163251.000,4000.586104,N,10514.620620,W,2,30,0.69,1610.005,M,-20.634,M,,*7B
$GPGSV,4,1,13,17,85,251,38,22,69,343,15,14,67,049,28,19,53,228,45,1*6E
$GPGSV,4,2,13,30,49,158,47,46,37,214,50,13,33,252,46,02,29,053,,1*6F
$GPGSV,4,3,13,07,18,148,48,15,16,283,17,21,16,041,,24,10,318,,1*6E
$GPGSV,4,4,13,06,10,179,43,1*59
$GPGSV,1,1,04,14,67,049,25,30,49,158,49,06,10,179,48,24,10,318,16,8*66
$GLGSV,2,1,05,84,65,147,27,73,48,096,43,75,20,314,20,85,16,192,51,1*76
$GLGSV,2,2,05,72,07,256,30,1*4D
$GAGSV,3,1,09,31,47,301,20,26,46,095,36,33,31,158,40,09,27,281,18,7*72
$GAGSV,3,2,09,04,23,227,42,21,20,089,25,13,19,040,14,05,05,329,19,7*73
$GAGSV,3,3,09,24,01,282,,7*45
$GAGSV,2,1,05,31,47,301,19,26,46,095,39,33,31,158,41,04,23,227,38,1*7A
$GAGSV,2,2,05,21,20,089,22,1*40
$GBGSV,3,1,11,45,66,318,21,29,65,179,44,36,56,116,49,30,47,055,33,1*76
$GBGSV,3,2,11,26,12,307,22,46,07,122,,27,02,038,,49,,,24,1*47
$GBGSV,3,3,11,55,,,27,54,,,26,52,,,23,1*70
$GBGSV,1,1,04,29,65,179,45,36,56,116,45,30,47,055,17,46,07,122,38,5*78
$GNGGA,163256.000,4000.586188,N,10514.620656,W,2,31,0.66,1609.895,M,-20.635,M,,*7F
$GPGSV,4,1,13,17,85,251,38,22,69,343,25,14,67,049,21,19,53,228,45,1*64
$GPGSV,4,2,13,30,49,158,47,46,37,214,50,13,33,252,45,02,29,053,,1*6C
$GPGSV,4,3,13,07,18,148,48,15,16,283,20,21,16,041,,24,10,318,,1*6A
$GPGSV,4,4,13,06,10,179,45,1*5F
$GPGSV,1,1,04,14,67,049,25,30,49,158,49,06,10,179,49,24,10,318,16,8*67
$GLGSV,2,1,05,84,65,147,26,73,48,096,43,75,20,314,22,85,16,192,51,1*75
$GLGSV,2,2,05,72,07,256,23,1*4F
$GAGSV,3,1,09,31,47,301,12,26,46,095,36,33,31,158,38,09,27,281,12,7*76
$GAGSV,3,2,09,04,23,227,41,21,20,089,17,13,19,040,16,05,05,329,18,7*72
$GAGSV,3,3,09,24,01,282,,7*45
$GAGSV,2,1,06,31,47,301,21,26,46,095,38,33,31,158,41,04,23,227,38,1*73
$GAGSV,2,2,06,21,20,089,20,05,05,329,18,1*70
$GBGSV,3,1,12,45,66,318,22,29,65,179,44,36,56,116,48,30,47,055,31,1*75
$GBGSV,3,2,12,57,26,216,,26,12,307,22,46,07,122,,56,,,28,1*49
$GBGSV,3,3,12,52,,,23,54,,,26,49,,,24,55,,,27,1*78
$GBGSV,1,1,04,29,65,179,45,36,56,116,45,30,47,055,19,46,07,122,37,5*79
$GNGGA,163301.000,4000.586272,N,10514.620548,W,2,32,0.66,1609.663,M,-20.635,M,,*72
$GPGSV,4,1,13,17,85,251,38,22,69,343,21,14,67,049,14,19,53,228,46,1*65
$GPGSV,4,2,13,30,49,158,47,46,37,214,50,13,33,252,45,07,18,148,49,1*6D
$GPGSV,4,3,13,15,16,283,30,21,16,041,,06,10,179,45,24,10,318,,1*6D
$GPGSV,4,4,13,31,,,29,1*6F
$GPGSV,1,1,04,14,67,049,25,30,49,158,48,06,10,179,49,24,10,318,16,8*66
$GLGSV,2,1,05,84,66,145,27,73,48,096,43,75,20,314,17,85,17,192,51,1*72
$GLGSV,2,2,05,72,07,256,27,1*4B
$GAGSV,2,1,08,31,47,301,17,26,46,095,37,33,31,158,39,09,27,281,14,7*75
$GAGSV,2,2,08,04,23,227,42,21,20,089,15,13,19,040,22,05,05,329,14,7*78
$GAGSV,2,1,06,31,47,301,21,26,46,095,38,33,31,158,40,04,23,227,37,1*7D
$GAGSV,2,2,06,21,20,089,18,05,05,329,18,1*7B
$GBGSV,3,1,11,45,66,318,21,29,65,179,44,36,56,116,48,30,47,055,30,1*74
$GBGSV,3,2,11,26,12,307,22,46,07,122,35,52,,,23,56,,,28,1*79
$GBGSV,3,3,11,49,,,25,58,,,27,55,,,27,1*71
$GBGSV,1,1,04,29,65,179,45,36,56,116,44,30,47,055,19,46,07,122,37,5*78
$GNGGA,163306.000,4000.586146,N,10514.620410,W,2,30,0.66,1609.682,M,-20.635,M,,*70
$GPGSV,4,1,13,17,85,251,38,22,69,343,23,14,67,049,13,19,53,228,46,1*60
$GPGSV,4,2,13,30,49,158,46,46,37,214,50,13,33,252,45,02,29,053,,1*6D
$GPGSV,4,3,13,07,18,148,48,15,16,283,34,21,16,041,,24,10,318,,1*6F
$GPGSV,4,4,13,06,10,179,46,1*5C
$GPGSV,1,1,04,14,67,049,23,30,49,158,48,06,10,179,50,24,10,318,16,8*68
$GLGSV,2,1,06,84,66,145,27,73,48,096,41,83,33,034,,75,20,314,20,1*7E
$GLGSV,2,2,06,85,17,192,51,72,07,256,34,1*7F
$GAGSV,3,1,09,31,47,301,24,26,46,095,36,33,31,158,41,09,27,281,,7*7E
$GAGSV,3,2,09,04,23,227,42,21,20,089,,13,19,040,,05,05,329,10,7*78
$GAGSV,3,3,09,24,01,282,,7*45
$GAGSV,2,1,06,31,47,301,19,26,46,095,38,33,31,158,40,04,23,227,34,1*75
$GAGSV,2,2,06,21,20,089,22,05,05,329,17,1*7D
$GBGSV,3,1,10,45,66,318,21,29,65,179,45,36,56,116,48,30,47,055,29,1*7C
$GBGSV,3,2,10,57,26,216,,26,12,307,,46,07,122,,27,02,038,,1*7E
$GBGSV,3,3,10,52,,,23,58,,,28,1*76
$GBGSV,1,1,04,29,65,179,44,36,56,116,44,30,47,055,19,46,07,122,38,5*76
$GNGGA,163311.000,4000.586482,N,10514.620410,W,2,30,0.66,1609.401,M,-20.635,M,,*72
$GPGSV,4,1,13,17,85,251,35,22,69,343,14,14,67,049,,19,53,228,46,1*6B
$GPGSV,4,2,13,30,49,158,46,46,37,214,50,13,33,252,45,02,29,053,,1*6D
$GPGSV,4,3,13,07,18,148,48,15,16,283,31,21,16,041,,24,10,318,,1*6A
$GPGSV,4,4,13,06,10,179,47,1*5D
$GPGSV,1,1,03,14,67,049,22,30,49,158,48,06,10,179,50,8*54
$GLGSV,2,1,05,84,66,145,28,73,48,096,40,75,20,314,19,85,17,192,51,1*70
$GLGSV,2,2,05,72,07,256,35,1*48
$GAGSV,3,1,09,31,47,301,,26,46,095,35,33,31,158,41,09,27,281,16,7*7C
$GAGSV,3,2,09,04,23,227,41,21,20,089,24,13,19,040,,05,05,329,11,7*7C
$GAGSV,3,3,09,24,01,282,,7*45
$GAGSV,2,1,06,31,47,301,18,26,46,095,38,33,31,158,40,04,23,227,31,1*71
$GAGSV,2,2,06,21,20,089,26,05,05,329,18,1*76
$GBGSV,3,1,11,45,66,318,21,29,65,179,44,36,56,116,47,30,47,055,29,1*73
$GBGSV,3,2,11,57,26,216,,26,12,307,20,46,07,122,,27,02,038,,1*7D
$GBGSV,3,3,11,58,,,13,52,,,23,56,,,29,1*77
$GBGSV,1,1,04,29,65,179,44,36,56,116,44,30,47,055,20,46,07,122,37,5*73
$GNGGA,163316.000,4000.586506,N,10514.620452,W,2,32,0.66,1609.313,M,-20.635,M,,*78
$GPGSV,4,1,13,17,85,251,37,22,69,343,19,14,67,049,28,19,53,228,46,1*6E
$GPGSV,4,2,13,30,49,158,45,46,37,214,50,13,33,252,45,02,29,053,29,1*65
$GPGSV,4,3,13,07,18,148,48,21,16,041,,15,16,283,25,06,10,179,48,1*66
$GPGSV,4,4,13,24,10,318,,1*5B
$GPGSV,1,1,03,14,67,049,21,30,49,158,48,06,10,179,50,8*57
$GLGSV,2,1,05,84,66,145,28,73,48,096,41,75,20,314,23,85,17,192,50,1*79
$GLGSV,2,2,05,72,07,256,37,1*4A
$GAGSV,2,1,08,31,47,301,16,26,46,095,34,33,31,158,41,09,27,281,18,7*74
$GAGSV,2,2,08,04,23,227,39,21,20,089,23,13,19,040,17,05,05,329,14,7*77
$GAGSV,2,1,06,31,47,301,17,26,46,095,38,33,31,158,40,04,23,227,26,1*78
$GAGSV,2,2,06,21,20,089,25,05,05,329,18,1*75
$GBGSV,3,1,09,45,66,318,22,29,65,179,44,36,56,116,47,30,47,055,29,1*79
$GBGSV,3,2,09,26,12,307,18,46,07,122,35,52,,,24,56,,,28,1*7E
$GBGSV,3,3,09,58,,,22,1*72
$GBGSV,1,1,04,29,65,179,43,36,56,116,43,30,47,055,20,46,07,122,35,5*71
$PAIR010,0,0,2309,405216*37
$GNGGA,163321.000,4000.586344,N,10514.620386,W,2,32,0.66,1609.492,M,-20.635,M,,*7C
$GPGSV,4,1,13,17,85,251,37,22,69,343,22,14,67,049,28,19,53,228,46,1*66
$GPGSV,4,2,13,30,49,158,43,46,37,214,50,13,33,252,45,02,29,053,24,1*6E
$GPGSV,4,3,13,07,18,148,48,15,16,283,28,21,16,041,,24,10,318,,1*62
$GPGSV,4,4,13,06,10,179,49,1*53
$GPGSV,1,1,03,14,67,049,19,30,49,158,48,06,10,179,50,8*5C
$GLGSV,2,1,07,84,66,145,28,74,65,004,,73,48,096,42,83,33,034,,1*73
$GLGSV,2,2,07,75,20,314,24,85,17,192,50,72,07,256,36,1*4D
$GAGSV,3,1,09,31,47,301,15,26,46,095,34,33,31,158,41,09,27,281,24,7*78
$GAGSV,3,2,09,04,23,227,39,21,20,089,25,13,19,040,14,05,05,329,19,7*7F
$GAGSV,3,3,09,24,01,282,,7*45
$GAGSV,2,1,06,31,47,301,17,26,46,095,38,33,31,158,42,04,23,227,29,1*75
$GAGSV,2,2,06,21,20,089,25,05,05,329,15,1*78
$GBGSV,3,1,11,45,66,318,22,29,65,179,44,36,56,116,47,30,47,055,29,1*70
$GBGSV,3,2,11,57,26,216,,26,12,307,,46,07,122,37,27,02,038,,1*7B
$GBGSV,3,3,11,52,,,24,56,,,28,58,,,22,1*73
$GBGSV,1,1,04,29,65,179,43,36,56,116,43,30,47,055,21,46,07,122,36,5*73
$GNGGA,163326.000,4000.586410,N,10514.620248,W,2,31,0.66,1609.419,M,-20.635,M,,*7E
$GPGSV,4,1,13,17,85,251,35,22,69,343,19,14,67,049,21,19,53,228,47,1*64
$GPGSV,4,2,13,30,49,158,43,46,37,214,50,13,33,252,44,02,29,053,27,1*6C
$GPGSV,4,3,13,07,18,148,48,15,16,283,29,21,16,041,,24,10,318,,1*63
$GPGSV,4,4,13,06,10,179,49,1*53
$GPGSV,1,1,02,30,49,158,48,06,10,179,50,8*6C
$GLGSV,2,1,05,84,66,145,28,73,48,096,42,75,20,314,17,85,17,192,50,1*7D
$GLGSV,2,2,05,72,07,256,37,1*4A
$GAGSV,3,1,09,31,47,301,20,26,46,095,34,33,31,158,40,09,27,281,20,7*7B
$GAGSV,3,2,09,04,23,227,39,21,20,089,25,13,19,040,15,05,05,329,19,7*7E
$GAGSV,3,3,09,24,01,282,,7*45
$GAGSV,2,1,05,31,47,301,19,26,46,095,38,33,31,158,43,04,23,227,31,1*70
$GAGSV,2,2,05,21,20,089,25,1*47
$GBGSV,3,1,11,45,66,318,23,29,65,179,44,36,56,116,46,30,47,055,28,1*71
$GBGSV,3,2,11,57,26,216,,26,12,307,,46,07,122,38,27,02,038,,1*74
$GBGSV,3,3,11,58,,,22,52,,,24,56,,,28,1*73
$GBGSV,1,1,04,29,65,179,44,36,56,116,43,30,47,055,21,46,07,122,36,5*74
$GNGGA,163331.000,4000.586680,N,10514.620050,W,2,32,0.59,1609.218,M,-20.635,M,,*70
$GPGSV,4,1,13,17,85,251,37,22,69,343,20,14,67,049,26,19,53,228,47,1*6B
$GPGSV,4,2,13,30,49,158,43,46,37,214,50,13,33,252,44,02,29,053,27,1*6C
$GPGSV,4,3,13,07,18,148,48,15,16,283,27,21,16,041,22,24,10,318,22,1*6D
$GPGSV,4,4,13,06,10,179,49,1*53
$GPGSV,1,1,02,30,49,158,47,06,10,179,50,8*63
$GLGSV,2,1,05,84,66,145,29,73,48,096,41,75,20,314,19,85,17,192,50,1*71
$GLGSV,2,2,05,72,07,256,39,1*44
$GAGSV,3,1,09,31,47,301,19,26,46,095,33,33,31,158,39,09,27,281,19,7*72
$GAGSV,3,2,09,04,23,227,40,21,20,089,25,13,19,040,17,05,05,329,16,7*7D
$GAGSV,3,3,09,24,01,282,,7*45
$GAGSV,2,1,05,31,47,301,19,26,46,095,37,33,31,158,43,04,23,227,35,1*7B
$GAGSV,2,2,05,21,20,089,21,1*43
$GBGSV,3,1,11,45,66,318,23,29,65,179,44,36,56,116,46,30,47,055,24,1*7D
$GBGSV,3,2,11,57,26,216,,26,13,307,,46,07,122,38,27,01,038,,1*76
$GBGSV,3,3,11,58,,,23,52,,,24,56,,,28,1*72
$GBGSV,1,1,04,29,65,179,43,36,56,116,42,30,47,055,20,46,07,122,36,5*73
$GNGGA,163336.000,4000.586860,N,10514.619930,W,2,31,0.62,1609.204,M,-20.634,M,,*75
$GPGSV,4,1,13,17,85,251,35,22,69,343,22,14,67,049,28,19,53,228,47,1*65
$GPGSV,4,2,13,30,49,158,43,46,37,214,50,13,33,252,44,02,29,053,29,1*62
$GPGSV,4,3,13,07,18,148,48,15,16,283,,21,16,041,24,24,10,318,23,1*6F
$GPGSV,4,4,13,06,10,179,50,1*5B
$GPGSV,1,1,02,30,49,158,47,06,10,179,50,8*63
$GLGSV,2,1,05,84,66,145,29,73,48,096,41,75,20,314,24,85,17,192,50,1*7F
$GLGSV,2,2,05,72,07,256,40,1*4A
$GAGSV,3,1,09,31,47,301,19,26,46,095,33,33,31,158,39,09,27,281,21,7*79
$GAGSV,3,2,09,04,23,227,40,21,20,089,26,13,19,040,15,05,05,329,18,7*72
$GAGSV,3,3,09,24,01,282,,7*45
$GAGSV,2,1,05,31,47,301,21,26,46,095,37,33,31,158,43,04,23,227,37,1*72
$GAGSV,2,2,05,21,20,089,21,1*43
$GBGSV,3,1,11,29,67,179,44,45,66,318,24,36,56,116,45,30,46,054,24,1*7B
$GBGSV,3,2,11,57,26,216,,26,13,307,,46,07,122,35,27,01,038,,1*7B
$GBGSV,3,3,11,06,,,28,58,,,24,52,,,25,1*71
$GBGSV,1,1,04,29,67,179,43,36,56,116,42,30,46,054,21,46,07,122,37,5*71
$GNGGA,163341.000,4000.586608,N,10514.619762,W,2,32,0.59,1609.300,M,-20.634,M,,*72
$GPGSV,4,1,13,17,85,251,35,22,69,343,22,14,67,049,20,19,53,228,47,1*6D
$GPGSV,4,2,13,30,49,158,43,46,37,214,50,13,33,252,44,02,29,053,29,1*62
$GPGSV,4,3,13,07,18,148,48,15,16,283,18,21,16,041,27,06,10,179,50,1*64
$GPGSV,4,4,13,24,10,318,25,1*5C
$GPGSV,1,1,02,30,49,158,47,06,10,179,50,8*63
$GLGSV,2,1,05,84,66,145,29,73,48,096,41,75,20,314,17,85,17,192,50,1*7F
$GLGSV,2,2,05,72,07,256,36,1*4B
$GAGSV,3,1,09,31,47,301,13,26,46,095,35,33,31,158,40,09,27,281,21,7*7B
$GAGSV,3,2,09,04,23,227,41,21,20,089,28,13,19,040,18,05,05,329,,7*79
$GAGSV,3,3,09,24,01,282,,7*45
$GAGSV,2,1,06,31,47,301,22,26,46,095,37,33,31,158,43,04,23,227,36,1*73
$GAGSV,2,2,06,21,20,089,18,05,05,329,15,1*76
$GBGSV,3,1,10,29,67,179,44,45,66,318,24,36,55,117,45,30,46,054,24,1*78
$GBGSV,3,2,10,57,26,216,,26,13,307,,46,07,122,37,27,01,038,,1*78
$GBGSV,3,3,10,52,,,24,58,,,24,1*7D
$GBGSV,1,1,04,29,67,179,42,36,55,117,43,30,46,054,20,46,07,122,37,5*72
$GNGGA,163346.000,4000.586350,N,10514.619834,W,2,32,0.59,1609.395,M,-20.635,M,,*7C
$GPGSV,4,1,13,17,85,251,36,22,69,343,22,14,67,049,10,19,53,228,47,1*6D
$GPGSV,4,2,13,30,49,158,43,46,37,214,50,13,33,252,44,02,29,053,25,1*6E
$GPGSV,4,3,13,07,18,148,49,15,16,283,26,21,16,041,28,06,10,179,50,1*67
$GPGSV,4,4,13,24,10,318,26,1*5F
$GPGSV,1,1,02,30,49,158,47,06,10,179,50,8*63
$GLGSV,2,1,05,84,66,145,30,73,48,096,41,75,20,314,14,85,17,192,50,1*74
$GLGSV,2,2,05,72,07,256,31,1*4C
$GAGSV,3,1,09,31,47,301,20,26,46,095,35,33,31,158,39,09,27,281,19,7*7E
$GAGSV,3,2,09,04,23,227,40,21,20,089,30,13,19,040,17,05,05,329,17,7*78
$GAGSV,3,3,09,24,01,282,,7*45
$GAGSV,2,1,06,31,47,301,21,26,46,095,37,33,31,158,43,04,23,227,37,1*71
$GAGSV,2,2,06,21,20,089,18,05,05,329,16,1*75
$GBGSV,3,1,10,29,67,179,44,45,66,318,24,36,55,117,45,30,46,054,28,1*74
$GBGSV,3,2,10,26,13,307,21,46,07,122,37,58,,,24,48,,,16,1*77
$GBGSV,3,3,10,52,,,24,55,,,25,1*71
$GBGSV,1,1,04,29,67,179,42,36,55,117,44,30,46,054,20,46,07,122,37,5*75
$GNGGA,163351.000,4000.586224,N,10514.620014,W,2,31,0.59,1609.353,M,-20.635,M,,*71
$GPGSV,4,1,13,17,85,251,36,22,69,343,18,14,67,049,19,19,53,228,46,1*6C
$GPGSV,4,2,13,30,49,158,42,46,37,214,50,13,33,252,43,02,29,053,,1*6F
$GPGSV,4,3,13,07,18,148,49,15,16,283,20,21,16,041,28,06,10,179,50,1*61
$GPGSV,4,4,13,24,10,318,26,1*5F
$GPGSV,1,1,03,14,67,049,22,30,49,158,47,06,10,179,50,8*5B
$GLGSV,2,1,05,84,66,145,30,73,48,096,42,75,20,314,16,85,17,192,50,1*75
$GLGSV,2,2,05,72,07,256,33,1*4E
$GAGSV,3,1,09,31,47,301,,26,46,095,35,33,31,158,38,09,27,281,19,7*7D
$GAGSV,3,2,09,04,23,227,40,21,20,089,30,13,19,040,,05,05,329,,7*78
$GAGSV,3,3,09,24,01,282,,7*45
$GAGSV,2,1,06,31,47,301,18,26,46,095,38,33,31,158,44,04,23,227,36,1*72
$GAGSV,2,2,06,21,20,089,18,05,05,329,13,1*70
$GBGSV,3,1,10,45,68,318,24,29,67,179,44,36,55,117,45,30,46,054,,1*70
$GBGSV,3,2,10,57,26,216,,26,13,307,19,46,06,123,,27,01,038,,1*74
$GBGSV,3,3,10,52,,,24,58,,,24,1*7D
$GBGSV,1,1,04,29,67,179,40,36,55,117,44,30,46,054,20,46,06,123,37,5*77
$GNGGA,163356.000,4000.586194,N,10514.620182,W,2,30,0.62,1609.336,M,-20.634,M,,*7B
$GPGSV,4,1,13,17,85,251,34,22,69,343,,14,67,049,26,19,53,228,46,1*6B
$GPGSV,4,2,13,30,49,158,43,46,37,214,50,13,33,252,43,02,29,053,30,1*6D
$GPGSV,4,3,13,07,18,148,48,15,16,283,17,21,16,041,26,06,10,179,51,1*6B
$GPGSV,4,4,13,24,10,318,26,1*5F
$GPGSV,1,1,03,14,67,049,21,30,49,158,47,06,10,179,50,8*58
$GLGSV,2,1,05,84,66,145,28,73,48,096,42,75,20,314,23,85,17,192,50,1*7A
$GLGSV,2,2,05,72,07,256,31,1*4C
$GAGSV,3,1,09,31,47,301,18,26,46,095,35,33,31,158,39,09,27,281,23,7*7C
$GAGSV,3,2,09,04,23,227,41,21,20,089,29,13,19,040,,05,05,329,,7*71
$GAGSV,3,3,09,24,01,282,,7*45
$GAGSV,2,1,05,31,47,301,18,26,46,095,34,33,31,158,45,04,23,227,36,1*7C
$GAGSV,2,2,05,21,20,089,13,1*42
$GBGSV,3,1,10,45,68,318,24,29,67,179,44,36,55,117,45,30,46,054,,1*70
$GBGSV,3,2,10,57,26,216,,26,13,307,,46,06,123,,27,01,038,,1*7C
$GBGSV,3,3,10,52,,,24,58,,,24,1*7D
$GBGSV,1,1,04,29,67,179,40,36,55,117,42,30,46,054,20,46,06,123,37,5*71
$GNGGA,163401.000,4000.585948,N,10514.620260,W,2,30,0.59,1609.364,M,-20.635,M,,*75
$GPGSV,4,1,13,17,85,251,36,22,69,343,,14,67,049,18,19,53,228,46,1*64
$GPGSV,4,2,13,30,49,158,44,46,37,214,50,13,33,252,43,02,29,053,29,1*62
$GPGSV,4,3,13,07,18,148,48,21,16,041,24,15,16,283,20,06,10,179,51,1*6D
$GPGSV,4,4,13,24,10,318,26,1*5F
$GPGSV,1,1,03,14,67,049,22,30,49,158,46,06,10,179,50,8*5A
$GLGSV,2,1,05,84,66,145,29,73,48,096,43,75,20,314,28,85,17,192,50,1*71
$GLGSV,2,2,05,72,07,256,31,1*4C
$GAGSV,3,1,09,31,47,301,20,26,46,095,34,33,31,158,40,09,27,281,26,7*7D
$GAGSV,3,2,09,04,23,227,41,21,20,089,29,13,19,040,18,05,05,329,24,7*7E
$GAGSV,3,3,09,24,01,282,,7*45
$GAGSV,1,1,04,31,47,301,18,26,46,095,34,33,31,158,45,04,23,227,38,1*70
$GBGSV,3,1,09,45,68,318,24,29,67,179,44,36,55,117,45,30,46,054,,1*78
$GBGSV,3,2,09,57,25,216,,26,13,307,17,46,06,123,,52,,,25,1*4E
$GBGSV,3,3,09,58,,,25,1*75
$GBGSV,1,1,04,29,67,179,40,36,55,117,42,30,46,054,18,46,06,123,37,5*7A
$GNGGA,163406.000,4000.585858,N,10514.620248,W,2,30,0.62,1609.255,M,-20.635,M,,*73
$GPGSV,4,1,13,17,85,251,36,22,69,343,,14,67,049,28,19,53,228,46,1*67
$GPGSV,4,2,13,30,49,158,44,46,37,214,50,13,33,252,42,02,29,053,31,1*6A
$GPGSV,4,3,13,07,18,148,48,15,16,283,,21,16,041,24,24,10,318,24,1*68
$GPGSV,4,4,13,06,10,179,51,1*5A
$GPGSV,1,1,03,14,67,049,22,30,49,158,47,06,10,179,50,8*5B
$GLGSV,2,1,05,84,66,145,30,73,48,096,42,75,20,314,30,85,17,192,50,1*71
$GLGSV,2,2,05,72,07,256,35,1*48
$GAGSV,3,1,09,31,47,301,20,26,46,095,32,33,31,158,39,09,27,281,29,7*7A
$GAGSV,3,2,09,04,23,227,42,21,20,089,21,13,19,040,,05,05,329,17,7*7C
$GAGSV,3,3,09,24,01,282,,7*45
$GAGSV,1,1,04,31,47,301,18,26,46,095,35,33,31,158,45,04,23,227,37,1*7E
$GBGSV,3,1,12,29,67,179,44,36,55,117,45,30,46,054,,57,25,216,,1*71
$GBGSV,3,2,12,26,13,307,18,46,06,123,30,27,01,038,,48,,,29,1*40
$GBGSV,3,3,12,63,,,30,58,,,25,52,,,25,55,,,26,1*7D
$GBGSV,1,1,04,29,67,179,40,36,55,117,42,30,46,054,18,46,06,123,36,5*7B
$GNGGA,163411.000,4000.585708,N,10514.620026,W,2,31,0.59,1609.509,M,-20.635,M,,*72
$GPGSV,4,1,13,17,85,251,35,22,69,343,,14,67,049,25,19,53,228,46,1*69
$GPGSV,4,2,13,30,49,158,44,46,37,214,49,13,33,252,41,02,28,052,28,1*69
$GPGSV,4,3,13,07,18,148,47,15,16,283,29,21,16,041,24,24,10,318,23,1*6B
$GPGSV,4,4,13,06,10,179,51,1*5A
$GPGSV,1,1,03,14,67,049,23,30,49,158,47,06,10,179,49,8*52
$GLGSV,2,1,05,84,66,145,29,73,48,096,41,75,20,314,18,85,17,192,50,1*70
$GLGSV,2,2,05,72,07,256,38,1*45
$GAGSV,3,1,09,31,47,301,23,26,46,095,33,33,31,158,41,09,27,281,27,7*79
$GAGSV,3,2,09,04,23,227,42,21,20,089,25,13,19,040,15,05,05,329,15,7*7E
$GAGSV,3,3,09,24,01,282,,7*45
$GAGSV,1,1,04,31,47,301,19,26,46,095,36,33,31,158,46,04,23,227,38,1*70
$GBGSV,3,1,12,29,67,179,45,36,55,117,45,30,46,054,,57,25,216,,1*70
$GBGSV,3,2,12,26,13,307,18,46,06,123,32,27,01,038,,48,,,29,1*42
$GBGSV,3,3,12,63,,,30,58,,,25,52,,,24,55,,,28,1*72
$GBGSV,1,1,04,29,67,179,40,36,55,117,43,30,46,054,17,46,06,123,36,5*75
$GNGGA,163416.000,4000.585858,N,10514.619774,W,2,32,0.62,1609.153,M,-20.634,M,,*74
$GPGSV,4,1,13,17,85,251,36,22,69,343,,14,67,049,15,19,53,228,46,1*69
$GPGSV,4,2,13,30,49,158,45,46,37,214,49,13,33,252,40,02,28,052,23,1*62
$GPGSV,4,3,13,07,17,148,48,15,16,283,,21,16,041,26,06,12,179,51,1*60
$GPGSV,4,4,13,24,10,318,,1*5B
$GPGSV,1,1,04,14,67,049,22,30,49,158,47,06,12,179,48,24,10,318,17,8*6C
$GLGSV,2,1,06,84,66,145,30,74,65,004,,73,48,096,40,75,20,314,21,1*70
$GLGSV,2,2,06,85,17,192,49,72,07,256,30,1*72
$GAGSV,3,1,09,31,47,301,23,26,46,095,36,33,31,158,41,09,27,281,25,7*7E
$GAGSV,3,2,09,04,23,227,42,21,20,089,27,13,19,040,14,05,05,329,19,7*71
$GAGSV,3,3,09,24,01,282,,7*45
$GAGSV,2,1,05,31,47,301,20,26,46,095,37,33,31,158,46,04,23,227,36,1*77
$GAGSV,2,2,05,21,20,089,15,1*44
$GBGSV,3,1,11,29,67,179,44,36,55,117,45,30,46,054,33,57,25,216,,1*72
$GBGSV,3,2,11,26,13,307,24,46,06,123,31,27,01,038,,48,,,30,1*45
$GBGSV,3,3,11,55,,,29,63,,,30,52,,,25,1*7B
$GBGSV,1,1,04,29,67,179,41,36,55,117,42,30,46,054,16,46,06,123,36,5*74
$PAIR010,0,0,2309,405276*31
$GNGGA,163421.000,4000.586086,N,10514.619834,W,2,33,0.59,1608.518,M,-20.635,M,,*71
$GPGSV,4,1,13,17,85,251,37,22,69,343,,14,66,052,24,19,53,228,46,1*61
$GPGSV,4,2,13,30,49,158,45,46,37,214,49,13,32,250,40,02,28,052,26,1*64
$GPGSV,4,3,13,07,17,148,48,15,16,283,22,21,16,041,28,06,12,179,51,1*6E
$GPGSV,4,4,13,24,10,318,,1*5B
$GPGSV,1,1,04,14,66,052,21,30,49,158,46,06,12,179,46,24,10,318,17,8*6B
$GLGSV,2,1,05,84,66,145,29,73,48,096,42,75,20,314,21,85,17,192,49,1*71
$GLGSV,2,2,05,72,07,256,40,1*4A
$GAGSV,3,1,09,31,47,301,19,26,46,095,36,33,31,158,39,09,27,281,,7*7F
$GAGSV,3,2,09,04,23,227,43,21,20,089,27,13,19,040,11,05,05,329,,7*7D
$GAGSV,3,3,09,24,01,282,,7*45
$GAGSV,2,1,05,31,47,301,19,26,46,095,36,33,31,158,46,04,23,227,38,1*72
$GAGSV,2,2,05,21,20,089,18,1*49
$GBGSV,3,1,12,29,67,179,44,36,55,117,45,30,46,054,30,57,25,216,,1*72
$GBGSV,3,2,12,26,13,307,22,46,06,123,34,27,01,038,,48,,,21,1*45
$GBGSV,3,3,12,52,,,25,63,,,30,06,,,22,55,,,29,1*7E
$GBGSV,1,1,04,29,67,179,40,36,55,117,42,30,46,054,16,46,06,123,36,5*75
$GNGGA,163426.000,4000.585864,N,10514.619684,W,2,34,0.57,1608.434,M,-20.634,M,,*73
$GPGSV,4,1,13,17,86,264,37,22,69,343,24,14,66,052,23,19,54,229,47,1*62
$GPGSV,4,2,13,30,49,158,44,46,37,214,49,13,32,250,40,02,28,052,27,1*64
$GPGSV,4,3,13,07,17,148,48,15,16,282,29,21,16,041,29,06,12,179,51,1*65
$GPGSV,4,4,13,24,10,318,,1*5B
$GPGSV,1,1,04,14,66,052,21,30,49,158,46,06,12,179,47,24,10,318,18,8*65
$GLGSV,2,1,05,84,66,145,29,73,48,096,43,75,20,314,20,85,17,192,47,1*7F
$GLGSV,2,2,05,72,07,256,40,1*4A
$GAGSV,3,1,09,31,47,301,17,26,46,095,37,33,31,158,39,09,27,281,16,7*77
$GAGSV,3,2,09,04,23,227,43,21,20,089,33,13,19,040,12,05,05,329,18,7*72
$GAGSV,3,3,09,24,01,282,,7*45
$GAGSV,2,1,05,31,47,301,19,26,46,095,36,33,31,158,46,04,23,227,40,1*7D
$GAGSV,2,2,05,21,20,089,29,1*4B
$GBGSV,3,1,10,29,67,179,44,36,55,117,46,30,46,054,29,57,25,216,,1*7B
$GBGSV,3,2,10,26,13,307,24,46,06,123,36,54,,,29,52,,,25,1*79
$GBGSV,3,3,10,63,,,30,55,,,29,1*7A
$GBGSV,1,1,04,29,67,179,40,36,55,117,41,30,46,054,16,46,06,123,36,5*76
$GNGGA,163431.000,4000.585240,N,10514.619408,W,2,34,0.59,1609.238,M,-20.634,M,,*7A
$GPGSV,4,1,13,17,86,264,37,22,69,346,17,14,66,052,25,19,54,229,47,1*61
$GPGSV,4,2,13,30,49,158,44,46,37,214,49,13,32,250,40,02,28,052,27,1*64
$GPGSV,4,3,13,07,17,148,49,15,16,282,,21,15,041,28,06,12,179,51,1*6D
$GPGSV,4,4,13,24,11,317,,1*55
$GPGSV,1,1,04,14,66,052,22,30,49,158,45,06,12,179,46,24,11,317,18,8*6A
$GLGSV,2,1,05,84,66,145,28,73,48,096,42,75,20,314,20,85,17,192,47,1*7F
$GLGSV,2,2,05,72,07,256,42,1*48
$GAGSV,3,1,09,31,47,301,23,26,46,095,36,33,31,158,40,09,27,281,25,7*7F
$GAGSV,3,2,09,04,23,227,44,21,20,089,31,13,19,040,12,05,05,329,08,7*76
$GAGSV,3,3,09,24,01,282,,7*45
$GAGSV,2,1,06,31,47,301,18,26,46,095,38,33,31,158,45,09,27,281,22,1*73
$GAGSV,2,2,06,04,23,227,41,21,20,089,24,1*72
$GBGSV,3,1,12,29,67,179,44,36,55,117,45,30,46,054,21,57,25,216,,1*72
$GBGSV,3,2,12,26,13,307,20,46,06,123,35,27,01,038,,56,,,28,1*40
$GBGSV,3,3,12,52,,,25,63,,,30,54,,,29,55,,,29,1*72
$GBGSV,1,1,04,29,67,179,39,36,55,117,43,30,46,054,14,46,06,123,35,5*7B
$GNGGA,163436.000,4000.584784,N,10514.619288,W,2,34,0.57,1610.109,M,-20.635,M,,*79
$GPGSV,4,1,13,17,86,264,36,22,69,346,19,14,66,052,20,19,54,229,47,1*6B
$GPGSV,4,2,13,30,49,158,45,46,37,214,49,13,32,250,40,02,28,052,25,1*67
$GPGSV,4,3,13,07,17,148,49,15,16,282,27,21,15,041,24,06,12,179,51,1*64
$GPGSV,4,4,13,24,11,317,,1*55
$GPGSV,1,1,04,14,66,052,23,30,49,158,44,06,12,179,45,24,11,317,18,8*69
$GLGSV,2,1,05,84,66,145,28,73,48,096,41,75,20,314,25,85,17,192,47,1*79
$GLGSV,2,2,05,72,07,256,42,1*48
$GAGSV,3,1,09,31,47,301,24,26,46,095,34,33,31,158,41,09,27,281,21,7*7F
$GAGSV,3,2,09,04,23,227,44,21,20,089,31,13,19,040,,05,05,329,,7*7D
$GAGSV,3,3,09,24,01,282,,7*45
$GAGSV,2,1,06,31,47,301,16,26,46,095,38,33,31,158,45,09,27,281,22,1*7D
$GAGSV,2,2,06,04,23,227,42,21,20,089,23,1*76
$GBGSV,3,1,10,29,67,179,44,36,55,117,45,30,46,054,22,57,25,216,,1*73
$GBGSV,3,2,10,26,13,307,17,46,06,123,36,27,01,038,,63,,,30,1*4A
$GBGSV,3,3,10,56,,,29,55,,,29,1*74
$GBGSV,1,1,03,29,67,179,39,36,55,117,43,46,06,123,35,5*49
$GNGGA,163441.000,4000.584550,N,10514.619174,W,2,32,0.59,1610.345,M,-20.634,M,,*71
$GPGSV,4,1,13,17,86,264,36,22,69,346,,14,66,052,24,19,54,229,47,1*67
$GPGSV,4,2,13,30,48,159,45,46,37,214,49,13,32,250,40,02,28,052,25,1*67
$GPGSV,4,3,13,07,17,148,49,15,16,282,,21,15,041,20,06,12,179,51,1*65
$GPGSV,4,4,13,24,11,317,,1*55
$GPGSV,1,1,04,14,66,052,22,30,48,159,44,06,12,179,44,24,11,317,18,8*69
$GLGSV,2,1,05,84,66,145,28,73,48,096,40,75,20,314,19,85,17,192,48,1*78
$GLGSV,2,2,05,72,07,256,41,1*4B
$GAGSV,3,1,09,31,47,301,19,26,46,095,33,33,31,158,40,09,27,281,20,7*76
$GAGSV,3,2,09,04,23,227,44,21,20,089,31,13,19,040,,05,05,329,,7*7D
$GAGSV,3,3,09,24,01,282,,7*45
$GAGSV,2,1,06,31,47,301,16,26,46,095,38,33,31,158,45,09,27,281,20,1*7F
$GAGSV,2,2,06,04,23,227,42,21,20,089,25,1*70
$GBGSV,3,1,11,29,67,179,43,36,55,117,45,30,46,054,26,57,25,216,,1*71
$GBGSV,3,2,11,26,13,307,17,46,06,123,,27,01,038,,54,,,29,1*42
$GBGSV,3,3,11,56,,,27,63,,,30,55,,,29,1*7D
$GBGSV,1,1,03,29,67,179,39,36,55,117,44,46,06,123,37,5*4C
$GNGGA,163446.000,4000.584352,N,10514.619054,W,2,32,0.68,1610.589,M,-20.635,M,,*74
$GPGSV,4,1,13,17,86,264,35,22,69,346,28,14,66,052,23,19,54,229,47,1*69
$GPGSV,4,2,13,30,48,159,46,46,37,214,49,13,32,250,40,02,28,052,26,1*67
$GPGSV,4,3,13,07,17,148,49,15,16,282,30,21,15,041,,06,12,179,51,1*64
$GPGSV,4,4,13,24,11,317,,1*55
$GPGSV,1,1,04,14,66,052,22,30,48,159,44,06,12,179,44,24,11,317,18,8*69
$GLGSV,2,1,05,84,66,145,27,73,48,096,40,75,20,314,16,85,17,192,48,1*78
$GLGSV,2,2,05,72,07,256,43,1*49
$GAGSV,3,1,09,31,47,301,17,26,46,095,32,33,31,158,40,09,27,281,20,7*79
$GAGSV,3,2,09,04,23,227,44,21,20,089,31,13,19,040,18,05,05,329,18,7*7D
$GAGSV,3,3,09,24,01,282,,7*45
$GAGSV,2,1,06,31,47,301,16,26,46,095,38,33,31,158,45,09,27,281,21,1*7E
$GAGSV,2,2,06,04,23,227,42,21,20,089,26,1*73
$GBGSV,3,1,10,29,67,179,43,36,55,117,45,30,46,054,,26,13,307,17,1*70
$GBGSV,3,2,10,46,06,123,37,06,,,30,56,,,25,63,,,29,1*49
$GBGSV,3,3,10,54,,,28,55,,,30,1*7F
$GBGSV,1,1,03,29,67,179,39,36,55,117,44,46,06,123,37,5*4C
$GNGGA,163451.000,4000.584160,N,10514.618952,W,2,33,0.64,1611.103,M,-20.635,M,,*75
$GPGSV,4,1,13,17,86,264,35,22,69,346,20,14,66,052,20,19,54,229,47,1*62
$GPGSV,4,2,13,30,48,159,46,46,37,214,49,13,32,250,40,02,28,052,,1*63
$GPGSV,4,3,13,07,17,148,49,15,16,282,29,21,15,041,,06,12,179,51,1*6C
$GPGSV,4,4,13,24,11,317,,1*55
$GPGSV,1,1,04,14,66,052,21,30,48,159,44,06,12,179,43,24,11,317,17,8*62
$GLGSV,2,1,05,84,66,145,25,73,48,096,40,75,20,314,21,85,17,192,48,1*7E
$GLGSV,2,2,05,72,07,256,43,1*49
$GAGSV,3,1,09,31,47,301,20,26,46,095,33,33,31,158,41,09,27,281,19,7*77
$GAGSV,3,2,09,04,22,226,43,21,20,089,31,13,19,040,14,05,05,328,18,7*77
$GAGSV,3,3,09,24,01,282,,7*45
$GAGSV,2,1,06,31,47,301,16,26,46,095,38,33,31,158,45,09,27,281,21,1*7E
$GAGSV,2,2,06,04,22,226,42,21,20,089,27,1*72
$GBGSV,3,1,12,29,67,179,44,36,55,117,46,30,46,054,26,57,25,216,,1*76
$GBGSV,3,2,12,26,13,307,17,46,06,123,34,27,01,038,,06,,,22,1*4A
$GBGSV,3,3,12,56,,,25,63,,,29,54,,,29,55,,,29,1*7E
$GBGSV,1,1,03,29,67,179,39,36,55,117,44,46,06,123,37,5*4C
$GNGGA,163456.000,4000.584058,N,10514.618952,W,2,33,0.64,1611.435,M,-20.635,M,,*78
$GPGSV,4,1,13,17,86,264,35,22,69,346,20,14,66,052,16,19,54,229,47,1*67
$GPGSV,4,2,13,30,48,159,44,46,37,214,49,13,32,250,39,02,28,052,18,1*66
$GPGSV,4,3,13,07,17,148,49,15,16,282,27,21,15,041,,06,12,179,51,1*62
$GPGSV,4,4,13,24,11,317,,1*55
$GPGSV,1,1,03,14,66,052,22,30,48,159,44,06,12,179,43,8*53
$GLGSV,2,1,06,84,66,145,24,74,65,004,,73,48,096,42,75,20,314,22,1*74
$GLGSV,2,2,06,85,17,192,49,72,07,256,44,1*71
$GAGSV,3,1,09,31,47,301,24,26,46,095,34,33,31,158,41,09,26,280,20,7*7E
$GAGSV,3,2,09,04,22,226,45,21,20,089,31,13,19,040,15,05,05,328,21,7*7A
$GAGSV,3,3,09,24,01,282,,7*45
$GAGSV,2,1,06,31,47,301,17,26,46,095,38,33,31,158,45,09,26,280,21,1*7F
$GAGSV,2,2,06,04,22,226,42,21,20,089,26,1*73
$GBGSV,3,1,10,29,67,179,45,36,55,117,46,30,46,054,26,26,13,307,14,1*72
$GBGSV,3,2,10,46,06,123,30,48,,,25,56,,,25,63,,,29,1*40
$GBGSV,3,3,10,06,,,12,55,,,29,1*79
$GBGSV,1,1,03,29,67,179,40,36,55,117,44,46,06,123,36,5*43
$GNGGA,163501.000,4000.583962,N,10514.618970,W,2,32,0.64,1611.585,M,-20.635,M,,*77
$GPGSV,4,1,13,17,86,264,36,22,69,346,29,14,66,052,24,19,54,229,47,1*6C
$GPGSV,4,2,13,30,48,159,44,46,37,214,49,13,32,250,38,02,28,052,17,1*68
$GPGSV,4,3,13,07,17,148,49,15,16,282,17,21,15,041,,06,12,179,51,1*61
$GPGSV,4,4,13,24,11,317,,1*55
$GPGSV,1,1,03,14,66,052,20,30,48,159,42,06,12,179,44,8*50
$GLGSV,2,1,05,84,66,145,26,73,48,096,43,75,20,314,23,85,17,192,49,1*7D
$GLGSV,2,2,05,72,07,256,44,1*4E
$GAGSV,3,1,09,31,47,301,24,26,46,095,34,33,31,158,43,09,26,280,20,7*7C
$GAGSV,3,2,09,04,22,226,45,21,20,089,28,13,18,039,12,05,05,328,21,7*7A
$GAGSV,3,3,09,24,01,282,,7*45
$GAGSV,2,1,05,31,47,301,18,26,46,095,38,33,31,158,46,04,22,226,42,1*70
$GAGSV,2,2,05,21,20,089,26,1*44
$GBGSV,4,1,13,29,67,179,45,36,55,117,46,30,46,054,27,57,25,216,,1*70
$GBGSV,4,2,13,26,13,307,18,46,06,123,31,54,,,31,48,,,26,1*74
$GBGSV,4,3,13,63,,,29,53,,,32,56,,,25,06,,,29,1*73
$GBGSV,4,4,13,55,,,29,1*7F
$GBGSV,1,1,03,29,67,179,39,36,55,117,43,46,06,123,35,5*49
$GNGGA,163506.000,4000.584130,N,10514.618880,W,2,32,0.64,1611.513,M,-20.635,M,,*79
$GPGSV,4,1,13,17,86,264,36,22,69,346,26,14,66,052,18,19,54,229,47,1*6C
$GPGSV,4,2,13,30,48,159,44,46,37,214,49,13,32,250,37,02,28,052,20,1*63
$GPGSV,4,3,13,07,17,148,49,15,16,282,17,21,15,041,,06,12,179,51,1*61
$GPGSV,4,4,13,24,11,317,21,1*56
$GPGSV,1,1,03,14,66,052,20,30,48,159,43,06,12,179,45,8*50
$GLGSV,2,1,06,84,66,145,25,74,65,004,23,73,48,096,42,75,20,314,21,1*77
$GLGSV,2,2,06,85,17,192,49,72,07,256,44,1*71
$GAGSV,3,1,09,31,47,301,23,26,46,095,34,33,31,158,43,09,26,280,24,7*7F
$GAGSV,3,2,09,04,22,226,45,21,20,089,28,13,18,039,17,05,05,328,19,7*74
$GAGSV,3,3,09,24,01,282,,7*45
