$PAIR001,062,0*3F
$PAIR001,062,0*3F
$PAIR001,062,0*3F
$PAIR001,062,0*3F
$PAIR001,062,0*3F
$PAIR001,062,0*3F
$PAIR001,062,0*3F
$PAIR001,062,0*3F
$PAIR001,062,0*3F
$GNGGA,082637.000,4005.098590,N,10513.208490,W,2,58,0.41,1585.274,M,-20.670,M,,*78
$GPGSV,3,1,12,31,86,103,45,28,55,049,35,03,47,312,25,46,37,214,46,1*6F
$GPGSV,3,2,12,26,34,146,46,02,28,243,43,32,25,081,41,21,24,227,48,1*6A
$GPGSV,3,3,12,04,24,282,41,25,13,042,36,16,07,170,47,10,07,139,50,1*63
$GPGSV,2,1,07,28,55,049,32,03,47,312,40,26,34,146,45,32,25,081,31,8*67
$GPGSV,2,2,07,04,24,282,28,25,13,042,32,10,07,139,34,8*52
$GLGSV,3,1,09,78,56,067,44,68,54,063,38,69,47,330,40,79,46,164,46,1*7A
$GLGSV,3,2,09,84,22,269,37,67,14,101,42,85,14,325,36,77,08,026,28,1*78
$GLGSV,3,3,09,80,01,191,42,1*47
$GAGSV,3,1,09,19,39,288,32,27,37,116,38,33,35,237,43,07,30,078,40,7*7D
$GAGSV,3,2,09,12,28,301,33,30,25,056,33,10,14,322,38,21,13,168,48,7*79
$GAGSV,3,3,09,26,11,192,46,7*46
$GAGSV,3,1,09,19,39,288,31,27,37,116,40,33,35,237,42,07,30,078,38,1*79
$GAGSV,3,2,09,12,28,301,22,30,25,056,32,10,14,322,38,21,13,168,31,1*70
$GAGSV,3,3,09,26,11,192,36,1*47
$GBGSV,3,1,10,32,78,022,35,31,63,096,21,23,63,097,48,58,39,188,20,1*74
$GBGSV,3,2,10,37,39,188,49,41,33,110,47,20,29,307,29,25,24,045,41,1*71
$GBGSV,3,3,10,29,06,290,32,30,03,240,28,1*7C
$GBGSV,2,1,07,32,78,022,34,23,63,097,33,37,39,188,44,41,33,110,39,5*75
$GBGSV,2,2,07,20,29,307,36,25,24,045,32,29,06,290,36,5*4F
$GNGGA,082642.000,4005.098584,N,10513.208418,W,2,58,0.41,1585.393,M,-20.670,M,,*77
$GPGSV,3,1,12,31,86,103,45,28,55,049,35,03,47,312,28,46,37,214,46,1*62
$GPGSV,3,2,12,26,34,146,46,02,28,243,43,32,25,081,40,21,24,227,49,1*6A
$GPGSV,3,3,12,04,24,282,42,25,13,042,36,16,07,170,47,10,07,139,50,1*60
$GPGSV,2,1,07,28,55,049,32,03,47,312,40,26,34,146,45,32,25,081,31,8*67
$GPGSV,2,2,07,04,24,282,29,25,13,042,32,10,07,139,34,8*53
$GLGSV,3,1,09,78,56,067,43,68,54,063,37,69,47,330,40,79,46,164,46,1*72
$GLGSV,3,2,09,84,22,269,37,67,14,101,42,85,14,325,35,77,08,026,28,1*7B
$GLGSV,3,3,09,80,01,191,41,1*44
$GAGSV,3,1,09,19,40,289,32,27,37,116,38,33,35,237,43,07,30,078,40,7*72
$GAGSV,3,2,09,12,28,301,33,30,25,056,35,21,14,167,48,10,14,322,37,7*78
$GAGSV,3,3,09,26,11,192,45,7*45
$GAGSV,3,1,09,19,40,289,31,27,37,116,40,33,35,237,42,07,30,078,38,1*76
$GAGSV,3,2,09,12,28,301,21,30,25,056,32,10,14,322,38,21,14,167,31,1*7B
$GAGSV,3,3,09,26,11,192,36,1*47
$GBGSV,3,1,10,32,78,022,36,31,63,096,21,23,63,097,48,58,39,188,20,1*77
$GBGSV,3,2,10,37,39,188,49,41,33,110,47,20,29,307,29,25,24,045,41,1*71
$GBGSV,3,3,10,29,06,290,32,30,03,240,20,1*74
$GBGSV,2,1,07,32,78,022,34,23,63,097,33,37,39,188,44,41,33,110,40,5*7B
$GBGSV,2,2,07,20,29,307,36,25,24,045,32,29,06,290,36,5*4F
$GNGGA,082647.000,4005.098596,N,10513.208406,W,2,58,0.41,1585.411,M,-20.670,M,,*73
$GPGSV,3,1,12,31,86,103,45,28,55,049,36,03,47,312,29,46,37,214,46,1*60
$GPGSV,3,2,12,26,34,146,46,02,28,243,43,32,25,081,41,21,24,227,49,1*6B
$GPGSV,3,3,12,04,24,282,42,25,13,042,35,16,07,170,47,10,07,139,50,1*63
$GPGSV,2,1,07,28,55,049,32,03,47,312,40,26,34,146,45,32,25,081,31,8*67
$GPGSV,2,2,07,04,24,282,29,25,13,042,32,10,07,139,36,8*51
$GLGSV,3,1,09,78,56,067,42,68,54,063,37,69,47,330,40,79,46,164,47,1*72
$GLGSV,3,2,09,84,22,269,37,67,14,101,42,85,14,325,34,77,08,026,28,1*7A
$GLGSV,3,3,09,80,01,191,44,1*41
$GAGSV,3,1,09,19,40,289,32,27,37,116,38,33,35,237,43,07,30,078,40,7*72
$GAGSV,3,2,09,12,28,301,33,30,25,056,36,21,14,167,48,10,14,322,37,7*7B
$GAGSV,3,3,09,26,10,192,45,7*44
$GAGSV,3,1,09,19,40,289,31,27,37,116,40,33,35,237,42,07,30,078,38,1*76
$GAGSV,3,2,09,12,28,301,21,30,25,056,31,10,14,322,38,21,14,167,32,1*7B
$GAGSV,3,3,09,26,10,192,36,1*46
$GBGSV,3,1,10,32,78,022,37,31,63,096,22,23,63,097,48,58,39,188,20,1*75
$GBGSV,3,2,10,37,39,188,49,41,33,110,47,20,29,307,29,25,24,045,41,1*71
$GBGSV,3,3,10,29,06,290,32,30,03,240,27,1*73
$GBGSV,2,1,07,32,78,022,35,23,63,097,33,37,39,188,44,41,33,110,40,5*7A
$GBGSV,2,2,07,20,29,307,36,25,24,045,32,29,06,290,36,5*4F
$GNGGA,082652.000,4005.098608,N,10513.208430,W,2,58,0.41,1585.279,M,-20.669,M,,*76
$GPGSV,3,1,12,31,86,103,45,28,55,049,36,03,47,312,29,46,37,214,46,1*60
$GPGSV,3,2,12,26,34,146,46,02,28,243,43,32,25,081,41,21,24,227,49,1*6B
$GPGSV,3,3,12,04,24,282,42,25,13,042,35,16,07,170,47,10,07,139,50,1*63
$GPGSV,2,1,07,28,55,049,32,03,47,312,40,26,34,146,45,32,25,081,30,8*66
$GPGSV,2,2,07,04,24,282,29,25,13,042,32,10,07,139,37,8*50
$GLGSV,3,1,09,78,56,067,42,68,54,063,39,69,47,330,40,79,46,164,47,1*7C
$GLGSV,3,2,09,84,22,269,37,67,14,101,43,85,14,325,35,77,08,026,27,1*75
$GLGSV,3,3,09,80,01,191,45,1*40
$GAGSV,3,1,09,19,40,289,31,27,37,115,39,33,35,237,43,07,30,078,40,7*73
$GAGSV,3,2,09,12,28,301,33,30,24,055,36,21,14,167,48,10,14,322,36,7*78
$GAGSV,3,3,09,26,10,192,45,7*44
$GAGSV,3,1,09,19,40,289,30,27,37,115,39,33,35,237,42,07,30,078,38,1*7A
$GAGSV,3,2,09,12,28,301,21,30,24,055,30,10,14,322,38,21,14,167,32,1*78
$GAGSV,3,3,09,26,10,192,35,1*45
$GBGSV,3,1,10,32,78,022,38,31,63,096,22,23,63,097,48,58,39,188,20,1*7A
$GBGSV,3,2,10,37,39,188,49,41,33,110,47,20,29,307,30,25,24,045,41,1*79
$GBGSV,3,3,10,29,06,290,29,30,03,240,26,1*78
$GBGSV,2,1,07,32,78,022,35,23,63,097,33,37,39,188,44,41,33,110,40,5*7A
$GBGSV,2,2,07,20,29,307,37,25,24,045,33,29,06,290,37,5*4E
$GNGGA,082657.000,4005.098596,N,10513.208478,W,2,58,0.41,1585.297,M,-20.670,M,,*73
$GPGSV,3,1,12,31,86,103,45,28,55,049,36,03,47,312,29,46,37,214,46,1*60
$GPGSV,3,2,12,26,34,146,46,02,28,243,43,32,25,081,41,21,24,227,49,1*6B
$GPGSV,3,3,12,04,24,282,42,25,13,042,35,16,07,170,48,10,07,139,50,1*6C
$GPGSV,2,1,07,28,55,049,33,03,47,312,41,26,34,146,46,32,25,081,30,8*65
$GPGSV,2,2,07,04,24,282,31,25,13,042,32,10,07,139,36,8*58
$GLGSV,3,1,09,78,56,067,42,68,54,063,39,69,47,330,39,79,46,164,47,1*72
$GLGSV,3,2,09,84,22,269,37,67,14,101,43,85,14,325,37,77,08,026,26,1*76
$GLGSV,3,3,09,80,01,191,44,1*41
$GAGSV,3,1,09,19,40,289,31,27,37,115,39,33,34,236,43,07,30,078,40,7*73
$GAGSV,3,2,09,12,28,301,32,30,24,055,36,21,14,167,48,10,14,322,36,7*79
$GAGSV,3,3,09,26,10,192,44,7*45
$GAGSV,3,1,09,19,40,289,30,27,37,115,39,33,34,236,42,07,30,078,38,1*7A
$GAGSV,3,2,09,12,28,301,21,30,24,055,30,10,14,322,39,21,14,167,33,1*78
$GAGSV,3,3,09,26,10,192,36,1*46
$GBGSV,3,1,10,32,78,022,38,31,63,096,22,23,63,097,48,58,39,188,20,1*7A
$GBGSV,3,2,10,37,39,188,49,41,33,110,47,20,29,307,32,25,24,045,41,1*7B
$GBGSV,3,3,10,29,06,290,21,30,03,240,18,1*7D
$GBGSV,2,1,07,32,78,022,36,23,63,097,34,37,39,188,45,41,33,110,41,5*7E
$GBGSV,2,2,07,20,29,307,37,25,24,045,33,29,06,290,37,5*4E
$GNGGA,082702.000,4005.098560,N,10513.208574,W,2,58,0.41,1585.523,M,-20.669,M,,*76
$GPGSV,3,1,12,31,86,103,45,28,55,049,36,03,47,312,31,46,37,214,46,1*69
$GPGSV,3,2,12,26,34,146,46,02,28,243,43,32,25,081,40,21,24,227,49,1*6A
$GPGSV,3,3,12,04,24,282,42,25,13,042,33,16,07,170,48,10,07,139,50,1*6A
$GPGSV,2,1,07,28,55,049,33,03,47,312,41,26,34,146,46,32,25,081,29,8*6D
$GPGSV,2,2,07,04,24,282,31,25,13,042,33,10,07,139,38,8*57
$GLGSV,3,1,09,78,56,067,43,68,54,065,40,69,48,332,39,79,46,164,47,1*76
$GLGSV,3,2,09,84,22,269,37,85,14,325,38,67,13,102,43,77,08,026,25,1*7E
$GLGSV,3,3,09,80,01,191,44,1*41
$GAGSV,3,1,09,19,40,289,31,27,37,115,39,33,34,236,43,07,30,078,40,7*73
$GAGSV,3,2,09,12,28,301,32,30,24,055,36,21,14,167,48,10,14,322,35,7*7A
$GAGSV,3,3,09,26,10,192,44,7*45
$GAGSV,3,1,09,19,40,289,30,27,37,115,40,33,34,236,42,07,30,078,38,1*74
$GAGSV,3,2,09,12,28,301,20,30,24,055,29,10,14,322,39,21,14,167,33,1*71
$GAGSV,3,3,09,26,10,192,35,1*45
$GBGSV,3,1,10,32,78,022,39,31,63,096,21,23,63,097,48,58,39,188,21,1*79
$GBGSV,3,2,10,37,39,188,49,41,33,110,47,20,29,307,33,25,24,045,41,1*7A
$GBGSV,3,3,10,29,06,290,21,30,03,240,18,1*7D
$GBGSV,2,1,07,32,78,022,35,23,63,097,34,37,39,188,44,41,33,110,41,5*7C
$GBGSV,2,2,07,20,29,307,37,25,24,045,33,29,06,290,37,5*4E
$GNGGA,082707.000,4005.098566,N,10513.208574,W,2,58,0.41,1585.817,M,-20.670,M,,*77
$GPGSV,3,1,12,31,86,103,45,28,55,049,36,03,47,312,33,46,37,214,46,1*6B
$GPGSV,3,2,12,26,34,146,46,02,28,243,43,32,25,081,40,21,24,227,49,1*6A
$GPGSV,3,3,12,04,24,282,42,25,13,042,32,16,07,170,48,10,07,139,50,1*6B
$GPGSV,2,1,07,28,55,049,32,03,47,312,41,26,34,146,46,32,25,081,29,8*6C
$GPGSV,2,2,07,04,24,282,31,25,13,042,33,10,07,139,39,8*56
$GLGSV,3,1,09,78,56,067,43,68,54,065,38,69,48,332,38,79,46,164,47,1*78
$GLGSV,3,2,09,84,22,269,37,85,14,325,38,67,13,102,43,77,08,026,24,1*7F
$GLGSV,3,3,09,80,01,191,47,1*42
$GAGSV,3,1,09,19,40,289,31,27,37,115,39,33,34,236,43,07,30,078,40,7*73
$GAGSV,3,2,09,12,28,301,32,30,24,055,36,21,14,167,48,10,14,322,35,7*7A
$GAGSV,3,3,09,26,10,192,44,7*45
$GAGSV,3,1,09,19,40,289,30,27,37,115,40,33,34,236,42,07,30,078,38,1*74
$GAGSV,3,2,09,12,28,301,20,30,24,055,29,10,14,322,39,21,14,167,33,1*71
$GAGSV,3,3,09,26,10,192,35,1*45
$GBGSV,3,1,10,32,78,022,39,31,63,096,21,23,63,097,48,58,39,188,21,1*79
$GBGSV,3,2,10,37,39,188,49,41,33,110,47,20,29,307,34,25,24,045,41,1*7D
$GBGSV,3,3,10,29,06,290,26,30,03,240,20,1*71
$GBGSV,2,1,07,32,78,022,35,23,63,097,34,37,39,188,44,41,33,110,41,5*7C
$GBGSV,2,2,07,20,29,307,37,25,24,045,33,29,06,290,37,5*4E
$GNGGA,082712.000,4005.098596,N,10513.208508,W,2,58,0.41,1585.998,M,-20.670,M,,*71
$GPGSV,3,1,12,31,86,103,45,28,55,049,36,03,47,312,34,46,37,214,46,1*6C
$GPGSV,3,2,12,26,34,146,46,02,28,243,43,32,25,081,39,21,24,227,49,1*64
$GPGSV,3,3,12,04,24,282,42,25,13,042,30,16,07,170,48,10,07,139,50,1*69
$GPGSV,2,1,07,28,55,049,32,03,47,312,41,26,34,146,46,32,25,081,29,8*6C
$GPGSV,2,2,07,04,24,282,31,25,13,042,33,10,07,139,39,8*56
$GLGSV,3,1,09,78,56,064,43,68,54,065,38,69,48,332,38,79,47,163,47,1*7D
$GLGSV,3,2,09,84,22,269,37,85,14,325,38,67,13,102,43,77,06,025,25,1*73
$GLGSV,3,3,09,80,01,191,47,1*42
$GAGSV,3,1,09,19,40,289,31,27,37,115,39,33,34,236,43,07,30,078,40,7*73
$GAGSV,3,2,09,12,28,301,32,30,24,055,36,21,14,167,48,10,14,322,35,7*7A
$GAGSV,3,3,09,26,10,192,43,7*42
$GAGSV,3,1,09,19,40,289,30,27,37,115,40,33,34,236,42,07,30,078,38,1*74
$GAGSV,3,2,09,12,28,301,20,30,24,055,29,10,14,322,39,21,14,167,34,1*76
$GAGSV,3,3,09,26,10,192,35,1*45
$GBGSV,3,1,10,32,78,022,39,23,63,097,48,31,63,096,21,58,39,188,21,1*79
$GBGSV,3,2,10,37,39,188,50,41,33,110,47,20,29,307,36,25,24,045,41,1*77
$GBGSV,3,3,10,29,06,290,26,30,03,240,16,1*74
$GBGSV,2,1,07,32,78,022,35,23,63,097,34,37,39,188,44,41,33,110,41,5*7C
$GBGSV,2,2,07,20,29,307,37,25,24,045,33,29,06,290,37,5*4E
$GNGGA,082717.000,4005.098680,N,10513.208436,W,2,57,0.41,1586.084,M,-20.669,M,,*7C
$GPGSV,3,1,12,31,86,103,45,28,55,049,35,03,47,312,34,46,37,214,46,1*6F
$GPGSV,3,2,12,26,34,146,46,02,28,243,43,32,25,081,39,21,24,227,49,1*64
$GPGSV,3,3,12,04,24,282,42,25,13,042,26,16,07,170,48,10,07,139,50,1*6E
$GPGSV,2,1,07,28,55,049,33,03,47,312,42,26,34,146,46,32,25,081,29,8*6E
$GPGSV,2,2,07,04,24,282,31,25,13,042,32,10,07,139,39,8*57
$GLGSV,3,1,09,78,56,064,43,68,54,065,37,69,48,332,38,79,47,163,47,1*72
$GLGSV,3,2,09,84,21,267,37,85,14,325,36,67,13,102,43,77,06,025,24,1*71
$GLGSV,3,3,09,80,02,191,46,1*40
$GAGSV,3,1,09,19,40,289,32,27,37,115,39,33,34,236,43,07,30,078,40,7*70
$GAGSV,3,2,09,12,28,301,33,30,24,055,35,21,14,167,48,10,14,322,34,7*79
$GAGSV,3,3,09,26,10,192,43,7*42
$GAGSV,3,1,09,19,40,289,29,27,37,115,40,33,34,236,42,07,30,078,38,1*7C
$GAGSV,3,2,09,12,28,301,20,30,24,055,29,10,14,322,39,21,14,167,34,1*76
$GAGSV,3,3,09,26,10,192,34,1*44
$GBGSV,3,1,10,32,78,022,39,23,63,097,48,31,63,096,21,58,39,188,21,1*79
$GBGSV,3,2,10,37,39,188,50,41,33,110,47,20,29,307,36,25,24,045,40,1*76
$GBGSV,3,3,10,29,06,290,27,30,03,240,20,1*70
$GBGSV,2,1,07,32,78,022,35,23,63,097,34,37,39,188,44,41,33,110,41,5*7C
$GBGSV,2,2,07,20,29,307,36,25,24,045,32,29,06,290,37,5*4E
$GNGGA,082722.000,4005.098740,N,10513.208382,W,2,57,0.41,1586.270,M,-20.670,M,,*7E
$GPGSV,3,1,12,31,86,103,45,28,55,049,35,03,47,312,34,46,37,214,46,1*6F
$GPGSV,3,2,12,26,34,146,46,02,28,243,44,32,25,081,39,21,24,227,49,1*63
$GPGSV,3,3,12,04,24,282,43,25,13,042,22,16,07,170,49,10,07,139,50,1*6A
$GPGSV,2,1,07,28,55,049,33,03,47,312,42,26,34,146,46,32,25,081,29,8*6E
$GPGSV,2,2,07,04,24,282,31,25,13,042,33,10,07,139,41,8*59
$GLGSV,3,1,09,78,56,064,43,68,54,065,36,69,48,332,36,79,47,163,47,1*7D
$GLGSV,3,2,09,84,21,267,36,85,14,324,37,67,13,102,43,77,06,025,24,1*70
$GLGSV,3,3,09,80,02,191,47,1*41
$GAGSV,3,1,09,19,40,289,32,27,37,115,39,33,34,236,43,07,30,078,40,7*70
$GAGSV,3,2,09,12,28,301,34,30,24,055,35,21,14,167,48,10,14,322,34,7*7E
$GAGSV,3,3,09,26,10,192,42,7*43
$GAGSV,3,1,09,19,40,289,29,27,37,115,40,33,34,236,42,07,30,078,38,1*7C
$GAGSV,3,2,09,12,28,301,20,30,24,055,29,10,14,322,39,21,14,167,34,1*76
$GAGSV,3,3,09,26,10,192,34,1*44
$GBGSV,3,1,10,32,78,022,39,23,63,097,47,31,63,096,21,58,39,188,20,1*77
$GBGSV,3,2,10,37,39,188,50,41,33,110,47,20,29,307,36,25,24,045,40,1*76
$GBGSV,3,3,10,29,06,290,31,30,03,240,21,1*76
$GBGSV,2,1,07,32,78,022,35,23,63,097,34,37,39,188,44,41,33,110,41,5*7C
$GBGSV,2,2,07,20,29,307,36,25,24,045,32,29,06,290,37,5*4E
$GNGGA,082727.000,4005.098776,N,10513.208376,W,2,57,0.41,1586.442,M,-20.670,M,,*72
$GPGSV,3,1,12,31,86,103,45,28,55,049,37,03,47,312,35,46,37,214,45,1*6F
$GPGSV,3,2,12,26,34,146,46,02,28,243,44,32,25,081,39,21,24,227,49,1*63
$GPGSV,3,3,12,04,24,282,43,25,13,042,22,16,07,170,49,10,07,139,50,1*6A
$GPGSV,2,1,07,28,55,049,33,03,47,312,42,26,34,146,46,32,25,081,27,8*60
$GPGSV,2,2,07,04,24,282,31,25,13,042,32,10,07,139,41,8*58
$GLGSV,3,1,09,78,56,064,43,68,54,065,36,69,48,332,36,79,47,163,47,1*7D
$GLGSV,3,2,09,84,21,267,36,85,14,324,37,67,13,102,43,77,06,025,25,1*71
$GLGSV,3,3,09,80,02,191,48,1*4E
$GAGSV,3,1,09,19,40,289,32,27,37,115,39,33,34,236,43,07,30,078,40,7*70
$GAGSV,3,2,09,12,28,301,34,30,24,055,36,21,14,167,48,10,14,322,34,7*7D
$GAGSV,3,3,09,26,10,192,41,7*40
$GAGSV,3,1,09,19,40,289,28,27,37,115,39,33,34,236,42,07,30,078,38,1*73
$GAGSV,3,2,09,12,28,301,20,30,24,055,29,10,14,322,38,21,14,167,34,1*77
$GAGSV,3,3,09,26,10,192,33,1*43
$GBGSV,3,1,10,32,78,022,36,23,63,097,47,31,63,096,20,58,39,188,20,1*79
$GBGSV,3,2,10,37,39,188,50,41,33,110,47,20,29,307,36,25,24,045,39,1*78
$GBGSV,3,3,10,29,06,290,31,30,03,240,18,1*7C
$GBGSV,2,1,07,32,78,022,35,23,63,097,34,37,39,188,44,41,33,110,41,5*7C
$GBGSV,2,2,07,20,29,307,36,25,24,045,32,29,06,290,36,5*4F
$GNGGA,082732.000,4005.098824,N,10513.208364,W,2,58,0.41,1586.565,M,-20.670,M,,*76
$GPGSV,3,1,12,31,86,103,45,28,55,049,38,03,47,312,36,46,37,214,45,1*63
$GPGSV,3,2,12,26,34,146,46,02,28,243,44,32,25,081,39,21,24,227,49,1*63
$GPGSV,3,3,12,04,24,282,43,25,13,042,28,16,07,170,49,10,07,139,51,1*61
$GPGSV,2,1,07,28,55,049,33,03,47,312,42,26,34,146,46,32,25,081,28,8*6F
$GPGSV,2,2,07,04,24,282,31,25,13,042,32,10,07,139,41,8*58
$GLGSV,3,1,09,78,56,064,43,68,54,065,37,69,48,332,36,79,47,163,47,1*7C
$GLGSV,3,2,09,84,21,267,36,85,14,324,38,67,13,102,43,77,06,025,27,1*7C
$GLGSV,3,3,09,80,02,191,48,1*4E
$GAGSV,3,1,09,19,40,289,31,27,37,115,39,33,34,236,43,07,30,078,40,7*73
$GAGSV,3,2,09,12,28,301,34,30,24,055,37,21,14,167,48,10,14,322,34,7*7C
$GAGSV,3,3,09,26,10,192,42,7*43
$GAGSV,3,1,09,19,40,289,28,27,37,115,39,33,34,236,43,07,30,078,38,1*72
$GAGSV,3,2,09,12,28,301,20,30,24,055,30,10,14,322,38,21,14,167,36,1*7D
$GAGSV,3,3,09,26,10,192,33,1*43
$GBGSV,3,1,10,32,78,022,35,23,63,097,47,31,63,096,20,58,39,188,20,1*7A
$GBGSV,3,2,10,37,39,188,50,41,33,110,47,20,29,307,37,25,24,045,39,1*79
$GBGSV,3,3,10,29,06,290,31,30,03,240,19,1*7D
$GBGSV,2,1,07,32,78,022,35,23,63,097,35,37,39,188,44,41,33,110,41,5*7D
$GBGSV,2,2,07,20,29,307,36,25,24,045,34,29,06,290,36,5*49
$GNGGA,082737.000,4005.098860,N,10513.208352,W,2,58,0.41,1586.617,M,-20.669,M,,*78
$GPGSV,3,1,12,31,86,103,45,28,55,049,38,03,47,312,36,46,37,214,45,1*63
$GPGSV,3,2,12,26,34,146,46,02,28,243,44,32,25,081,39,21,24,227,49,1*63
$GPGSV,3,3,12,04,24,282,44,25,13,042,32,16,07,170,49,10,07,139,51,1*6D
$GPGSV,2,1,07,28,55,049,33,03,47,312,42,26,34,146,46,32,25,081,28,8*6F
$GPGSV,2,2,07,04,24,282,31,25,13,042,32,10,07,139,41,8*58
$GLGSV,3,1,09,78,56,064,43,68,54,065,37,69,48,332,36,79,47,163,47,1*7C
$GLGSV,3,2,09,84,21,267,37,85,14,324,39,67,13,102,43,77,06,025,27,1*7C
$GLGSV,3,3,09,80,02,191,47,1*41
$GAGSV,3,1,09,19,40,289,31,27,37,115,39,33,34,236,43,07,30,078,40,7*73
$GAGSV,3,2,09,12,28,301,34,30,24,055,38,21,14,167,48,10,14,322,34,7*73
$GAGSV,3,3,09,26,10,192,42,7*43
$GAGSV,3,1,09,19,40,289,28,27,37,115,39,33,34,236,43,07,30,078,38,1*72
$GAGSV,3,2,09,12,28,301,22,30,24,055,31,10,14,322,38,21,14,167,36,1*7E
$GAGSV,3,3,09,26,10,192,34,1*44
$GBGSV,3,1,10,32,78,022,35,23,63,097,47,31,63,096,20,58,39,188,21,1*7B
$GBGSV,3,2,10,37,39,188,50,41,33,110,47,20,29,307,37,25,24,045,39,1*79
$GBGSV,3,3,10,29,06,290,31,30,03,240,17,1*73
$GBGSV,2,1,07,32,78,022,35,23,63,097,35,37,39,188,44,41,33,110,41,5*7D
$GBGSV,2,2,07,20,29,307,36,25,24,045,34,29,06,290,36,5*49
$GNGGA,082742.000,4005.098872,N,10513.208358,W,2,58,0.41,1586.551,M,-20.670,M,,*7A
$GPGSV,3,1,12,31,86,103,45,28,55,049,38,03,47,312,36,46,37,214,45,1*63
$GPGSV,3,2,12,26,34,146,46,02,28,243,44,32,25,081,39,21,24,227,49,1*63
$GPGSV,3,3,12,04,24,282,44,25,13,042,32,16,07,170,49,10,07,139,51,1*6D
$GPGSV,2,1,07,28,55,049,33,03,47,312,42,26,34,146,46,32,25,081,28,8*6F
$GPGSV,2,2,07,04,24,282,31,25,13,042,32,10,07,139,42,8*5B
$GLGSV,3,1,09,78,56,064,43,68,54,065,37,69,48,332,36,79,47,163,47,1*7C
$GLGSV,3,2,09,84,21,267,37,85,14,324,37,67,13,102,43,77,06,025,29,1*7C
$GLGSV,3,3,09,80,02,191,49,1*4F
$GAGSV,3,1,09,19,40,289,31,27,37,115,39,33,34,236,44,07,30,078,40,7*74
$GAGSV,3,2,09,12,28,301,34,30,24,055,38,21,14,167,48,10,14,322,35,7*72
$GAGSV,3,3,09,26,10,192,40,7*41
$GAGSV,3,1,09,19,40,289,28,27,37,115,39,33,34,236,43,07,30,078,38,1*72
$GAGSV,3,2,09,12,28,301,21,30,24,055,31,10,14,322,38,21,14,167,36,1*7D
$GAGSV,3,3,09,26,10,192,34,1*44
$GBGSV,3,1,10,32,78,022,37,23,63,097,47,31,63,096,20,58,39,188,21,1*79
$GBGSV,3,2,10,37,39,188,50,41,33,110,47,20,30,307,37,25,24,045,39,1*71
$GBGSV,3,3,10,29,06,290,30,30,03,240,16,1*73
$GBGSV,2,1,07,32,78,022,35,23,63,097,35,37,39,188,44,41,33,110,41,5*7D
$GBGSV,2,2,07,20,30,307,36,25,24,045,34,29,06,290,36,5*41
$GNGGA,082747.000,4005.098872,N,10513.208352,W,2,58,0.41,1586.681,M,-20.669,M,,*73
$GPGSV,3,1,12,31,86,103,45,28,55,049,38,03,47,312,36,46,37,214,45,1*63
$GPGSV,3,2,12,26,34,146,46,02,28,243,44,32,25,081,39,21,24,227,49,1*63
$GPGSV,3,3,12,04,24,282,44,25,13,042,32,16,07,170,49,10,07,139,51,1*6D
$GPGSV,2,1,07,28,55,049,33,03,47,312,42,26,34,146,46,32,25,081,28,8*6F
$GPGSV,2,2,07,04,24,282,31,25,13,042,32,10,07,139,42,8*5B
$GLGSV,3,1,09,78,56,064,43,68,54,065,38,69,48,332,36,79,47,163,47,1*73
$GLGSV,3,2,09,84,21,267,37,85,14,324,36,67,13,102,44,77,06,025,29,1*7A
$GLGSV,3,3,09,80,02,191,49,1*4F
$GAGSV,3,1,09,19,40,289,31,27,37,115,39,33,34,236,44,07,30,078,40,7*74
$GAGSV,3,2,09,12,28,301,34,30,24,055,38,21,14,167,48,10,14,322,35,7*72
$GAGSV,3,3,09,26,10,192,40,7*41
$GAGSV,3,1,09,19,40,289,27,27,37,115,39,33,34,236,43,07,30,078,37,1*72
$GAGSV,3,2,09,12,28,301,22,30,24,055,31,10,14,322,37,21,14,167,36,1*71
$GAGSV,3,3,09,26,10,192,34,1*44
$GBGSV,3,1,10,32,78,022,37,23,63,094,47,31,63,096,20,58,39,188,22,1*79
$GBGSV,3,2,10,37,39,188,50,41,33,110,47,20,30,307,37,25,23,045,39,1*76
$GBGSV,3,3,10,29,06,290,25,30,03,240,10,1*71
$GBGSV,2,1,07,32,78,022,35,23,63,094,35,37,39,188,43,41,33,110,41,5*79
$GBGSV,2,2,07,20,30,307,36,25,23,045,32,29,06,290,36,5*40
$GNGGA,082752.000,4005.098884,N,10513.208370,W,2,58,0.41,1586.856,M,-20.670,M,,*72
$GPGSV,3,1,12,31,86,103,45,28,55,049,38,03,47,312,36,46,37,214,45,1*63
$GPGSV,3,2,12,26,34,146,46,02,28,243,44,32,25,081,38,21,24,227,49,1*62
$GPGSV,3,3,12,04,24,282,44,25,13,042,31,16,07,170,49,10,07,139,51,1*6E
$GPGSV,2,1,07,28,55,049,33,03,47,312,42,26,34,146,46,32,25,081,26,8*61
$GPGSV,2,2,07,04,24,282,32,25,13,042,34,10,07,139,42,8*5E
$GLGSV,3,1,09,78,56,064,43,68,54,065,38,69,48,332,36,79,47,163,47,1*73
$GLGSV,3,2,09,84,21,267,37,85,14,324,36,67,13,102,44,77,06,025,29,1*7A
$GLGSV,3,3,09,80,02,191,49,1*4F
$GAGSV,3,1,09,19,40,289,31,27,37,115,39,33,34,236,44,07,30,078,40,7*74
$GAGSV,3,2,09,12,28,301,34,30,24,055,38,21,14,167,48,10,14,322,35,7*72
$GAGSV,3,3,09,26,10,192,42,7*43
$GAGSV,3,1,09,19,40,289,28,27,37,115,40,33,34,236,43,07,30,078,37,1*73
$GAGSV,3,2,09,12,28,301,23,30,24,055,32,10,14,322,37,21,14,167,37,1*72
$GAGSV,3,3,09,26,10,192,35,1*45
$GBGSV,3,1,10,32,78,022,37,23,63,094,46,31,63,094,20,58,39,188,22,1*7A
$GBGSV,3,2,10,37,39,188,50,41,33,110,47,20,30,307,37,25,23,045,38,1*77
$GBGSV,3,3,10,29,05,289,17,30,02,240,,1*7B
$GBGSV,2,1,07,32,78,022,35,23,63,094,35,37,39,188,43,41,33,110,42,5*7A
$GBGSV,2,2,07,20,30,307,36,25,23,045,32,29,05,289,36,5*4B
$GNGGA,082757.000,4005.098902,N,10513.208334,W,2,58,0.41,1587.030,M,-20.670,M,,*71
$GPGSV,3,1,12,31,86,103,45,28,55,049,38,03,47,312,36,46,37,214,45,1*63
$GPGSV,3,2,12,26,34,146,46,02,28,243,45,32,25,081,37,21,24,227,49,1*6C
$GPGSV,3,3,12,04,24,282,44,25,13,042,31,16,07,170,49,10,07,139,51,1*6E
$GPGSV,2,1,07,28,55,049,33,03,47,312,42,26,34,146,46,32,25,081,26,8*61
$GPGSV,2,2,07,04,24,282,32,25,13,042,34,10,07,139,43,8*5F
$GLGSV,3,1,09,78,56,064,42,68,54,065,38,69,48,332,36,79,47,163,47,1*72
$GLGSV,3,2,09,84,21,267,37,85,14,324,37,67,13,102,44,77,06,025,29,1*7B
$GLGSV,3,3,09,80,02,191,49,1*4F
$GAGSV,3,1,09,19,40,289,31,27,37,115,39,33,34,236,44,07,30,078,40,7*74
$GAGSV,3,2,09,12,28,301,33,30,24,055,38,21,14,167,48,10,14,322,35,7*75
$GAGSV,3,3,09,26,10,192,42,7*43
$GAGSV,3,1,09,19,40,289,28,27,37,115,40,33,34,236,43,07,30,078,37,1*73
$GAGSV,3,2,09,12,28,301,23,30,24,055,32,10,14,322,37,21,14,167,38,1*7D
$GAGSV,3,3,09,26,10,192,34,1*44
$GBGSV,3,1,10,32,78,027,37,23,63,094,46,31,63,094,20,58,39,188,23,1*7E
$GBGSV,3,2,10,37,39,188,51,41,33,110,47,20,30,307,37,25,23,045,38,1*76
$GBGSV,3,3,10,29,05,289,20,30,02,240,12,1*7C
$GBGSV,2,1,07,32,78,027,35,23,63,094,35,37,39,188,43,41,33,110,42,5*7F
$GBGSV,2,2,07,20,30,307,36,25,23,045,32,29,05,289,36,5*4B
$GNGGA,082802.000,4005.098890,N,10513.208310,W,2,58,0.41,1587.198,M,-20.670,M,,*71
$GPGSV,3,1,12,31,86,103,45,28,55,049,38,03,47,312,36,46,37,214,45,1*63
$GPGSV,3,2,12,26,34,146,46,02,28,243,45,32,25,081,37,21,24,227,49,1*6C
$GPGSV,3,3,12,04,24,282,44,25,13,042,31,16,07,170,49,10,07,139,51,1*6E
$GPGSV,2,1,07,28,55,049,33,03,47,312,42,26,34,146,46,32,25,081,26,8*61
$GPGSV,2,2,07,04,24,282,33,25,13,042,35,10,07,139,44,8*58
$GLGSV,3,1,09,78,56,064,41,68,54,065,36,69,48,332,35,79,47,163,47,1*7C
$GLGSV,3,2,09,84,21,267,35,85,14,324,37,67,13,102,44,77,06,025,29,1*79
$GLGSV,3,3,09,80,02,191,50,1*47
$GAGSV,3,1,09,19,40,289,32,27,37,115,40,33,34,236,44,07,30,078,40,7*79
$GAGSV,3,2,09,12,28,301,33,30,24,055,38,21,14,167,48,10,14,322,34,7*74
$GAGSV,3,3,09,26,10,192,40,7*41
$GAGSV,3,1,09,19,40,289,28,27,37,115,40,33,34,236,43,07,30,078,37,1*73
$GAGSV,3,2,09,12,28,301,23,30,24,055,33,10,14,322,37,21,14,167,38,1*7C
$GAGSV,3,3,09,26,10,192,35,1*45
$GBGSV,3,1,10,32,78,027,37,23,63,094,46,31,63,094,18,37,40,188,51,1*77
$GBGSV,3,2,10,58,39,188,23,41,32,111,47,20,30,307,39,25,23,045,38,1*74
$GBGSV,3,3,10,29,05,289,24,30,02,240,,1*7B
$GBGSV,2,1,07,32,78,027,35,23,63,094,35,37,40,188,43,41,32,111,42,5*71
$GBGSV,2,2,07,20,30,307,36,25,23,045,32,29,05,289,36,5*4B
$GNGGA,082807.000,4005.098896,N,10513.208262,W,2,58,0.41,1587.328,M,-20.669,M,,*77
$GPGSV,3,1,12,31,86,103,45,28,55,049,37,03,47,312,36,46,37,214,45,1*6C
$GPGSV,3,2,12,26,34,146,46,02,28,243,45,32,25,081,37,21,24,227,49,1*6C
$GPGSV,3,3,12,04,24,282,44,25,13,042,31,16,07,170,49,10,07,139,51,1*6E
$GPGSV,2,1,07,28,55,049,33,03,47,312,42,26,34,146,47,32,25,081,27,8*61
$GPGSV,2,2,07,04,24,282,33,25,13,042,36,10,07,139,44,8*5B
$GLGSV,3,1,09,78,56,064,39,68,54,065,35,69,48,332,35,79,47,163,47,1*70
$GLGSV,3,2,09,84,21,267,34,85,14,324,37,67,13,102,44,77,06,025,29,1*78
$GLGSV,3,3,09,80,02,191,51,1*46
$GAGSV,3,1,09,19,40,289,32,27,37,115,40,33,34,236,44,07,30,078,40,7*79
$GAGSV,3,2,09,12,28,301,33,30,24,055,37,21,14,167,48,10,14,322,33,7*7C
$GAGSV,3,3,09,26,10,192,40,7*41
$GAGSV,3,1,09,19,40,289,28,27,37,115,40,33,34,236,43,07,30,078,36,1*72
$GAGSV,3,2,09,12,28,301,23,30,24,055,33,10,14,322,38,21,14,167,38,1*73
$GAGSV,3,3,09,26,10,192,35,1*45
$GBGSV,3,1,10,32,78,027,37,23,63,094,46,31,63,094,18,37,40,188,51,1*77
$GBGSV,3,2,10,58,39,188,20,41,32,111,46,20,30,307,40,25,23,045,38,1*78
$GBGSV,3,3,10,29,05,289,20,30,02,240,,1*7F
$GBGSV,2,1,07,32,78,027,35,23,63,094,35,37,40,188,43,41,32,111,42,5*71
$GBGSV,2,2,07,20,30,307,36,25,23,045,32,29,05,289,37,5*4A
$GNGGA,082812.000,4005.098878,N,10513.208214,W,2,58,0.41,1587.448,M,-20.670,M,,*7B
$GPGSV,3,1,12,31,86,103,44,28,55,049,37,03,47,312,36,46,37,214,45,1*6D
$GPGSV,3,2,12,26,34,146,46,02,28,243,45,32,25,081,37,21,24,227,49,1*6C
$GPGSV,3,3,12,04,24,282,44,25,13,042,30,16,07,170,49,10,07,139,51,1*6F
$GPGSV,2,1,07,28,55,049,33,03,47,312,42,26,34,146,47,32,25,081,27,8*61
$GPGSV,2,2,07,04,24,282,34,25,13,042,36,10,07,139,44,8*5C
$GLGSV,3,1,09,78,56,064,40,68,54,065,34,69,48,332,36,79,47,163,47,1*7C
$GLGSV,3,2,09,84,21,267,36,85,14,324,37,67,13,102,44,77,06,025,29,1*7A
$GLGSV,3,3,09,80,02,191,51,1*46
$GAGSV,3,1,09,19,40,289,32,27,37,115,41,33,34,236,44,07,30,078,40,7*78
$GAGSV,3,2,09,12,28,301,33,30,24,055,37,21,14,167,48,10,14,322,31,7*7E
$GAGSV,3,3,09,26,10,192,42,7*43
$GAGSV,3,1,09,19,40,289,27,27,37,115,40,33,34,236,43,07,30,078,36,1*7D
$GAGSV,3,2,09,12,28,301,23,30,24,055,34,10,14,322,38,21,14,167,38,1*74
$GAGSV,3,3,09,26,10,192,35,1*45
$GBGSV,3,1,10,32,78,027,37,23,63,094,46,31,63,094,20,37,40,188,51,1*7C
$GBGSV,3,2,10,58,39,188,22,41,32,111,46,20,30,307,40,25,23,045,35,1*77
$GBGSV,3,3,10,29,05,289,29,30,02,240,,1*76
$GBGSV,2,1,07,32,78,027,35,23,63,094,34,37,40,188,43,41,32,111,42,5*70
$GBGSV,2,2,07,20,30,307,36,25,23,045,32,29,05,289,37,5*4A
$GNGGA,082817.000,4005.098866,N,10513.208154,W,2,58,0.41,1587.663,M,-20.670,M,,*7D
$GPGSV,3,1,12,31,86,103,44,28,55,049,37,03,47,312,38,46,37,214,45,1*63
$GPGSV,3,2,12,26,34,146,46,02,28,243,45,32,25,081,37,21,24,227,49,1*6C
$GPGSV,3,3,12,04,24,282,44,25,13,042,31,16,07,170,49,10,07,139,51,1*6E
$GPGSV,2,1,07,28,55,049,33,03,47,312,42,26,34,146,47,32,25,081,27,8*61
$GPGSV,2,2,07,04,24,282,34,25,13,042,36,10,07,139,44,8*5C
$GLGSV,3,1,09,78,56,064,41,68,54,065,36,69,48,332,34,79,47,163,47,1*7D
$GLGSV,3,2,09,84,21,267,37,85,14,324,38,67,13,102,44,77,06,025,30,1*7C
$GLGSV,3,3,09,80,02,191,51,1*46
$GAGSV,3,1,09,19,40,289,32,27,37,115,41,33,34,236,44,07,30,078,40,7*78
$GAGSV,3,2,09,12,28,301,34,30,24,055,37,21,14,167,48,10,14,322,31,7*79
$GAGSV,3,3,09,26,10,192,41,7*40
$GAGSV,3,1,09,19,40,289,28,27,37,115,40,33,34,236,43,07,30,078,36,1*72
$GAGSV,3,2,09,12,28,301,23,30,24,055,34,10,14,322,38,21,14,167,38,1*74
$GAGSV,3,3,09,26,10,192,36,1*46
$GBGSV,3,1,10,32,78,027,37,23,63,094,46,31,63,094,20,37,40,188,51,1*7C
$GBGSV,3,2,10,58,39,188,22,41,32,111,46,20,30,307,39,25,23,045,31,1*7D
$GBGSV,3,3,10,29,05,289,20,30,02,240,,1*7F
$GBGSV,2,1,07,32,78,027,35,23,63,094,34,37,40,188,43,41,32,111,42,5*70
$GBGSV,2,2,07,20,30,307,36,25,23,045,32,29,05,289,37,5*4A
$GNGGA,082822.000,4005.098842,N,10513.208106,W,2,58,0.41,1587.800,M,-20.670,M,,*71
$GPGSV,3,1,12,31,86,103,44,28,55,049,37,03,47,312,38,46,37,214,45,1*63
$GPGSV,3,2,12,26,34,146,46,02,28,243,46,32,25,081,36,21,24,227,49,1*6E
$GPGSV,3,3,12,04,24,282,44,25,13,042,31,16,07,170,50,10,07,139,51,1*66
$GPGSV,2,1,07,28,55,049,33,03,47,312,42,26,34,146,47,32,25,081,27,8*61
$GPGSV,2,2,07,04,24,282,35,25,13,042,36,10,07,139,45,8*5C
$GLGSV,3,1,09,78,56,064,42,68,54,065,36,69,48,332,31,79,47,163,47,1*7B
$GLGSV,3,2,09,84,21,267,37,85,14,324,36,67,13,102,44,77,06,025,30,1*72
$GLGSV,3,3,09,80,02,191,51,1*46
$GAGSV,3,1,09,19,40,289,32,27,37,115,41,33,34,236,44,07,30,078,40,7*78
$GAGSV,3,2,09,12,28,301,34,30,24,055,37,21,14,167,48,10,14,322,31,7*79
$GAGSV,3,3,09,26,10,192,41,7*40
$GAGSV,3,1,09,19,40,289,27,27,37,115,40,33,34,236,43,07,30,078,36,1*7D
$GAGSV,3,2,09,12,28,301,22,30,24,055,34,10,14,322,38,21,14,167,39,1*74
$GAGSV,3,3,09,26,10,192,36,1*46
$GBGSV,3,1,10,32,78,027,37,23,63,094,46,31,63,094,19,58,40,188,21,1*78
$GBGSV,3,2,10,37,40,188,51,41,32,111,46,20,30,307,39,25,23,045,29,1*77
$GBGSV,3,3,10,29,05,289,18,30,02,240,,1*74
$GBGSV,2,1,07,32,78,027,35,23,63,094,34,37,40,188,43,41,32,111,42,5*70
$GBGSV,2,2,07,20,30,307,36,25,23,045,32,29,05,289,37,5*4A
$GNGGA,082827.000,4005.098836,N,10513.208094,W,2,58,0.41,1587.856,M,-20.669,M,,*76
$GPGSV,3,1,12,31,86,103,44,28,55,049,38,03,49,312,38,46,37,214,46,1*61
$GPGSV,3,2,12,26,34,146,46,02,28,242,46,32,25,081,36,21,24,227,49,1*6F
$GPGSV,3,3,12,04,24,282,44,25,13,042,33,16,07,170,50,10,07,139,51,1*64
$GPGSV,2,1,07,28,55,049,33,03,49,312,42,26,34,146,47,32,25,081,25,8*6D
$GPGSV,2,2,07,04,24,282,35,25,13,042,36,10,07,139,45,8*5C
$GLGSV,3,1,09,78,56,064,42,68,54,065,36,69,48,332,32,79,47,163,46,1*79
$GLGSV,3,2,09,84,21,267,36,85,14,324,36,67,13,102,44,77,06,025,30,1*73
$GLGSV,3,3,09,80,02,191,51,1*46
$GAGSV,3,1,09,19,40,289,32,27,37,115,41,33,34,236,44,07,30,078,40,7*78
$GAGSV,3,2,09,12,28,301,34,30,24,055,37,21,14,167,48,10,14,322,31,7*79
$GAGSV,3,3,09,26,10,192,42,7*43
$GAGSV,3,1,09,19,40,289,27,27,37,115,40,33,34,236,43,07,30,078,36,1*7D
$GAGSV,3,2,09,12,28,301,21,30,24,055,34,10,14,322,38,21,14,167,39,1*77
$GAGSV,3,3,09,26,10,192,36,1*46
$GBGSV,3,1,10,32,78,027,36,23,63,094,46,31,63,094,19,58,40,188,21,1*79
$GBGSV,3,2,10,37,40,188,51,41,32,111,46,20,30,307,40,25,23,045,29,1*79
$GBGSV,3,3,10,29,05,289,25,30,02,240,,1*7A
$GBGSV,2,1,07,32,78,027,35,23,63,094,34,37,40,188,43,41,32,111,42,5*70
$GBGSV,2,2,07,20,30,307,35,25,23,045,30,29,05,289,36,5*4A
$GNGGA,082832.000,4005.098812,N,10513.208082,W,2,58,0.41,1587.874,M,-20.670,M,,*7B
$GPGSV,3,1,12,31,86,103,44,28,55,049,38,03,49,312,38,46,37,214,46,1*61
$GPGSV,3,2,12,26,34,146,46,02,28,242,46,32,25,081,36,04,25,283,44,1*6A
$GPGSV,3,3,12,21,24,227,49,25,13,042,34,16,07,170,50,10,07,139,51,1*66
$GPGSV,2,1,07,28,55,049,33,03,49,312,42,26,34,146,47,32,25,081,24,8*6C
$GPGSV,2,2,07,04,25,283,35,25,13,042,36,10,07,139,45,8*5C
$GLGSV,3,1,09,78,56,064,42,68,54,065,37,69,48,332,33,79,47,163,46,1*79
$GLGSV,3,2,09,84,21,267,36,85,14,324,37,67,13,102,44,77,06,025,30,1*72
$GLGSV,3,3,09,80,02,191,51,1*46
$GAGSV,3,1,09,19,40,289,32,27,37,115,41,33,34,236,45,07,30,078,40,7*79
$GAGSV,3,2,09,12,28,301,34,30,24,055,37,21,14,167,48,10,14,322,33,7*7B
$GAGSV,3,3,09,26,10,192,42,7*43
$GAGSV,3,1,09,19,40,289,26,27,37,115,40,33,34,236,43,07,30,078,36,1*7C
$GAGSV,3,2,09,12,28,301,20,30,24,055,34,10,14,322,39,21,14,167,39,1*77
$GAGSV,3,3,09,26,10,192,37,1*47
$GBGSV,3,1,10,32,78,027,36,23,63,094,46,31,63,094,19,58,40,188,22,1*7A
$GBGSV,3,2,10,37,40,188,51,41,32,111,46,20,30,307,40,25,23,045,29,1*79
$GBGSV,3,3,10,29,05,289,22,30,02,240,,1*7D
$GBGSV,2,1,07,32,78,027,35,23,63,094,34,37,40,188,43,41,32,111,42,5*70
$GBGSV,2,2,07,20,30,307,35,25,23,045,29,29,05,289,36,5*42
$GNGGA,082837.000,4005.098824,N,10513.208028,W,2,57,0.41,1587.928,M,-20.670,M,,*7C
$GPGSV,3,1,12,31,86,103,44,28,55,049,38,03,49,312,38,46,37,214,46,1*61
$GPGSV,3,2,12,26,34,146,46,02,28,242,46,32,25,081,36,04,25,283,44,1*6A
$GPGSV,3,3,12,21,24,227,49,25,13,042,34,16,07,170,50,10,06,139,51,1*67
$GPGSV,2,1,07,28,55,049,33,03,49,312,42,26,34,146,47,32,25,081,24,8*6C
$GPGSV,2,2,07,04,25,283,35,25,13,042,36,10,06,139,45,8*5D
$GLGSV,3,1,09,78,56,064,42,68,54,065,36,69,48,332,33,79,47,163,46,1*78
$GLGSV,3,2,09,84,21,267,36,85,14,324,37,67,13,102,44,77,06,025,30,1*72
$GLGSV,3,3,09,80,02,191,51,1*46
$GAGSV,3,1,09,19,40,289,32,27,37,115,41,33,34,236,45,07,30,078,40,7*79
$GAGSV,3,2,09,12,28,301,33,30,24,055,37,21,14,167,48,10,14,322,35,7*7A
$GAGSV,3,3,09,26,10,192,41,7*40
$GAGSV,3,1,09,19,40,289,26,27,37,115,40,33,34,236,43,07,30,078,36,1*7C
$GAGSV,3,2,09,12,28,301,20,30,24,055,33,10,14,322,40,21,14,167,40,1*70
$GAGSV,3,3,09,26,10,192,38,1*48
$GBGSV,3,1,10,32,78,027,36,23,63,094,46,31,63,094,19,58,40,188,23,1*7B
$GBGSV,3,2,10,37,40,188,51,41,32,111,46,20,30,307,40,25,23,045,27,1*77
$GBGSV,3,3,10,29,05,289,18,30,02,240,,1*74
$GBGSV,2,1,07,32,78,027,35,23,63,094,35,37,40,188,43,41,32,111,42,5*71
$GBGSV,2,2,07,20,30,307,35,25,23,045,29,29,05,289,36,5*42
$GNGGA,082842.000,4005.098824,N,10513.207980,W,2,58,0.41,1588.106,M,-20.670,M,,*7E
$GPGSV,3,1,12,31,86,103,44,28,55,049,38,03,49,312,38,46,37,214,45,1*62
$GPGSV,3,2,12,26,34,146,46,02,28,242,46,32,25,081,36,04,25,283,44,1*6A
$GPGSV,3,3,12,21,24,227,49,25,13,042,34,16,08,169,50,10,06,139,51,1*60
$GPGSV,2,1,07,28,55,049,33,03,49,312,42,26,34,146,47,32,25,081,24,8*6C
$GPGSV,2,2,07,04,25,283,35,25,13,042,36,10,06,139,46,8*5E
$GLGSV,3,1,09,78,56,064,42,68,54,065,36,69,48,332,32,79,47,163,46,1*79
$GLGSV,3,2,09,84,21,267,36,85,14,324,38,67,13,102,44,77,06,025,30,1*7D
$GLGSV,3,3,09,80,02,191,51,1*46
$GAGSV,3,1,09,19,40,289,32,27,37,115,41,33,34,236,45,07,30,078,40,7*79
$GAGSV,3,2,09,12,28,301,33,30,24,055,37,10,14,322,35,21,14,167,47,7*75
$GAGSV,3,3,09,26,10,192,42,7*43
$GAGSV,3,1,09,19,40,289,26,27,37,115,40,33,34,236,43,07,30,078,36,1*7C
$GAGSV,3,2,09,12,28,301,19,30,24,055,33,10,14,322,40,21,14,167,40,1*7A
$GAGSV,3,3,09,26,10,192,38,1*48
$GBGSV,3,1,10,32,78,027,36,23,63,094,46,31,63,094,19,58,40,188,22,1*7A
$GBGSV,3,2,10,37,40,188,51,41,32,111,45,20,30,307,40,25,23,045,29,1*7A
$GBGSV,3,3,10,29,05,289,19,30,02,240,,1*75
$GBGSV,2,1,07,32,78,027,35,23,63,094,35,37,40,188,43,41,32,111,42,5*71
$GBGSV,2,2,07,20,30,307,35,25,23,045,29,29,05,289,35,5*41
$GNGGA,082847.000,4005.098812,N,10513.208022,W,2,58,0.41,1588.202,M,-20.670,M,,*77
$GPGSV,3,1,12,31,86,103,44,28,55,049,38,03,49,312,39,46,37,214,45,1*63
$GPGSV,3,2,12,26,34,146,46,02,28,242,46,32,25,081,36,04,25,283,44,1*6A
$GPGSV,3,3,12,21,23,226,49,25,13,042,34,16,08,169,50,10,06,139,51,1*66
$GPGSV,2,1,07,28,55,049,33,03,49,312,42,26,34,146,47,32,25,081,24,8*6C
$GPGSV,2,2,07,04,25,283,35,25,13,042,36,10,06,139,46,8*5E
$GLGSV,3,1,09,78,56,064,42,68,54,065,35,69,48,332,31,79,47,163,46,1*79
$GLGSV,3,2,09,84,21,267,36,85,14,324,38,67,13,102,44,77,06,025,30,1*7D
$GLGSV,3,3,09,80,02,191,51,1*46
$GAGSV,3,1,09,19,40,289,32,27,37,115,41,33,34,236,45,07,30,078,40,7*79
$GAGSV,3,2,09,12,28,301,33,30,24,055,37,10,14,322,35,21,14,167,47,7*75
$GAGSV,3,3,09,26,10,192,43,7*42
$GAGSV,3,1,09,19,40,289,26,27,37,115,40,33,34,236,43,07,30,078,36,1*7C
$GAGSV,3,2,09,12,28,301,19,30,24,055,33,10,14,322,40,21,14,167,40,1*7A
$GAGSV,3,3,09,26,10,192,38,1*48
$GBGSV,3,1,10,32,78,027,37,23,63,094,46,31,63,094,19,58,40,188,22,1*7B
$GBGSV,3,2,10,37,40,188,51,41,32,111,45,20,30,307,40,25,23,045,33,1*71
$GBGSV,3,3,10,29,05,289,25,30,02,240,,1*7A
$GBGSV,2,1,07,32,78,027,34,23,63,094,34,37,40,188,43,41,32,111,42,5*71
$GBGSV,2,2,07,20,30,307,34,25,23,045,29,29,05,289,35,5*40
$GNGGA,082852.000,4005.098794,N,10513.208076,W,2,58,0.41,1588.233,M,-20.670,M,,*71
$GPGSV,3,1,12,31,86,103,44,28,54,049,39,03,49,312,39,46,37,214,45,1*63
$GPGSV,3,2,12,26,35,145,46,02,28,242,46,32,25,081,36,04,25,283,44,1*68
$GPGSV,3,3,12,21,23,226,49,25,12,041,35,16,08,169,50,10,06,139,51,1*65
$GPGSV,2,1,07,28,54,049,33,03,49,312,42,26,35,145,47,32,25,081,24,8*6F
$GPGSV,2,2,07,04,25,283,35,25,12,041,36,10,06,139,46,8*5C
$GLGSV,3,1,09,78,56,064,42,68,54,065,35,69,48,332,32,79,47,163,46,1*7A
$GLGSV,3,2,09,84,21,267,36,85,14,324,37,67,13,102,44,77,06,025,30,1*72
$GLGSV,3,3,09,80,02,191,51,1*46
$GAGSV,3,1,09,19,40,289,32,27,37,115,41,33,34,236,45,07,30,078,40,7*79
$GAGSV,3,2,09,12,28,301,33,30,24,055,37,10,14,322,35,21,14,167,47,7*75
$GAGSV,3,3,09,26,10,192,43,7*42
$GAGSV,3,1,09,19,40,289,26,27,37,115,40,33,34,236,43,07,30,078,36,1*7C
$GAGSV,3,2,09,12,28,301,19,30,24,055,33,10,14,322,40,21,14,167,40,1*7A
$GAGSV,3,3,09,26,10,192,39,1*49
$GBGSV,3,1,10,32,78,027,38,23,63,094,46,31,63,094,19,58,40,188,22,1*74
$GBGSV,3,2,10,37,40,188,51,41,32,111,45,20,30,307,41,25,23,045,35,1*76
$GBGSV,3,3,10,29,05,289,27,30,02,240,,1*78
$GBGSV,2,1,07,32,78,027,34,23,63,094,35,37,40,188,43,41,32,111,42,5*70
$GBGSV,2,2,07,20,30,307,34,25,23,045,31,29,05,289,36,5*4A
$GNGGA,082857.000,4005.098776,N,10513.208040,W,2,58,0.41,1588.247,M,-20.670,M,,*7E
$GPGSV,3,1,12,31,85,087,44,28,54,049,40,03,49,312,39,46,37,214,45,1*63
$GPGSV,3,2,12,26,35,145,46,02,28,242,46,32,25,081,36,04,25,283,44,1*68
$GPGSV,3,3,12,21,23,226,49,25,12,041,35,16,08,169,50,10,06,139,51,1*65
$GPGSV,2,1,07,28,54,049,33,03,49,312,42,26,35,145,47,32,25,081,24,8*6F
$GPGSV,2,2,07,04,25,283,35,25,12,041,36,10,06,139,46,8*5C
$GLGSV,3,1,09,78,56,064,42,68,54,065,36,69,48,332,32,79,47,163,46,1*79
$GLGSV,3,2,09,84,21,267,37,85,14,324,37,67,13,102,44,77,06,025,29,1*7B
$GLGSV,3,3,09,80,02,191,51,1*46
$GAGSV,3,1,09,19,40,289,32,27,37,115,41,33,34,236,45,07,30,078,40,7*79
$GAGSV,3,2,09,12,28,301,33,30,24,055,38,10,14,322,35,21,14,167,47,7*7A
$GAGSV,3,3,09,26,10,192,43,7*42
$GAGSV,3,1,09,19,40,289,26,27,37,115,40,33,34,236,43,07,30,078,36,1*7C
$GAGSV,3,2,09,12,28,301,20,30,24,055,33,10,14,322,40,21,14,167,41,1*71
$GAGSV,3,3,09,26,10,192,39,1*49
$GBGSV,3,1,10,32,78,027,39,23,63,094,46,31,63,094,19,58,40,188,22,1*75
$GBGSV,3,2,10,37,40,188,51,41,32,111,45,20,30,307,41,25,23,045,36,1*75
$GBGSV,3,3,10,29,05,289,30,30,02,240,,1*7E
$GBGSV,2,1,07,32,78,027,34,23,63,094,35,37,40,188,43,41,32,111,42,5*70
$GBGSV,2,2,07,20,30,307,34,25,23,045,31,29,05,289,36,5*4A
$GNGGA,082902.000,4005.098740,N,10513.207962,W,2,58,0.41,1588.228,M,-20.669,M,,*7D
$GPGSV,3,1,12,31,85,087,44,28,54,049,40,03,49,312,39,46,37,214,45,1*63
$GPGSV,3,2,12,26,35,145,46,02,28,242,46,32,25,081,36,04,25,283,44,1*68
$GPGSV,3,3,12,21,23,226,49,25,12,041,35,16,08,169,50,10,06,139,51,1*65
$GPGSV,2,1,07,28,54,049,32,03,49,312,42,26,35,145,46,32,25,081,24,8*6F
$GPGSV,2,2,07,04,25,283,35,25,12,041,36,10,06,139,46,8*5C
$GLGSV,3,1,09,78,56,064,42,68,54,065,36,69,48,332,32,79,47,163,46,1*79
$GLGSV,3,2,09,84,21,267,36,85,14,324,37,67,13,102,44,77,06,025,27,1*74
$GLGSV,3,3,09,80,02,191,51,1*46
$GAGSV,3,1,09,19,40,289,32,27,37,115,41,33,34,236,45,07,30,078,40,7*79
$GAGSV,3,2,09,12,28,301,34,30,24,055,38,10,14,322,35,21,14,167,47,7*7D
$GAGSV,3,3,09,26,10,192,44,7*45
$GAGSV,3,1,09,19,40,289,25,27,37,115,40,33,34,236,42,07,30,078,35,1*7D
$GAGSV,3,2,09,12,28,301,20,30,24,055,33,10,14,322,39,21,14,167,41,1*7F
$GAGSV,3,3,09,26,10,192,39,1*49
$GBGSV,3,1,10,32,78,027,39,23,63,094,46,31,63,094,18,58,40,188,22,1*74
$GBGSV,3,2,10,37,40,188,51,41,32,111,45,20,30,307,41,25,23,045,36,1*75
$GBGSV,3,3,10,29,05,289,31,30,02,240,,1*7F
$GBGSV,2,1,07,32,78,027,34,23,63,094,34,37,40,188,43,41,32,111,42,5*71
$GBGSV,2,2,07,20,30,307,34,25,23,045,30,29,05,289,36,5*4B
$GNGGA,082907.000,4005.098740,N,10513.207878,W,2,58,0.41,1588.262,M,-20.670,M,,*74
$GPGSV,3,1,12,31,85,087,44,28,54,049,40,03,49,312,39,46,37,214,46,1*60
$GPGSV,3,2,12,26,35,145,46,02,28,242,46,32,25,081,36,04,25,283,44,1*68
$GPGSV,3,3,12,21,23,226,49,25,12,041,36,16,08,169,50,10,06,139,51,1*66
$GPGSV,2,1,07,28,54,049,32,03,49,312,42,26,35,145,46,32,25,081,24,8*6F
$GPGSV,2,2,07,04,25,283,35,25,12,041,36,10,06,139,47,8*5D
$GLGSV,3,1,09,78,56,064,41,68,54,065,36,69,48,332,32,79,47,163,46,1*7A
$GLGSV,3,2,09,84,21,267,36,85,14,324,38,67,13,102,44,77,06,025,27,1*7B
$GLGSV,3,3,09,80,02,191,51,1*46
$GAGSV,3,1,09,19,40,289,32,27,37,115,41,33,34,236,45,07,30,078,40,7*79
$GAGSV,3,2,09,12,28,301,34,30,24,055,38,10,14,322,35,21,14,167,47,7*7D
$GAGSV,3,3,09,26,10,192,44,7*45
$GAGSV,3,1,09,19,40,289,25,27,37,115,40,33,34,236,42,07,30,078,35,1*7D
$GAGSV,3,2,09,12,28,301,21,30,24,055,33,10,14,322,39,21,14,167,42,1*7D
$GAGSV,3,3,09,26,10,192,40,1*47
$GBGSV,3,1,10,32,78,027,39,23,63,094,46,31,63,094,18,58,40,188,23,1*75
$GBGSV,3,2,10,37,40,188,51,41,32,111,45,20,30,307,41,25,23,045,36,1*75
$GBGSV,3,3,10,29,05,289,21,30,02,240,,1*7E
$GBGSV,2,1,07,32,78,027,34,23,63,094,34,37,40,188,43,41,32,111,42,5*71
$GBGSV,2,2,07,20,30,307,34,25,23,045,27,29,05,289,36,5*4D
$GNGGA,082912.000,4005.098818,N,10513.207806,W,2,58,0.41,1588.264,M,-20.670,M,,*7D
$GPGSV,3,1,12,31,85,087,44,28,54,049,41,03,49,312,40,46,37,214,46,1*6F
$GPGSV,3,2,12,26,35,145,46,02,28,242,47,32,25,081,36,04,25,283,44,1*69
$GPGSV,3,3,12,21,23,226,49,25,12,041,36,16,08,169,50,10,06,139,51,1*66
$GPGSV,2,1,07,28,54,049,32,03,49,312,42,26,35,145,46,32,25,081,25,8*6E
$GPGSV,2,2,07,04,25,283,35,25,12,041,36,10,06,139,47,8*5D
$GLGSV,3,1,09,78,56,064,41,68,54,065,37,69,48,332,32,79,47,163,46,1*7B
$GLGSV,3,2,09,84,21,267,36,85,14,324,38,67,13,102,44,77,06,025,28,1*74
$GLGSV,3,3,09,80,02,191,51,1*46
$GAGSV,3,1,09,19,40,289,32,27,37,115,41,33,34,236,45,07,30,078,40,7*79
$GAGSV,3,2,09,12,28,301,34,30,24,055,38,10,14,322,34,21,14,167,46,7*7D
$GAGSV,3,3,09,26,10,192,44,7*45
$GAGSV,3,1,09,19,40,289,25,27,37,115,40,33,34,236,42,07,30,078,35,1*7D
$GAGSV,3,2,09,12,28,301,21,30,24,055,33,10,14,322,39,21,14,167,42,1*7D
$GAGSV,3,3,09,26,10,192,40,1*47
$GBGSV,3,1,10,32,78,027,39,23,63,094,46,31,63,094,20,58,40,188,22,1*7F
$GBGSV,3,2,10,37,40,188,51,41,32,111,45,20,30,307,41,25,23,045,37,1*74
$GBGSV,3,3,10,29,05,289,31,30,02,240,,1*7F
$GBGSV,2,1,07,32,78,027,34,23,63,094,34,37,40,188,43,41,32,111,42,5*71
$GBGSV,2,2,07,20,30,307,34,25,23,045,25,29,05,289,36,5*4F
$GNGGA,082917.000,4005.098848,N,10513.207824,W,2,58,0.41,1588.155,M,-20.670,M,,*7C
$GPGSV,3,1,12,31,85,087,44,28,54,049,41,03,49,312,40,46,37,214,46,1*6F
$GPGSV,3,2,12,26,35,145,46,02,28,242,47,32,25,081,36,04,25,283,43,1*6E
$GPGSV,3,3,12,21,23,226,49,25,12,041,36,16,08,169,50,10,06,139,51,1*66
$GPGSV,2,1,07,28,54,049,32,03,49,312,42,26,35,145,46,32,25,081,26,8*6D
$GPGSV,2,2,07,04,25,283,35,25,12,041,36,10,06,139,47,8*5D
$GLGSV,3,1,09,78,56,064,39,68,54,065,38,69,48,332,29,79,47,163,46,1*71
$GLGSV,3,2,09,84,21,267,36,85,14,324,38,67,13,102,44,77,06,025,28,1*74
$GLGSV,3,3,09,80,02,191,51,1*46
$GAGSV,3,1,09,19,40,289,32,27,37,115,41,33,34,236,45,07,30,078,40,7*79
$GAGSV,3,2,09,12,28,300,34,30,24,055,38,10,15,321,34,21,14,167,46,7*7E
$GAGSV,3,3,09,26,10,192,45,7*44
$GAGSV,3,1,09,19,40,289,25,27,37,115,40,33,34,236,42,07,30,078,35,1*7D
$GAGSV,3,2,09,12,28,300,22,30,24,055,33,10,15,321,39,21,14,167,42,1*7D
$GAGSV,3,3,09,26,10,192,40,1*47
$GBGSV,3,1,10,32,78,027,39,23,63,094,46,31,63,094,20,58,40,188,22,1*7F
$GBGSV,3,2,10,37,40,188,51,41,32,111,45,20,30,307,41,25,23,045,39,1*7A
$GBGSV,3,3,10,29,05,289,35,30,02,240,,1*7B
$GBGSV,2,1,07,32,78,027,34,23,63,094,34,37,40,188,43,41,32,111,42,5*71
$GBGSV,2,2,07,20,30,307,34,25,23,045,24,29,05,289,36,5*4E
$GNGGA,082922.000,4005.098854,N,10513.207872,W,2,58,0.41,1588.100,M,-20.669,M,,*7C
$GPGSV,3,1,12,31,85,087,44,28,54,049,41,03,49,312,40,46,37,214,46,1*6F
$GPGSV,3,2,12,26,35,145,46,02,28,242,47,32,25,081,37,04,25,283,43,1*6F
$GPGSV,3,3,12,21,23,226,49,25,12,041,36,16,08,169,50,10,06,139,51,1*66
$GPGSV,2,1,07,28,54,049,32,03,49,312,42,26,35,145,46,32,25,081,27,8*6C
$GPGSV,2,2,07,04,25,283,35,25,12,041,36,10,06,139,47,8*5D
$GLGSV,3,1,09,78,56,064,39,68,54,065,38,69,48,332,27,79,47,163,45,1*7C
$GLGSV,3,2,09,84,21,267,36,85,14,324,38,67,13,102,44,77,06,025,27,1*7B
$GLGSV,3,3,09,80,02,191,51,1*46
$GAGSV,3,1,09,19,40,290,32,27,37,115,41,33,34,236,45,07,30,078,40,7*71
$GAGSV,3,2,09,12,28,300,34,30,24,055,38,10,15,321,34,21,14,167,46,7*7E
$GAGSV,3,3,09,26,10,192,45,7*44
$GAGSV,3,1,09,19,40,290,25,27,37,115,40,33,34,236,42,07,30,078,35,1*75
$GAGSV,3,2,09,12,28,300,22,30,24,055,33,10,15,321,39,21,14,167,42,1*7D
$GAGSV,3,3,09,26,10,192,41,1*46
$GBGSV,3,1,10,32,78,027,37,23,63,094,46,31,63,094,20,58,40,188,21,1*72
$GBGSV,3,2,10,37,40,188,51,41,32,111,44,20,30,307,41,25,23,045,39,1*7B
$GBGSV,3,3,10,29,05,289,36,30,02,240,,1*78
$GBGSV,2,1,07,32,78,027,34,23,63,094,34,37,40,188,43,41,32,111,42,5*71
$GBGSV,2,2,07,20,30,307,34,25,23,045,25,29,05,289,36,5*4F
$GNGGA,082927.000,4005.098818,N,10513.207938,W,2,58,0.41,1588.112,M,-20.670,M,,*75
$GPGSV,3,1,12,31,85,087,44,28,54,049,40,03,49,312,39,46,37,214,45,1*63
$GPGSV,3,2,12,26,35,145,46,02,28,242,47,32,25,081,38,04,25,283,43,1*60
$GPGSV,3,3,12,21,23,226,49,25,12,041,36,16,08,169,50,10,06,139,50,1*67
$GPGSV,2,1,07,28,54,049,32,03,49,312,42,26,35,145,46,32,25,081,28,8*63
$GPGSV,2,2,07,04,25,283,35,25,12,041,37,10,06,139,47,8*5C
$GLGSV,3,1,09,78,56,064,40,68,54,065,38,69,48,332,23,79,47,163,45,1*76
$GLGSV,3,2,09,84,21,267,36,85,14,324,38,67,13,102,43,77,06,025,27,1*7C
$GLGSV,3,3,09,80,02,191,51,1*46
$GAGSV,3,1,09,19,40,290,32,27,37,115,41,33,34,236,45,07,30,078,40,7*71
$GAGSV,3,2,09,12,28,300,33,30,24,055,38,10,15,321,34,21,15,167,46,7*78
$GAGSV,3,3,09,26,10,192,45,7*44
$GAGSV,3,1,09,19,40,290,25,27,37,115,40,33,34,236,42,07,30,078,34,1*74
$GAGSV,3,2,09,12,28,300,22,30,24,055,33,10,15,321,38,21,15,167,42,1*7D
$GAGSV,3,3,09,26,10,192,41,1*46
$GBGSV,3,1,10,32,78,027,37,23,63,094,46,31,63,094,20,58,40,188,22,1*71
$GBGSV,3,2,10,37,40,188,51,41,32,111,44,20,30,307,41,25,23,045,40,1*75
$GBGSV,3,3,10,29,05,289,34,30,02,240,,1*7A
$GBGSV,2,1,07,32,78,027,33,23,63,094,34,37,40,188,42,41,32,111,42,5*77
$GBGSV,2,2,07,20,30,307,33,25,23,045,26,29,05,289,35,5*48
$GNGGA,082932.000,4005.098806,N,10513.208004,W,2,58,0.41,1588.180,M,-20.670,M,,*7C
$GPGSV,3,1,12,31,85,087,44,28,54,049,40,03,49,312,39,46,37,214,45,1*63
$GPGSV,3,2,12,26,35,145,46,02,28,242,47,32,25,081,39,04,25,283,42,1*60
$GPGSV,3,3,12,21,23,226,49,25,12,041,36,16,08,169,50,10,06,139,50,1*67
$GPGSV,2,1,07,28,54,049,32,03,49,312,42,26,35,145,46,32,25,081,28,8*63
$GPGSV,2,2,07,04,25,283,36,25,12,041,37,10,06,139,47,8*5F
$GLGSV,3,1,09,78,56,064,40,68,54,065,38,69,48,332,25,79,47,163,45,1*70
$GLGSV,3,2,09,84,21,267,36,85,14,324,37,67,13,102,43,77,06,025,26,1*72
$GLGSV,3,3,09,80,02,191,51,1*46
$GAGSV,3,1,09,19,40,290,31,27,38,114,41,33,34,236,45,07,30,078,40,7*7C
$GAGSV,3,2,09,12,28,300,33,30,24,055,38,10,15,321,33,21,15,167,46,7*7F
$GAGSV,3,3,09,26,09,192,45,7*4C
$GAGSV,3,1,09,19,40,290,23,27,38,114,40,33,34,236,42,07,30,078,34,1*7C
$GAGSV,3,2,09,12,28,300,22,30,24,055,33,10,15,321,37,21,15,167,42,1*72
$GAGSV,3,3,09,26,09,192,42,1*4D
$GBGSV,3,1,10,32,78,027,37,23,63,094,46,31,63,094,20,58,40,188,21,1*72
$GBGSV,3,2,10,37,40,188,51,41,32,111,44,20,30,307,40,25,23,045,40,1*74
$GBGSV,3,3,10,29,05,289,31,30,02,240,,1*7F
$GBGSV,2,1,07,32,78,027,33,23,63,094,34,37,40,188,42,41,32,111,43,5*76
$GBGSV,2,2,07,20,30,307,33,25,23,045,27,29,05,289,35,5*49
$GNGGA,082937.000,4005.098848,N,10513.208046,W,2,58,0.41,1588.224,M,-20.670,M,,*78
$GPGSV,3,1,12,31,85,087,44,28,54,049,40,03,49,312,39,46,37,214,45,1*63
$GPGSV,3,2,12,26,35,145,46,02,28,242,47,32,25,081,39,04,25,283,42,1*60
$GPGSV,3,3,12,21,23,226,49,25,12,041,37,16,08,169,50,10,06,139,50,1*66
$GPGSV,2,1,07,28,54,049,32,03,49,312,42,26,35,145,46,32,25,081,29,8*62
$GPGSV,2,2,07,04,25,283,36,25,12,041,37,10,06,139,47,8*5F
$GLGSV,3,1,09,78,56,064,40,68,54,065,37,69,48,332,24,79,47,163,45,1*7E
$GLGSV,3,2,09,84,21,267,35,85,14,324,37,67,13,102,43,77,06,025,26,1*71
$GLGSV,3,3,09,80,02,191,51,1*46
$GAGSV,3,1,09,19,40,290,31,27,38,114,41,33,33,235,45,07,30,078,40,7*78
$GAGSV,3,2,09,12,28,300,33,30,24,054,37,10,15,321,31,21,15,167,46,7*73
$GAGSV,3,3,09,26,09,192,45,7*4C
$GAGSV,3,1,09,19,40,290,23,27,38,114,40,33,33,235,42,07,30,078,34,1*78
$GAGSV,3,2,09,12,28,300,22,30,24,054,32,10,15,321,37,21,15,167,42,1*72
$GAGSV,3,3,09,26,09,192,42,1*4D
$GBGSV,3,1,10,32,78,027,37,23,63,094,46,31,63,094,20,58,40,188,21,1*72
$GBGSV,3,2,10,37,40,188,51,41,32,111,44,20,30,307,40,25,23,045,40,1*74
$GBGSV,3,3,10,29,05,289,33,30,02,240,,1*7D
$GBGSV,2,1,07,32,78,027,33,23,63,094,34,37,40,188,43,41,32,111,43,5*77
$GBGSV,2,2,07,20,30,307,33,25,23,045,27,29,05,289,35,5*49
$GNGGA,082942.000,4005.098902,N,10513.208040,W,2,58,0.41,1588.252,M,-20.670,M,,*72
$GPGSV,3,1,12,31,85,087,44,28,54,049,40,03,49,312,39,46,37,214,45,1*63
$GPGSV,3,2,12,26,35,145,46,02,28,242,47,32,25,081,39,04,25,283,42,1*60
$GPGSV,3,3,12,21,23,226,49,25,12,041,37,16,08,169,50,10,06,139,49,1*6E
$GPGSV,2,1,07,28,54,049,32,03,49,312,42,26,35,145,46,32,25,081,29,8*62
$GPGSV,2,2,07,04,25,283,36,25,12,041,38,10,06,139,47,8*50
$GLGSV,3,1,09,78,56,064,40,68,54,065,37,69,48,332,23,79,47,163,45,1*79
$GLGSV,3,2,09,84,21,267,35,85,14,324,38,67,12,104,43,77,06,025,25,1*7A
$GLGSV,3,3,09,80,02,191,51,1*46
$GAGSV,3,1,09,19,40,290,31,27,38,114,41,33,33,235,45,07,30,078,40,7*78
$GAGSV,3,2,09,12,28,300,33,30,24,054,37,10,15,321,31,21,15,167,46,7*73
$GAGSV,3,3,09,26,09,192,46,7*4F
$GAGSV,3,1,09,19,40,290,23,27,38,114,40,33,33,235,42,07,30,078,34,1*78
$GAGSV,3,2,09,12,28,300,22,30,24,054,32,10,15,321,37,21,15,167,42,1*72
$GAGSV,3,3,09,26,09,192,42,1*4D
$GBGSV,3,1,10,32,78,027,38,23,63,094,46,31,63,094,20,58,40,188,22,1*7E
$GBGSV,3,2,10,37,40,188,51,41,32,111,44,20,30,307,40,25,23,045,40,1*74
$GBGSV,3,3,10,29,05,289,37,30,02,240,,1*79
$GBGSV,2,1,07,32,78,027,33,23,63,094,34,37,40,188,43,41,32,111,43,5*77
$GBGSV,2,2,07,20,30,307,33,25,23,045,26,29,05,289,36,5*4B
$GNGGA,082947.000,4005.098920,N,10513.208040,W,2,58,0.41,1588.236,M,-20.670,M,,*75
$GPGSV,3,1,12,31,85,087,44,28,54,049,40,03,49,312,40,46,37,214,45,1*6D
$GPGSV,3,2,12,26,35,145,46,02,28,242,47,32,25,081,39,04,25,283,42,1*60
$GPGSV,3,3,12,21,23,226,49,25,12,041,37,16,08,169,50,10,06,139,48,1*6F
$GPGSV,2,1,07,28,54,049,32,03,49,312,42,26,35,145,46,32,25,081,30,8*6A
$GPGSV,2,2,07,04,25,283,36,25,12,041,38,10,06,139,47,8*50
$GLGSV,3,1,09,78,56,064,40,68,53,068,38,69,49,333,24,79,47,163,45,1*7B
$GLGSV,3,2,09,84,21,267,35,85,14,324,37,67,12,104,43,77,06,025,25,1*75
$GLGSV,3,3,09,80,02,191,51,1*46
$GAGSV,3,1,09,19,40,290,31,27,38,114,41,33,33,235,45,07,30,078,40,7*78
$GAGSV,3,2,09,12,28,300,33,30,24,054,36,10,15,321,30,21,15,167,46,7*73
$GAGSV,3,3,09,26,09,192,46,7*4F
$GAGSV,3,1,09,19,40,290,23,27,38,114,40,33,33,235,42,07,30,078,34,1*78
$GAGSV,3,2,09,12,28,300,21,30,24,054,32,10,15,321,37,21,15,167,42,1*71
$GAGSV,3,3,09,26,09,192,42,1*4D
$GBGSV,3,1,10,32,78,027,38,23,63,094,46,31,63,094,19,58,40,188,22,1*74
$GBGSV,3,2,10,37,40,188,51,41,32,111,44,20,30,307,40,25,23,045,41,1*75
$GBGSV,3,3,10,29,05,289,36,30,02,240,,1*78
$GBGSV,2,1,07,32,78,027,33,23,63,094,34,37,40,188,43,41,32,111,43,5*77
$GBGSV,2,2,07,20,30,307,33,25,23,045,21,29,05,289,36,5*4C
$GNGGA,082952.000,4005.098932,N,10513.207992,W,2,58,0.41,1588.167,M,-20.670,M,,*7C
$GPGSV,3,1,12,31,85,087,44,28,54,049,40,03,49,312,41,46,37,214,45,1*6C
$GPGSV,3,2,12,26,35,145,46,02,28,242,47,32,25,081,39,04,25,283,42,1*60
$GPGSV,3,3,12,21,23,226,49,25,12,041,37,16,08,169,50,10,06,139,48,1*6F
$GPGSV,2,1,07,28,54,049,32,03,49,312,42,26,35,145,46,32,25,081,30,8*6A
$GPGSV,2,2,07,04,25,283,36,25,12,041,38,10,06,139,47,8*50
$GLGSV,3,1,09,78,56,064,40,68,53,068,39,69,49,333,28,79,47,163,45,1*76
$GLGSV,3,2,09,84,21,267,35,85,14,324,37,67,12,104,43,77,05,025,25,1*76
$GLGSV,3,3,09,80,02,191,51,1*46
$GAGSV,3,1,09,19,40,290,31,27,38,114,41,33,33,235,45,07,30,078,40,7*78
$GAGSV,3,2,09,12,28,300,34,30,24,054,35,10,15,321,29,21,15,167,46,7*7F
$GAGSV,3,3,09,26,09,192,46,7*4F
$GAGSV,3,1,09,19,40,290,23,27,38,114,40,33,33,235,42,07,30,078,34,1*78
$GAGSV,3,2,09,12,28,300,21,30,24,054,33,10,15,321,37,21,15,167,43,1*71
$GAGSV,3,3,09,26,09,192,43,1*4C
$GBGSV,3,1,10,32,78,027,39,23,63,094,46,31,63,094,19,58,40,188,22,1*75
$GBGSV,3,2,10,37,40,188,51,41,32,111,44,20,30,307,40,25,23,045,41,1*75
$GBGSV,3,3,10,29,05,289,34,30,02,240,,1*7A
$GBGSV,2,1,07,32,78,027,33,23,63,094,34,37,40,188,43,41,32,111,43,5*77
$GBGSV,2,2,07,20,30,307,33,25,23,045,19,29,05,289,36,5*47
$GNGGA,082957.000,4005.098926,N,10513.207938,W,2,58,0.41,1588.055,M,-20.670,M,,*7C
$GPGSV,3,1,12,31,85,087,44,28,54,049,39,03,49,312,41,46,37,214,46,1*61
$GPGSV,3,2,12,26,35,145,46,02,28,242,47,32,25,081,39,04,25,283,42,1*60
$GPGSV,3,3,12,21,23,226,49,25,12,041,37,16,08,169,50,10,06,139,48,1*6F
$GPGSV,2,1,07,28,54,049,32,03,49,312,42,26,35,145,46,32,25,081,30,8*6A
$GPGSV,2,2,07,04,25,283,36,25,12,041,38,10,06,139,48,8*5F
$GLGSV,3,1,09,78,55,062,40,68,53,068,39,79,49,163,45,69,49,333,28,1*7D
$GLGSV,3,2,09,84,21,267,34,85,14,324,37,67,12,104,43,77,05,025,24,1*76
$GLGSV,3,3,09,80,04,191,51,1*40
$GAGSV,3,1,09,19,40,290,32,27,38,114,41,33,33,235,45,07,30,078,40,7*7B
$GAGSV,3,2,09,12,28,300,34,30,24,054,35,10,15,321,28,21,15,167,46,7*7E
$GAGSV,3,3,09,26,09,192,46,7*4F
$GAGSV,3,1,09,19,40,290,22,27,38,114,40,33,33,235,42,07,30,078,33,1*7E
$GAGSV,3,2,09,12,28,300,21,30,24,054,34,10,15,321,37,21,15,167,43,1*76
$GAGSV,3,3,09,26,09,192,43,1*4C
$GBGSV,3,1,10,32,78,027,39,31,63,094,21,23,63,094,46,58,40,188,22,1*7E
$GBGSV,3,2,10,37,40,188,51,41,32,111,44,20,30,307,41,25,23,045,41,1*74
$GBGSV,3,3,10,29,05,289,33,30,02,240,,1*7D
$GBGSV,2,1,07,32,78,027,33,23,63,094,33,37,40,188,43,41,32,111,43,5*70
$GBGSV,2,2,07,20,30,307,32,25,23,045,21,29,05,289,36,5*4D
$GNGGA,083002.000,4005.098908,N,10513.207908,W,2,58,0.41,1588.007,M,-20.670,M,,*7C
$GPGSV,3,1,12,31,85,087,44,28,54,049,39,03,49,312,41,46,37,214,46,1*61
$GPGSV,3,2,12,26,35,145,46,02,28,242,47,32,25,081,39,04,25,283,42,1*60
$GPGSV,3,3,12,21,23,226,49,25,12,041,36,16,08,169,50,10,06,139,47,1*61
$GPGSV,2,1,07,28,54,049,32,03,49,312,42,26,35,145,46,32,25,081,31,8*6B
$GPGSV,2,2,07,04,25,283,37,25,12,041,39,10,06,139,48,8*5F
$GLGSV,3,1,09,78,55,062,40,68,53,068,40,79,49,163,45,69,49,333,29,1*72
$GLGSV,3,2,09,84,20,266,35,85,14,323,36,67,12,104,43,77,05,025,22,1*77
$GLGSV,3,3,09,80,04,191,50,1*41
$GAGSV,3,1,09,19,40,290,32,27,38,114,42,33,33,235,45,07,30,078,40,7*78
$GAGSV,3,2,09,12,28,300,35,30,24,054,36,10,15,321,26,21,15,167,45,7*71
$GAGSV,3,3,09,26,09,192,47,7*4E
$GAGSV,3,1,09,19,40,290,22,27,38,114,41,33,33,235,42,07,30,078,33,1*7F
$GAGSV,3,2,09,12,28,300,22,30,24,054,34,10,15,321,37,21,15,167,44,1*72
$GAGSV,3,3,09,26,09,192,43,1*4C
$GBGSV,3,1,10,32,78,027,39,31,63,094,21,23,63,094,46,58,40,188,21,1*7D
$GBGSV,3,2,10,37,40,188,51,41,32,111,44,20,30,307,41,25,23,045,41,1*74
$GBGSV,3,3,10,29,05,289,31,30,02,240,,1*7F
$GBGSV,2,1,07,32,78,027,33,23,63,094,34,37,40,188,43,41,32,111,43,5*77
$GBGSV,2,2,07,20,30,307,33,25,23,045,26,29,05,289,37,5*4A
$GNGGA,083007.000,4005.098896,N,10513.207944,W,2,58,0.41,1587.919,M,-20.669,M,,*76
$GPGSV,3,1,12,31,85,087,44,28,54,049,39,03,49,312,41,46,37,214,46,1*61
$GPGSV,3,2,12,26,35,145,46,02,28,242,48,32,25,081,40,04,25,283,42,1*61
$GPGSV,3,3,12,21,23,226,49,25,12,041,36,16,08,169,50,10,06,139,47,1*61
$GPGSV,2,1,07,28,54,049,32,03,49,312,42,26,35,145,46,32,25,081,31,8*6B
$GPGSV,2,2,07,04,25,283,37,25,12,041,39,10,06,139,48,8*5F
$GLGSV,3,1,09,78,55,062,41,68,53,068,40,79,49,163,44,69,49,333,32,1*78
$GLGSV,3,2,09,84,20,266,33,85,14,323,35,67,12,104,43,77,05,025,21,1*71
$GLGSV,3,3,09,80,04,191,50,1*41
$GAGSV,3,1,09,19,40,290,34,27,38,114,42,33,33,235,45,07,30,078,40,7*7E
$GAGSV,3,2,09,12,28,300,35,30,24,054,37,10,15,321,26,21,15,167,45,7*70
$GAGSV,3,3,09,26,09,192,47,7*4E
$GAGSV,3,1,09,19,40,290,21,27,38,114,41,33,33,235,42,07,30,078,33,1*7C
$GAGSV,3,2,09,12,28,300,22,30,24,054,35,10,15,321,37,21,15,167,44,1*73
$GAGSV,3,3,09,26,09,192,44,1*4B
$GBGSV,3,1,10,32,78,027,36,31,63,094,20,23,63,094,46,58,40,188,21,1*73
$GBGSV,3,2,10,37,40,188,51,41,32,111,44,20,30,307,41,25,23,045,41,1*74
$GBGSV,3,3,10,29,05,289,30,30,02,240,,1*7E
$GBGSV,2,1,07,32,78,027,33,23,63,094,34,37,40,188,43,41,32,111,44,5*70
$GBGSV,2,2,07,20,30,307,32,25,23,045,29,29,05,289,37,5*44
$GNGGA,083012.000,4005.098842,N,10513.207986,W,2,58,0.41,1587.911,M,-20.670,M,,*75
$GPGSV,3,1,12,31,85,087,44,28,54,049,40,03,49,312,41,46,37,214,46,1*6F
$GPGSV,3,2,12,26,35,145,46,02,28,242,48,32,25,081,40,04,25,283,42,1*61
$GPGSV,3,3,12,21,23,226,49,25,12,041,37,16,08,169,50,10,06,139,47,1*60
$GPGSV,2,1,07,28,54,049,32,03,49,312,42,26,35,145,46,32,25,081,32,8*68
$GPGSV,2,2,07,04,25,283,37,25,12,041,39,10,06,139,48,8*5F
$GLGSV,3,1,09,78,55,062,41,68,53,068,41,79,49,163,43,69,49,333,29,1*74
$GLGSV,3,2,09,84,20,266,33,85,14,323,36,67,12,104,43,77,05,025,21,1*72
$GLGSV,3,3,09,80,04,191,50,1*41
$GAGSV,3,1,09,19,40,290,34,27,38,114,42,33,33,235,45,07,30,078,40,7*7E
$GAGSV,3,2,09,12,28,300,35,30,24,054,38,10,15,321,22,21,15,167,45,7*7B
$GAGSV,3,3,09,26,09,192,48,7*41
$GAGSV,3,1,09,19,40,290,21,27,38,114,41,33,33,235,42,07,30,078,33,1*7C
$GAGSV,3,2,09,12,28,300,22,30,24,054,35,10,15,321,38,21,15,167,44,1*7C
$GAGSV,3,3,09,26,09,192,44,1*4B
$GBGSV,3,1,10,32,78,027,35,31,63,094,20,23,63,094,47,58,40,188,21,1*71
$GBGSV,3,2,10,37,40,188,51,41,32,111,43,20,30,307,41,25,23,045,41,1*73
$GBGSV,3,3,10,29,05,289,34,30,02,240,,1*7A
$GBGSV,2,1,07,32,78,027,33,23,63,094,34,37,40,188,43,41,32,111,44,5*70
$GBGSV,2,2,07,20,30,307,32,25,23,045,29,29,05,289,37,5*44
$GNGGA,083017.000,4005.098812,N,10513.207998,W,2,58,0.41,1587.873,M,-20.669,M,,*77
$GPGSV,3,1,12,31,85,087,44,28,54,049,40,03,49,312,40,46,37,214,46,1*6E
$GPGSV,3,2,12,26,35,145,46,02,28,242,48,32,25,081,40,04,25,283,42,1*61
$GPGSV,3,3,12,21,23,226,49,25,12,041,37,16,08,169,50,10,06,139,46,1*61
$GPGSV,2,1,07,28,54,049,32,03,49,312,42,26,35,145,46,32,25,081,32,8*68
$GPGSV,2,2,07,04,25,283,37,25,12,041,39,10,06,139,48,8*5F
$GLGSV,3,1,09,78,55,062,41,68,53,068,41,79,49,163,43,69,49,333,29,1*74
$GLGSV,3,2,09,84,20,266,34,85,14,323,36,67,12,104,43,77,05,025,19,1*7E
$GLGSV,3,3,09,80,04,191,50,1*41
$GAGSV,3,1,09,19,40,290,34,27,38,114,42,33,33,235,45,07,30,078,41,7*7F
$GAGSV,3,2,09,12,28,300,35,30,24,054,39,10,15,321,21,21,15,167,45,7*79
$GAGSV,3,3,09,26,09,192,48,7*41
$GAGSV,3,1,09,19,40,290,20,27,38,114,41,33,33,235,42,07,30,078,32,1*7C
$GAGSV,3,2,09,12,28,300,22,30,24,054,35,10,15,321,38,21,15,167,44,1*7C
$GAGSV,3,3,09,26,09,192,44,1*4B
$GBGSV,3,1,10,32,78,027,36,31,63,094,20,23,63,094,47,58,40,188,22,1*71
$GBGSV,3,2,10,37,40,188,51,41,32,111,43,20,30,307,41,25,23,045,41,1*73
$GBGSV,3,3,10,29,05,289,35,30,02,240,,1*7B
$GBGSV,2,1,07,32,78,027,33,23,63,094,33,37,40,188,43,41,32,111,44,5*77
$GBGSV,2,2,07,20,30,307,32,25,23,045,29,29,05,289,36,5*45
$GNGGA,083022.000,4005.098806,N,10513.207956,W,2,58,0.41,1587.771,M,-20.670,M,,*73
$GPGSV,3,1,12,31,85,087,44,28,54,049,41,03,49,312,39,46,37,214,46,1*61
$GPGSV,3,2,12,26,35,145,46,02,28,242,49,32,25,081,40,04,25,283,42,1*60
$GPGSV,3,3,12,21,23,226,49,25,12,041,37,16,08,169,49,10,06,139,44,1*6B
$GPGSV,2,1,07,28,54,049,32,03,49,312,42,26,35,145,46,32,25,081,32,8*68
$GPGSV,2,2,07,04,25,283,37,25,12,041,39,10,06,139,48,8*5F
$GLGSV,3,1,09,78,55,062,41,68,53,068,40,79,49,163,43,69,49,333,30,1*7D
$GLGSV,3,2,09,84,20,266,33,85,14,323,37,67,12,104,43,77,05,025,18,1*79
$GLGSV,3,3,09,80,04,191,50,1*41
$GAGSV,3,1,09,19,40,290,34,27,38,114,42,33,33,235,45,07,30,078,41,7*7F
$GAGSV,3,2,09,12,28,300,35,30,24,054,39,10,15,321,22,21,15,167,45,7*7A
$GAGSV,3,3,09,26,09,192,48,7*41
$GAGSV,3,1,09,19,40,290,21,27,38,114,41,33,33,235,42,07,30,078,32,1*7D
$GAGSV,3,2,09,12,28,300,23,30,24,054,35,10,15,321,38,21,15,167,44,1*7D
$GAGSV,3,3,09,26,09,192,44,1*4B
$GBGSV,3,1,10,32,78,027,37,31,63,094,21,23,63,094,47,58,40,188,22,1*71
$GBGSV,3,2,10,37,40,188,51,41,32,111,43,20,30,307,41,25,23,045,41,1*73
$GBGSV,3,3,10,29,05,289,36,30,02,240,,1*78
$GBGSV,2,1,07,32,78,027,33,23,63,094,33,37,40,188,43,41,32,111,44,5*77
$GBGSV,2,2,07,20,30,307,32,25,23,045,28,29,05,289,36,5*44
$GNGGA,083027.000,4005.098830,N,10513.207914,W,2,58,0.41,1587.854,M,-20.670,M,,*7D
$GPGSV,3,1,12,31,85,087,44,28,54,049,41,03,49,312,39,46,37,214,46,1*61
$GPGSV,3,2,12,26,35,145,46,02,28,242,49,32,25,081,40,04,25,283,42,1*60
$GPGSV,3,3,12,21,23,226,49,25,12,041,37,16,08,169,49,10,06,139,44,1*6B
$GPGSV,2,1,07,28,54,049,32,03,49,312,42,26,35,145,46,32,25,081,32,8*68
$GPGSV,2,2,07,04,25,283,37,25,12,041,39,10,06,139,48,8*5F
$GLGSV,3,1,09,78,55,062,40,68,53,068,38,79,49,163,43,69,49,333,29,1*7B
$GLGSV,3,2,09,84,20,266,33,85,14,323,38,67,12,104,43,77,05,025,19,1*77
$GLGSV,3,3,09,80,04,191,49,1*49
$GAGSV,3,1,09,19,40,290,34,27,38,114,42,33,33,235,45,07,30,078,41,7*7F
$GAGSV,3,2,09,12,28,300,35,30,24,054,39,10,15,321,27,21,15,167,45,7*7F
$GAGSV,3,3,09,26,09,192,48,7*41
$GAGSV,3,1,09,19,40,290,21,27,38,114,41,33,33,235,42,07,30,078,32,1*7D
