$PAIR001,062,0*3F
$PAIR001,062,0*3F
$PAIR001,062,0*3F
$PAIR001,062,0*3F
$PAIR001,062,0*3F
$PAIR001,062,0*3F
$PAIR001,062,0*3F
$PAIR001,062,0*3F
$PAIR001,062,0*3F
$GNGGA,155637.000,4005.098920,N,10513.207770,W,2,54,0.43,1588.592,M,-20.670,M,,*7A
$GPGSV,3,1,11,30,82,145,45,14,69,323,36,22,53,289,42,07,48,133,45,1*6B
$GPGSV,3,2,11,13,39,290,40,46,37,214,46,02,34,086,38,21,28,067,39,1*63
$GPGSV,3,3,11,19,24,211,45,15,14,312,32,08,13,046,34,1*56
$GPGSV,1,1,03,30,82,145,42,14,69,323,39,08,13,046,38,8*50
$GLGSV,3,1,09,74,56,050,34,84,55,093,31,75,40,318,34,85,27,167,46,1*74
$GLGSV,3,2,09,65,24,290,37,73,23,092,43,83,16,027,24,72,15,233,47,1*7C
$GLGSV,3,3,09,66,08,339,34,1*47
$GAGSV,2,1,08,31,66,317,35,09,43,259,44,26,30,074,40,33,27,130,43,7*79
$GAGSV,2,2,08,04,26,200,47,24,22,274,39,05,18,316,36,13,05,028,33,7*77
$GAGSV,2,1,08,31,66,317,34,09,43,259,42,26,30,074,35,33,27,130,35,1*7B
$GAGSV,2,2,08,04,26,200,40,24,22,274,35,05,18,316,40,13,05,028,33,1*7B
$GBGSV,3,1,10,36,73,062,44,30,59,095,43,45,43,306,36,29,36,182,50,1*72
$GBGSV,3,2,10,46,26,104,47,27,22,044,38,21,13,287,44,22,09,238,51,1*70
$GBGSV,3,3,10,42,01,331,,58,,,12,1*4F
$GBGSV,2,1,08,36,73,062,20,30,59,095,38,45,43,306,42,29,36,182,44,5*76
$GBGSV,2,2,08,46,26,104,37,27,22,044,29,21,13,287,37,22,09,238,43,5*7C
$GNGGA,155642.000,4005.098950,N,10513.207722,W,2,54,0.43,1588.429,M,-20.670,M,,*79
$GPGSV,3,1,11,30,82,145,45,14,69,323,36,22,53,289,42,07,48,133,45,1*6B
$GPGSV,3,2,11,13,39,290,40,46,37,214,46,02,34,084,38,21,28,067,39,1*61
$GPGSV,3,3,11,19,24,211,45,15,14,312,32,08,13,046,34,1*56
$GPGSV,1,1,03,30,82,145,42,14,69,323,39,08,13,046,38,8*50
$GLGSV,3,1,09,74,56,050,33,84,55,093,32,75,40,318,34,85,27,167,46,1*70
$GLGSV,3,2,09,65,24,290,36,73,23,092,43,83,16,027,24,72,15,233,47,1*7D
$GLGSV,3,3,09,66,08,339,34,1*47
$GAGSV,2,1,08,31,66,317,35,09,43,259,44,26,30,074,40,33,27,130,43,7*79
$GAGSV,2,2,08,04,26,200,47,24,22,274,39,05,18,316,35,13,05,028,33,7*74
$GAGSV,2,1,08,31,66,317,34,09,43,259,42,26,30,074,35,33,27,130,35,1*7B
$GAGSV,2,2,08,04,26,200,40,24,22,274,35,05,18,316,40,13,05,028,33,1*7B
$GBGSV,3,1,10,36,73,062,44,30,59,095,43,45,43,306,35,57,39,226,,1*7F
$GBGSV,3,2,10,29,36,182,50,46,26,104,47,27,22,044,39,21,13,287,44,1*75
$GBGSV,3,3,10,22,09,238,51,58,,,12,1*4D
$GBGSV,2,1,08,36,73,062,21,30,59,095,38,45,43,306,42,29,36,182,44,5*77
$GBGSV,2,2,08,46,26,104,37,27,22,044,29,21,13,287,37,22,09,238,43,5*7C
$GNGGA,155647.000,4005.098986,N,10513.207692,W,2,54,0.43,1588.220,M,-20.670,M,,*72
$GPGSV,3,1,11,30,82,145,45,14,69,323,34,22,53,289,42,07,46,134,45,1*60
$GPGSV,3,2,11,13,39,290,40,46,37,214,46,02,34,084,39,21,28,067,39,1*60
$GPGSV,3,3,11,19,24,211,46,15,14,312,32,08,12,046,34,1*54
$GPGSV,1,1,03,30,82,145,42,14,69,323,40,08,12,046,38,8*5F
$GLGSV,3,1,09,74,56,050,33,84,55,093,32,75,40,318,34,85,27,167,46,1*70
$GLGSV,3,2,09,65,24,290,37,73,23,092,41,83,16,027,24,72,15,233,47,1*7E
$GLGSV,3,3,09,66,08,339,35,1*46
$GAGSV,2,1,08,31,66,317,35,09,43,259,44,26,30,074,40,33,27,130,43,7*79
$GAGSV,2,2,08,04,26,200,47,24,22,274,39,05,18,316,33,13,05,028,33,7*72
$GAGSV,2,1,08,31,66,317,34,09,43,259,42,26,30,074,35,33,27,130,35,1*7B
$GAGSV,2,2,08,04,26,200,40,24,22,274,35,05,18,316,38,13,05,028,33,1*74
$GBGSV,3,1,11,36,73,062,44,30,59,095,43,45,43,306,35,57,39,226,,1*7E
$GBGSV,3,2,11,29,36,182,50,46,26,104,47,27,22,044,40,21,13,287,44,1*7A
$GBGSV,3,3,11,22,09,238,51,42,01,331,,58,,,12,1*7A
$GBGSV,2,1,08,36,73,062,20,30,59,095,38,45,43,306,42,29,36,182,44,5*76
$GBGSV,2,2,08,46,26,104,37,27,22,044,29,21,13,287,37,22,09,238,43,5*7C
$GNGGA,155652.000,4005.099034,N,10513.207644,W,2,54,0.43,1588.047,M,-20.670,M,,*7F
$GPGSV,3,1,11,30,82,145,45,14,69,326,34,22,53,289,42,07,46,134,45,1*65
$GPGSV,3,2,11,13,40,288,40,46,37,214,45,02,34,084,39,21,28,067,39,1*64
$GPGSV,3,3,11,19,24,211,46,15,15,311,31,08,12,046,34,1*55
$GPGSV,1,1,03,30,82,145,42,14,69,326,40,08,12,046,39,8*5B
$GLGSV,3,1,09,74,56,050,35,84,55,093,32,75,40,318,33,85,27,167,46,1*71
$GLGSV,3,2,09,65,24,290,37,73,23,092,41,83,16,027,23,72,15,233,47,1*79
$GLGSV,3,3,09,66,08,339,37,1*44
$GAGSV,2,1,08,31,66,317,35,09,43,259,44,26,30,074,40,33,27,130,43,7*79
$GAGSV,2,2,08,04,26,200,47,24,22,274,38,05,18,316,33,13,05,028,34,7*74
$GAGSV,2,1,08,31,66,317,34,09,43,259,42,26,30,074,34,33,27,130,36,1*79
$GAGSV,2,2,08,04,26,200,41,24,22,274,34,05,18,316,38,13,05,028,33,1*74
$GBGSV,3,1,11,36,73,062,44,30,59,095,43,45,43,306,34,57,39,226,,1*7F
$GBGSV,3,2,11,29,36,182,50,46,26,104,47,27,22,044,40,21,13,287,44,1*7A
$GBGSV,3,3,11,22,09,238,51,42,01,331,,63,,,27,1*74
$GBGSV,2,1,08,36,73,062,21,30,59,095,38,45,43,306,42,29,36,182,44,5*77
$GBGSV,2,2,08,46,26,104,37,27,22,044,26,21,13,287,37,22,09,238,44,5*74
$GNGGA,155657.000,4005.099094,N,10513.207674,W,2,54,0.43,1587.909,M,-20.670,M,,*7F
$GPGSV,3,1,11,30,82,145,45,14,69,326,36,22,53,289,42,07,46,134,46,1*64
$GPGSV,3,2,11,13,40,288,40,46,37,214,46,02,34,084,39,21,28,065,39,1*65
$GPGSV,3,3,11,19,25,211,46,15,15,311,30,08,12,046,34,1*55
$GPGSV,1,1,03,30,82,145,42,14,69,326,40,08,12,046,39,8*5B
$GLGSV,3,1,09,74,56,050,35,84,55,093,32,75,40,318,32,85,27,167,46,1*70
$GLGSV,3,2,09,65,24,290,37,73,23,092,42,83,16,027,23,72,15,233,47,1*7A
$GLGSV,3,3,09,66,08,339,38,1*4B
$GAGSV,2,1,08,31,66,317,35,09,43,259,44,26,30,074,40,33,27,130,43,7*79
$GAGSV,2,2,08,04,26,200,47,24,22,274,38,05,18,316,33,13,05,028,34,7*74
$GAGSV,2,1,08,31,66,317,35,09,43,259,42,26,30,074,35,33,27,130,36,1*79
$GAGSV,2,2,08,04,26,200,41,24,22,274,34,05,18,316,37,13,05,028,33,1*7B
$GBGSV,3,1,11,36,73,062,44,30,59,095,43,45,43,306,31,57,39,226,,1*7A
$GBGSV,3,2,11,29,36,182,50,46,26,104,47,27,22,044,40,21,13,287,44,1*7A
$GBGSV,3,3,11,22,09,238,51,42,01,331,,63,,,25,1*76
$GBGSV,2,1,08,36,73,062,21,30,59,095,38,45,43,306,42,29,36,182,44,5*77
$GBGSV,2,2,08,46,26,104,37,27,22,044,25,21,13,287,36,22,09,238,44,5*76
$GNGGA,155702.000,4005.099136,N,10513.207716,W,2,54,0.43,1587.689,M,-20.670,M,,*75
$GPGSV,3,1,11,30,82,145,45,14,69,326,36,22,54,291,42,07,46,134,46,1*6A
$GPGSV,3,2,11,13,40,288,40,46,37,214,45,02,34,084,38,21,28,065,39,1*67
$GPGSV,3,3,11,19,25,211,46,15,15,311,30,08,12,046,35,1*54
$GPGSV,1,1,03,30,82,145,42,14,69,326,40,08,12,046,39,8*5B
$GLGSV,3,1,09,74,56,050,35,84,55,093,31,75,40,318,30,85,27,167,45,1*72
$GLGSV,3,2,09,65,24,290,37,73,23,092,42,83,16,027,24,72,15,233,47,1*7D
$GLGSV,3,3,09,66,08,339,38,1*4B
$GAGSV,2,1,08,31,66,317,35,09,43,259,44,26,30,074,40,33,27,130,43,7*79
$GAGSV,2,2,08,04,26,200,47,24,22,274,38,05,18,316,34,13,05,028,34,7*73
$GAGSV,2,1,08,31,66,317,35,09,43,259,42,26,30,074,35,33,27,130,36,1*79
$GAGSV,2,2,08,04,26,200,41,24,22,274,34,05,18,316,37,13,05,028,33,1*7B
$GBGSV,3,1,09,36,73,062,44,30,59,095,43,45,43,306,30,29,36,182,50,1*7C
$GBGSV,3,2,09,46,26,104,47,27,22,044,40,21,13,287,44,22,09,238,51,1*77
$GBGSV,3,3,09,42,01,331,,1*49
$GBGSV,2,1,08,36,73,062,20,30,59,095,38,45,43,306,42,29,36,182,44,5*76
$GBGSV,2,2,08,46,26,104,37,27,22,044,24,21,13,287,36,22,09,238,44,5*77
$GNGGA,155707.000,4005.099136,N,10513.207734,W,2,54,0.43,1587.465,M,-20.670,M,,*70
$GPGSV,3,1,11,30,81,147,45,14,69,326,37,22,54,291,42,07,46,134,46,1*6A
$GPGSV,3,2,11,13,40,288,40,46,37,214,46,02,34,084,38,21,28,065,40,1*6A
$GPGSV,3,3,11,19,25,211,46,15,15,311,33,08,12,046,35,1*57
$GPGSV,1,1,03,30,81,147,42,14,69,326,40,08,12,046,40,8*54
$GLGSV,3,1,09,74,56,050,36,84,55,093,31,75,40,318,31,85,27,167,45,1*70
$GLGSV,3,2,09,65,24,290,37,73,23,092,42,83,16,027,25,72,15,233,47,1*7C
$GLGSV,3,3,09,66,08,339,39,1*4A
$GAGSV,2,1,08,31,66,317,35,09,43,259,44,26,30,074,40,33,27,130,43,7*79
$GAGSV,2,2,08,04,26,200,47,24,22,274,38,05,18,316,34,13,05,028,34,7*73
$GAGSV,2,1,08,31,66,317,35,09,43,259,42,26,30,074,35,33,27,130,36,1*79
$GAGSV,2,2,08,04,26,200,41,24,22,274,34,05,18,316,37,13,05,028,33,1*7B
$GBGSV,3,1,09,36,73,062,44,30,59,095,43,45,43,306,30,29,36,182,50,1*7C
$GBGSV,3,2,09,46,26,104,47,27,22,044,40,21,13,287,44,22,09,238,51,1*77
$GBGSV,3,3,09,42,01,331,,1*49
$GBGSV,2,1,08,36,73,062,21,30,59,095,38,45,43,306,42,29,36,182,45,5*76
$GBGSV,2,2,08,46,26,104,37,27,22,044,24,21,13,287,36,22,09,238,44,5*77
$GNGGA,155712.000,4005.099130,N,10513.207734,W,2,54,0.43,1587.219,M,-20.670,M,,*7F
$GPGSV,3,1,11,30,81,147,45,14,69,326,37,22,54,291,42,07,46,134,47,1*6B
$GPGSV,3,2,11,13,40,288,40,46,37,214,46,02,34,084,38,21,28,065,40,1*6A
$GPGSV,3,3,11,19,25,211,46,15,15,311,33,08,12,046,36,1*54
$GPGSV,1,1,03,30,81,147,42,14,69,326,40,08,12,046,40,8*54
$GLGSV,3,1,09,74,56,050,35,84,55,093,32,75,40,318,31,85,27,167,45,1*70
$GLGSV,3,2,09,65,24,290,37,73,23,092,42,83,16,027,27,72,15,233,47,1*7E
$GLGSV,3,3,09,66,08,339,39,1*4A
$GAGSV,2,1,08,31,66,317,35,09,43,259,44,26,30,074,40,33,27,130,43,7*79
$GAGSV,2,2,08,04,26,200,47,24,22,274,38,05,18,316,36,13,05,028,33,7*76
$GAGSV,2,1,08,31,66,317,34,09,43,259,42,26,30,074,35,33,27,130,36,1*78
$GAGSV,2,2,08,04,26,200,41,24,22,274,33,05,18,316,37,13,05,028,33,1*7C
$GBGSV,3,1,09,36,73,062,44,30,59,095,43,45,43,306,30,29,36,182,50,1*7C
$GBGSV,3,2,09,46,26,104,47,27,22,044,40,21,13,287,44,22,09,238,51,1*77
$GBGSV,3,3,09,42,01,331,,1*49
$GBGSV,2,1,08,36,73,062,21,30,59,095,38,45,43,306,42,29,36,182,45,5*76
$GBGSV,2,2,08,46,26,104,36,27,22,044,24,21,13,287,36,22,09,238,44,5*76
$GNGGA,155717.000,4005.099112,N,10513.207764,W,2,54,0.43,1586.952,M,-20.670,M,,*7A
$GPGSV,3,1,11,30,81,147,45,14,69,326,37,22,54,291,42,07,46,134,47,1*6B
$GPGSV,3,2,11,13,40,288,40,46,37,214,45,02,34,084,38,21,28,065,40,1*69
$GPGSV,3,3,11,19,25,211,47,15,15,311,30,08,12,046,36,1*56
$GPGSV,1,1,03,30,81,147,42,14,69,326,40,08,12,046,40,8*54
$GLGSV,3,1,09,74,56,050,34,84,55,093,31,75,40,318,30,85,27,167,45,1*73
$GLGSV,3,2,09,65,24,290,37,73,23,092,42,83,16,027,27,72,15,233,47,1*7E
$GLGSV,3,3,09,66,08,339,39,1*4A
$GAGSV,2,1,08,31,66,317,34,09,43,259,44,26,30,074,40,33,27,130,43,7*78
$GAGSV,2,2,08,04,26,200,47,24,22,274,38,05,18,316,36,13,05,028,31,7*74
$GAGSV,2,1,08,31,66,317,34,09,43,259,42,26,30,074,36,33,27,130,36,1*7B
$GAGSV,2,2,08,04,26,200,42,24,22,274,33,05,18,316,39,13,05,028,33,1*71
$GBGSV,3,1,10,36,73,062,44,30,59,095,43,45,43,306,30,57,39,226,,1*7A
$GBGSV,3,2,10,29,36,182,50,46,26,104,47,27,22,044,40,21,13,287,44,1*7B
$GBGSV,3,3,10,22,09,238,51,42,01,331,,1*75
$GBGSV,2,1,08,36,73,062,21,30,59,095,38,45,43,306,42,29,36,182,45,5*76
$GBGSV,2,2,08,46,26,104,36,27,22,044,26,21,13,287,36,22,09,238,44,5*74
$GNGGA,155722.000,4005.099100,N,10513.207770,W,2,54,0.43,1586.681,M,-20.670,M,,*7B
$GPGSV,3,1,11,30,81,147,45,14,69,326,37,22,54,291,42,07,46,134,47,1*6B
$GPGSV,3,2,11,13,40,288,40,46,37,214,45,02,34,084,38,21,28,065,40,1*69
$GPGSV,3,3,11,19,25,211,47,15,15,311,29,08,12,046,36,1*5E
$GPGSV,1,1,03,30,81,147,42,14,69,326,40,08,12,046,40,8*54
$GLGSV,3,1,09,74,56,050,34,84,55,093,31,75,40,318,30,85,27,167,45,1*73
$GLGSV,3,2,09,65,24,290,35,73,23,092,41,83,16,027,28,72,15,233,47,1*70
$GLGSV,3,3,09,66,08,339,39,1*4A
$GAGSV,2,1,08,31,66,317,34,09,43,259,44,26,30,074,40,33,27,130,43,7*78
$GAGSV,2,2,08,04,25,200,47,24,22,274,38,05,19,315,37,13,05,028,30,7*75
$GAGSV,2,1,08,31,66,317,34,09,43,259,42,26,30,074,36,33,27,130,36,1*7B
$GAGSV,2,2,08,04,25,200,42,24,22,274,33,05,19,315,40,13,05,028,34,1*79
$GBGSV,3,1,10,36,73,062,44,30,59,095,43,45,43,306,30,57,39,226,,1*7A
$GBGSV,3,2,10,29,36,182,50,46,26,104,47,27,22,044,39,21,13,287,44,1*75
$GBGSV,3,3,10,22,09,238,51,42,01,331,,1*75
$GBGSV,2,1,08,36,73,062,21,30,59,095,38,45,43,306,42,29,36,182,45,5*76
$GBGSV,2,2,08,46,26,104,36,27,22,044,26,21,13,287,36,22,09,238,44,5*74
$GNGGA,155727.000,4005.099058,N,10513.207740,W,2,54,0.43,1586.469,M,-20.669,M,,*7D
$GPGSV,3,1,11,30,81,147,45,14,69,326,37,22,54,291,42,07,46,134,47,1*6B
$GPGSV,3,2,11,13,40,288,40,46,37,214,46,02,34,084,38,21,28,065,40,1*6A
$GPGSV,3,3,11,19,25,211,47,15,15,311,31,08,12,046,36,1*57
$GPGSV,1,1,03,30,81,147,42,14,69,326,40,08,12,046,40,8*54
$GLGSV,3,1,09,74,56,050,34,84,55,093,31,75,40,318,32,85,27,167,45,1*71
$GLGSV,3,2,09,65,24,290,36,73,23,092,41,83,16,027,30,72,15,233,48,1*75
$GLGSV,3,3,09,66,08,339,39,1*4A
$GAGSV,2,1,08,31,66,317,34,09,42,258,44,26,30,074,40,33,27,130,43,7*78
$GAGSV,2,2,08,04,25,200,47,24,22,274,38,05,19,315,37,13,05,028,28,7*7C
$GAGSV,2,1,08,31,66,317,34,09,42,258,42,26,30,074,36,33,27,130,36,1*7B
$GAGSV,2,2,08,04,25,200,42,24,22,274,33,05,19,315,40,13,05,028,34,1*79
$GBGSV,3,1,11,36,73,062,44,30,59,095,43,45,43,306,27,57,39,226,,1*7D
$GBGSV,3,2,11,29,36,182,50,46,26,104,47,27,22,044,39,21,13,287,44,1*74
$GBGSV,3,3,11,22,09,238,51,42,01,331,,58,,,28,1*73
$GBGSV,2,1,08,36,73,062,22,30,59,095,38,45,43,306,42,29,36,182,45,5*75
$GBGSV,2,2,08,46,26,104,36,27,22,044,25,21,13,287,36,22,09,238,44,5*77
$GNGGA,155732.000,4005.098974,N,10513.207692,W,2,54,0.43,1586.325,M,-20.670,M,,*76
$GPGSV,3,1,11,30,81,147,45,14,69,326,37,22,54,291,42,07,46,134,47,1*6B
$GPGSV,3,2,11,13,40,288,40,46,37,214,46,02,34,084,38,21,28,065,40,1*6A
$GPGSV,3,3,11,19,25,211,47,15,15,311,32,08,12,046,37,1*55
$GPGSV,1,1,03,30,81,147,42,14,69,326,40,08,12,046,40,8*54
$GLGSV,3,1,09,74,56,050,34,84,55,093,31,75,40,318,32,85,27,167,45,1*71
$GLGSV,3,2,09,65,24,290,36,73,23,092,41,83,16,027,30,72,15,233,48,1*75
$GLGSV,3,3,09,66,08,339,40,1*44
$GAGSV,2,1,08,31,66,317,34,09,42,258,44,26,30,074,40,33,27,130,43,7*78
$GAGSV,2,2,08,04,25,200,47,24,22,274,38,05,19,315,37,13,05,027,26,7*7D
$GAGSV,2,1,08,31,66,317,34,09,42,258,42,26,30,074,36,33,27,130,36,1*7B
$GAGSV,2,2,08,04,25,200,42,24,22,274,33,05,19,315,40,13,05,027,34,1*76
$GBGSV,3,1,11,36,73,062,44,30,59,095,43,45,43,306,24,57,39,226,,1*7E
$GBGSV,3,2,11,29,36,182,50,46,26,104,47,27,22,044,39,21,13,287,44,1*74
$GBGSV,3,3,11,22,09,238,51,42,01,331,,58,,,11,1*79
$GBGSV,2,1,08,36,73,062,21,30,59,095,38,45,43,306,42,29,36,182,45,5*76
$GBGSV,2,2,08,46,26,104,36,27,22,044,24,21,13,287,36,22,09,238,44,5*76
$GNGGA,155737.000,4005.098896,N,10513.207680,W,2,54,0.43,1586.236,M,-20.670,M,,*7E
$GPGSV,3,1,11,30,81,147,44,14,69,326,37,22,54,291,42,07,46,134,47,1*6A
$GPGSV,3,2,11,13,40,288,40,46,37,214,46,02,34,084,37,21,28,065,39,1*6B
$GPGSV,3,3,11,19,25,211,48,15,15,311,33,08,12,046,37,1*5B
$GPGSV,1,1,03,30,81,147,42,14,69,326,40,08,12,046,39,8*5A
$GLGSV,3,1,09,74,56,050,34,84,55,093,31,75,40,318,31,85,27,167,45,1*72
$GLGSV,3,2,09,65,24,290,37,73,23,092,43,83,16,027,30,72,15,233,46,1*78
$GLGSV,3,3,09,66,08,339,39,1*4A
$GAGSV,2,1,08,31,66,317,33,09,42,258,45,26,30,074,40,33,27,130,43,7*7E
$GAGSV,2,2,08,04,25,200,47,24,22,274,38,05,19,315,36,13,05,027,24,7*7E
$GAGSV,2,1,08,31,66,317,34,09,42,258,42,26,30,074,37,33,27,130,36,1*7A
$GAGSV,2,2,08,04,25,200,42,24,22,274,32,05,19,315,40,13,05,027,34,1*77
$GBGSV,3,1,11,36,73,062,44,30,59,095,43,45,43,306,22,57,39,226,,1*78
$GBGSV,3,2,11,29,36,182,50,46,26,104,47,27,22,044,39,21,13,287,44,1*74
$GBGSV,3,3,11,22,09,238,51,42,01,331,,58,,,13,1*7B
$GBGSV,2,1,08,36,73,062,21,30,59,095,38,45,43,306,42,29,36,182,45,5*76
$GBGSV,2,2,08,46,26,104,35,27,22,044,20,21,13,287,36,22,09,238,44,5*71
$GNGGA,155742.000,4005.098812,N,10513.207674,W,2,54,0.43,1586.166,M,-20.670,M,,*7D
$GPGSV,3,1,11,30,81,147,44,14,69,326,37,22,54,291,42,07,46,134,47,1*6A
$GPGSV,3,2,11,13,40,288,40,46,37,214,46,02,34,084,37,21,28,065,39,1*6B
$GPGSV,3,3,11,19,25,211,48,15,15,311,35,08,12,046,37,1*5D
$GPGSV,1,1,03,30,81,147,42,14,69,326,40,08,12,046,39,8*5A
$GLGSV,3,1,09,74,56,050,35,84,55,093,31,75,40,318,33,85,27,167,46,1*72
$GLGSV,3,2,09,65,24,290,37,73,23,092,43,83,16,027,30,72,15,233,47,1*79
$GLGSV,3,3,09,66,08,339,39,1*4A
$GAGSV,2,1,08,31,66,317,33,09,42,258,45,26,30,073,40,33,27,130,43,7*79
$GAGSV,2,2,08,04,25,200,46,24,23,275,38,05,19,315,35,13,05,027,23,7*7B
$GAGSV,2,1,08,31,66,317,34,09,42,258,42,26,30,073,37,33,27,130,36,1*7D
$GAGSV,2,2,08,04,25,200,42,24,23,275,32,05,19,315,40,13,05,027,34,1*77
$GBGSV,3,1,09,36,73,062,44,30,59,095,43,45,43,306,24,29,36,182,50,1*79
$GBGSV,3,2,09,46,26,104,47,27,22,044,39,21,13,287,44,22,09,238,51,1*79
$GBGSV,3,3,09,42,01,331,,1*49
$GBGSV,2,1,08,36,73,062,22,30,59,095,38,45,43,306,42,29,36,182,45,5*75
$GBGSV,2,2,08,46,26,104,35,27,22,044,20,21,13,287,36,22,09,238,44,5*71
$GNGGA,155747.000,4005.098746,N,10513.207686,W,2,54,0.43,1586.165,M,-20.670,M,,*78
$GPGSV,3,1,11,30,81,147,44,14,69,326,37,22,54,291,42,07,46,134,47,1*6A
$GPGSV,3,2,11,13,40,288,40,46,37,214,46,02,34,084,37,21,28,065,39,1*6B
$GPGSV,3,3,11,19,25,211,48,15,15,311,34,08,12,046,37,1*5C
$GPGSV,1,1,03,30,81,147,42,14,69,326,40,08,12,046,39,8*5A
$GLGSV,3,1,09,74,56,050,35,84,55,093,32,75,40,318,32,85,27,167,46,1*70
$GLGSV,3,2,09,65,24,290,37,73,23,092,42,83,16,027,31,72,15,233,46,1*78
$GLGSV,3,3,09,66,08,339,39,1*4A
$GAGSV,2,1,08,31,67,320,32,09,42,258,45,26,30,073,40,33,27,130,43,7*7D
$GAGSV,2,2,08,04,25,200,46,24,23,275,38,05,19,315,33,13,05,027,23,7*7D
$GAGSV,2,1,08,31,67,320,34,09,42,258,42,26,30,073,37,33,27,130,36,1*78
$GAGSV,2,2,08,04,25,200,42,24,23,275,32,05,19,315,40,13,05,027,35,1*76
$GBGSV,3,1,09,36,73,062,44,30,59,095,43,45,43,306,24,29,36,182,49,1*71
$GBGSV,3,2,09,46,26,104,47,27,22,044,39,21,13,287,44,22,09,238,51,1*79
$GBGSV,3,3,09,42,01,331,,1*49
$GBGSV,2,1,08,36,73,062,23,30,59,095,38,45,43,306,42,29,36,182,45,5*74
$GBGSV,2,2,08,46,26,104,35,27,22,044,21,21,13,287,36,22,09,238,44,5*70
$GNGGA,155752.000,4005.098734,N,10513.207698,W,2,54,0.43,1586.232,M,-20.669,M,,*7F
$GPGSV,3,1,11,30,81,147,44,14,69,326,37,22,54,291,42,07,46,134,47,1*6A
$GPGSV,3,2,11,13,40,288,40,46,37,214,46,02,34,084,38,21,28,065,39,1*64
$GPGSV,3,3,11,19,25,211,48,15,15,311,33,08,12,046,38,1*54
$GPGSV,1,1,03,30,81,147,42,14,69,326,40,08,12,046,40,8*54
$GLGSV,3,1,09,74,56,050,35,84,55,093,32,75,40,318,31,85,27,167,46,1*73
$GLGSV,3,2,09,73,23,092,42,65,23,289,37,83,16,027,33,72,15,233,47,1*74
$GLGSV,3,3,09,66,08,339,40,1*44
$GAGSV,2,1,08,31,67,320,32,09,42,258,45,26,30,073,40,33,28,129,43,7*7A
$GAGSV,2,2,08,04,25,200,46,24,23,275,37,05,19,315,32,13,05,027,27,7*77
$GAGSV,2,1,08,31,67,320,34,09,42,258,42,26,30,073,37,33,28,129,36,1*7F
$GAGSV,2,2,08,04,25,200,43,24,23,275,32,05,19,315,40,13,05,027,35,1*77
$GBGSV,3,1,10,36,73,062,44,30,59,095,43,45,43,306,23,57,39,226,,1*78
$GBGSV,3,2,10,29,36,182,49,46,26,104,47,27,22,044,40,21,13,287,44,1*73
$GBGSV,3,3,10,22,09,238,51,42,01,331,,1*75
$GBGSV,2,1,08,36,73,062,24,30,59,095,38,45,43,306,43,29,36,182,46,5*71
$GBGSV,2,2,08,46,26,104,35,27,22,044,25,21,13,287,37,22,09,238,45,5*74
$GNGGA,155757.000,4005.098752,N,10513.207752,W,2,53,0.43,1586.243,M,-20.670,M,,*74
$GPGSV,3,1,11,30,81,147,44,14,69,326,37,22,54,291,42,07,46,134,47,1*6A
$GPGSV,3,2,11,13,40,288,40,46,37,214,45,02,34,084,38,21,28,065,39,1*67
$GPGSV,3,3,11,19,25,211,48,15,15,311,31,08,12,046,38,1*56
$GPGSV,1,1,03,30,81,147,42,14,69,326,40,08,12,046,40,8*54
$GLGSV,3,1,09,74,56,050,35,84,55,093,30,75,40,318,34,85,27,167,46,1*74
$GLGSV,3,2,09,73,23,092,42,65,23,289,36,83,16,027,33,72,15,233,47,1*75
$GLGSV,3,3,09,66,09,337,41,1*4A
$GAGSV,2,1,08,31,67,320,32,09,42,258,45,26,30,073,40,33,28,129,43,7*7A
$GAGSV,2,2,08,04,25,200,46,24,23,275,36,05,19,315,33,13,05,027,30,7*71
$GAGSV,2,1,08,31,67,320,34,09,42,258,42,26,30,073,37,33,28,129,36,1*7F
$GAGSV,2,2,08,04,25,200,43,24,23,275,32,05,19,315,40,13,05,027,35,1*77
$GBGSV,3,1,09,36,73,062,44,30,59,095,43,45,43,306,20,29,36,182,49,1*75
$GBGSV,3,2,09,46,26,104,47,27,22,044,42,21,13,287,44,22,09,238,51,1*75
$GBGSV,3,3,09,42,01,331,,1*49
$GBGSV,2,1,08,36,73,062,23,30,59,095,38,45,43,306,43,29,36,182,46,5*76
$GBGSV,2,2,08,46,26,104,35,27,22,044,28,21,13,287,37,22,09,238,45,5*79
$GNGGA,155802.000,4005.098818,N,10513.207770,W,2,53,0.43,1586.228,M,-20.670,M,,*77
$GPGSV,3,1,11,30,81,147,44,14,69,326,38,22,54,291,42,07,46,134,47,1*65
$GPGSV,3,2,11,13,40,288,40,46,37,214,46,02,34,084,36,21,28,065,37,1*64
$GPGSV,3,3,11,19,25,211,49,15,15,311,31,08,12,046,38,1*57
$GPGSV,1,1,03,30,81,147,42,14,69,326,40,08,12,046,40,8*54
$GLGSV,3,1,09,74,56,052,34,84,55,093,30,75,41,319,34,85,27,167,46,1*77
$GLGSV,3,2,09,65,23,289,35,73,22,093,42,83,16,027,33,72,14,232,47,1*76
$GLGSV,3,3,09,66,09,337,41,1*4A
$GAGSV,2,1,08,31,67,320,32,09,42,258,45,26,30,073,40,33,28,129,43,7*7A
$GAGSV,2,2,08,04,25,200,46,24,23,275,36,05,19,315,35,13,05,027,31,7*76
$GAGSV,2,1,08,31,67,320,34,09,42,258,42,26,30,073,37,33,28,129,37,1*7E
$GAGSV,2,2,08,04,25,200,44,24,23,275,32,05,19,315,39,13,05,027,35,1*7E
$GBGSV,3,1,11,36,73,062,44,30,59,095,42,45,43,306,19,57,39,226,,1*71
$GBGSV,3,2,11,29,36,182,49,46,26,104,47,27,22,044,42,21,13,287,44,1*70
$GBGSV,3,3,11,22,09,238,51,42,01,331,,58,,,28,1*73
$GBGSV,2,1,08,36,73,062,23,30,59,095,38,45,43,306,43,29,36,182,46,5*76
$GBGSV,2,2,08,46,26,104,35,27,22,044,30,21,13,287,37,22,09,238,45,5*70
$GNGGA,155807.000,4005.098896,N,10513.207758,W,2,53,0.43,1586.190,M,-20.670,M,,*7E
$GPGSV,3,1,11,30,81,147,44,14,69,326,38,22,54,291,42,07,46,134,47,1*65
$GPGSV,3,2,11,13,40,288,40,46,37,214,46,02,34,084,35,21,28,065,37,1*67
$GPGSV,3,3,11,19,25,211,49,15,15,311,32,08,12,046,38,1*54
$GPGSV,1,1,03,30,81,147,42,14,69,326,40,08,12,046,40,8*54
$GLGSV,3,1,09,74,56,052,34,84,55,093,29,75,41,319,34,85,27,167,46,1*7F
$GLGSV,3,2,09,65,23,289,36,73,22,093,42,83,16,027,33,72,14,232,47,1*75
$GLGSV,3,3,09,66,09,337,41,1*4A
$GAGSV,2,1,08,31,67,320,32,09,42,258,45,26,30,073,40,33,28,129,43,7*7A
$GAGSV,2,2,08,04,25,200,46,24,23,275,36,05,19,315,35,13,05,027,33,7*74
$GAGSV,2,1,08,31,67,320,34,09,42,258,42,26,30,073,37,33,28,129,37,1*7E
$GAGSV,2,2,08,04,25,200,44,24,23,275,32,05,19,315,38,13,05,027,35,1*7F
$GBGSV,3,1,11,36,73,062,44,30,59,095,42,45,43,306,16,57,39,226,,1*7E
$GBGSV,3,2,11,29,36,182,49,46,26,104,47,27,22,044,43,21,13,287,44,1*71
$GBGSV,3,3,11,22,09,238,51,42,01,331,,58,,,12,1*7A
$GBGSV,2,1,08,36,73,062,23,30,59,095,38,45,43,306,43,29,36,182,46,5*76
$GBGSV,2,2,08,46,26,104,34,27,22,044,30,21,13,287,36,22,09,238,45,5*70
$GNGGA,155812.000,4005.098932,N,10513.207734,W,2,52,0.43,1586.136,M,-20.669,M,,*7A
$GPGSV,3,1,11,30,81,147,44,14,69,326,38,22,54,291,42,07,46,134,47,1*65
$GPGSV,3,2,11,13,40,288,40,46,37,214,46,02,34,084,35,21,28,065,37,1*67
$GPGSV,3,3,11,19,25,211,49,15,15,311,33,08,12,046,38,1*55
$GPGSV,1,1,03,30,81,147,42,14,69,326,40,08,12,046,40,8*54
$GLGSV,3,1,09,74,56,052,35,84,55,091,31,75,41,319,34,85,29,167,47,1*7A
$GLGSV,3,2,09,65,23,289,37,73,22,093,42,83,15,026,33,72,14,232,47,1*76
$GLGSV,3,3,09,66,09,337,41,1*4A
$GAGSV,2,1,08,31,67,320,32,09,42,258,45,26,30,073,40,33,28,129,43,7*7A
$GAGSV,2,2,08,04,25,200,46,24,23,275,36,05,19,315,36,13,05,027,35,7*71
$GAGSV,2,1,08,31,67,320,34,09,42,258,42,26,30,073,37,33,28,129,37,1*7E
$GAGSV,2,2,08,04,25,200,44,24,23,275,31,05,19,315,37,13,05,027,35,1*73
$GBGSV,3,1,11,36,73,062,44,30,59,095,42,45,43,306,16,57,39,226,,1*7E
$GBGSV,3,2,11,29,36,182,49,46,26,104,47,27,22,044,43,21,13,287,44,1*71
$GBGSV,3,3,11,22,09,238,51,42,01,331,,58,,,12,1*7A
$GBGSV,2,1,08,36,73,062,23,30,59,095,38,45,43,306,43,29,36,182,46,5*76
$GBGSV,2,2,08,46,26,104,34,27,22,044,30,21,13,287,36,22,09,238,45,5*70
$GNGGA,155817.000,4005.098956,N,10513.207698,W,2,54,0.43,1586.073,M,-20.670,M,,*74
$GPGSV,3,1,11,30,81,147,44,14,69,326,38,22,54,291,42,07,46,134,47,1*65
$GPGSV,3,2,11,13,40,288,40,46,37,214,46,02,34,084,35,21,28,065,37,1*67
$GPGSV,3,3,11,19,25,211,49,15,15,311,34,08,12,046,38,1*52
$GPGSV,1,1,03,30,81,147,42,14,69,326,40,08,12,046,40,8*54
$GLGSV,3,1,09,74,56,052,35,84,55,091,31,75,41,319,34,85,29,167,47,1*7A
$GLGSV,3,2,09,65,23,289,37,73,22,093,42,83,15,026,31,72,14,232,47,1*74
$GLGSV,3,3,09,66,09,337,41,1*4A
$GAGSV,2,1,08,31,67,320,33,09,42,258,45,26,30,073,40,33,28,129,43,7*7B
$GAGSV,2,2,08,04,25,200,45,24,23,275,36,05,19,315,36,13,05,027,35,7*72
$GAGSV,2,1,08,31,67,320,34,09,42,258,42,26,30,073,37,33,28,129,37,1*7E
$GAGSV,2,2,08,04,25,200,44,24,23,275,31,05,19,315,36,13,05,027,35,1*72
$GBGSV,3,1,09,36,73,062,44,30,59,095,42,45,43,306,18,29,36,182,49,1*7F
$GBGSV,3,2,09,46,26,104,47,27,22,044,43,21,13,287,44,22,09,238,51,1*74
$GBGSV,3,3,09,42,01,331,,1*49
$GBGSV,2,1,08,36,73,062,24,30,59,095,38,45,43,306,43,29,36,182,46,5*71
$GBGSV,2,2,08,46,26,104,34,27,22,044,30,21,13,287,36,22,09,238,45,5*70
$GNGGA,155822.000,4005.098992,N,10513.207680,W,2,52,0.43,1586.056,M,-20.670,M,,*72
$GPGSV,3,1,11,30,81,147,44,14,69,326,38,22,54,291,42,07,46,134,47,1*65
$GPGSV,3,2,11,13,40,288,40,46,37,214,45,02,34,084,35,21,28,065,37,1*64
$GPGSV,3,3,11,19,25,211,49,15,15,311,35,08,12,046,39,1*52
$GPGSV,1,1,03,30,81,147,42,14,69,326,40,08,12,046,41,8*55
$GLGSV,3,1,09,74,56,052,35,84,55,091,29,75,41,319,34,85,29,167,47,1*73
$GLGSV,3,2,09,65,23,289,36,73,22,093,42,83,15,026,31,72,14,232,47,1*75
$GLGSV,3,3,09,66,09,337,41,1*4A
$GAGSV,2,1,08,31,67,320,33,09,42,258,45,26,30,073,40,33,28,129,43,7*7B
$GAGSV,2,2,08,04,25,200,45,24,23,275,37,05,19,315,36,13,05,027,35,7*73
$GAGSV,2,1,08,31,67,320,34,09,42,258,42,26,30,073,37,33,28,129,37,1*7E
$GAGSV,2,2,08,04,25,200,44,24,23,275,31,05,19,315,36,13,05,027,35,1*72
$GBGSV,3,1,11,36,73,062,44,30,59,095,42,45,43,306,17,57,39,226,,1*7F
$GBGSV,3,2,11,29,36,182,49,46,26,104,47,27,22,044,44,21,13,287,44,1*76
$GBGSV,3,3,11,22,09,238,51,42,01,331,,58,,,24,1*7F
$GBGSV,2,1,08,36,73,062,24,30,59,095,38,45,43,306,43,29,36,182,46,5*71
$GBGSV,2,2,08,46,26,104,34,27,22,044,29,21,13,287,36,22,09,238,45,5*78
$GNGGA,155827.000,4005.099052,N,10513.207710,W,2,53,0.43,1586.024,M,-20.670,M,,*7F
$GPGSV,3,1,11,30,81,147,44,14,69,326,38,22,54,291,42,07,46,134,47,1*65
$GPGSV,3,2,11,13,40,288,40,46,37,214,46,02,34,084,35,21,28,065,37,1*67
$GPGSV,3,3,11,19,25,211,49,15,15,311,35,08,12,046,39,1*52
$GPGSV,1,1,03,30,81,147,42,14,69,326,40,08,12,046,41,8*55
$GLGSV,3,1,09,74,56,052,35,84,55,091,30,75,41,319,32,85,29,167,47,1*7D
$GLGSV,3,2,09,65,23,289,36,73,22,093,42,83,15,026,32,72,14,232,46,1*77
$GLGSV,3,3,09,66,09,337,41,1*4A
$GAGSV,2,1,08,31,67,320,33,09,42,258,45,26,30,073,40,33,28,129,43,7*7B
$GAGSV,2,2,08,04,25,200,45,24,23,275,37,05,19,315,36,13,05,027,35,7*73
$GAGSV,2,1,08,31,67,320,34,09,42,258,42,26,30,073,37,33,28,129,37,1*7E
$GAGSV,2,2,08,04,25,200,44,24,23,275,30,05,19,315,36,13,05,027,34,1*72
$GBGSV,3,1,10,36,73,062,44,30,59,095,42,45,43,306,17,29,36,182,49,1*78
$GBGSV,3,2,10,46,26,104,47,27,22,044,44,21,13,287,44,22,09,238,51,1*7B
$GBGSV,3,3,10,42,01,331,,58,,,11,1*4C
$GBGSV,2,1,08,36,73,062,24,30,59,095,37,45,43,306,43,29,36,182,46,5*7E
$GBGSV,2,2,08,46,26,104,32,27,22,044,28,21,13,287,36,22,09,238,45,5*7F
$GNGGA,155832.000,4005.099088,N,10513.207728,W,2,54,0.43,1585.881,M,-20.670,M,,*74
$GPGSV,3,1,11,30,81,147,44,14,69,326,38,22,54,291,42,07,46,134,47,1*65
$GPGSV,3,2,11,13,40,288,40,46,37,214,46,02,34,084,37,21,28,065,37,1*65
$GPGSV,3,3,11,19,25,211,49,15,15,311,34,08,12,046,40,1*5D
$GPGSV,1,1,03,30,81,147,42,14,69,326,40,08,12,046,41,8*55
$GLGSV,3,1,09,74,56,052,35,84,55,091,29,75,41,319,30,85,29,167,47,1*77
$GLGSV,3,2,09,65,23,289,35,73,22,093,42,83,15,026,32,72,14,232,46,1*74
$GLGSV,3,3,09,66,09,337,42,1*49
$GAGSV,2,1,08,31,67,320,33,09,42,258,45,26,30,073,40,33,28,129,43,7*7B
$GAGSV,2,2,08,04,25,200,45,24,23,275,37,05,19,315,36,13,05,027,35,7*73
$GAGSV,2,1,08,31,67,320,34,09,42,258,42,26,30,073,37,33,28,129,37,1*7E
$GAGSV,2,2,08,04,25,200,44,24,23,275,30,05,19,315,37,13,05,027,34,1*73
$GBGSV,3,1,10,36,73,062,44,30,59,095,42,45,43,306,21,29,36,182,49,1*7D
$GBGSV,3,2,10,46,26,104,47,27,22,044,44,21,13,287,44,22,09,238,51,1*7B
$GBGSV,3,3,10,42,01,331,,58,,,11,1*4C
$GBGSV,2,1,08,36,73,062,24,30,59,095,37,45,43,306,43,29,36,182,46,5*7E
$GBGSV,2,2,08,46,26,104,32,27,22,044,27,21,13,287,36,22,09,238,45,5*70
$GNGGA,155837.000,4005.099040,N,10513.207668,W,2,53,0.43,1585.762,M,-20.670,M,,*75
$GPGSV,3,1,11,30,81,147,44,14,69,326,38,22,54,291,42,07,46,134,47,1*65
$GPGSV,3,2,11,13,40,288,40,46,37,214,46,02,34,084,37,21,28,065,37,1*65
$GPGSV,3,3,11,19,25,211,50,15,15,311,35,08,12,046,40,1*54
$GPGSV,1,1,03,30,81,147,42,14,69,326,40,08,12,046,41,8*55
$GLGSV,3,1,09,74,56,052,35,84,55,091,29,75,41,319,28,85,29,167,47,1*7E
$GLGSV,3,2,09,65,23,289,35,73,22,093,42,83,15,026,33,72,14,232,45,1*76
$GLGSV,3,3,09,66,09,337,42,1*49
$GAGSV,2,1,08,31,67,320,33,09,42,258,45,26,30,073,40,33,28,129,43,7*7B
$GAGSV,2,2,08,04,25,200,45,24,23,275,37,05,19,315,36,13,05,027,35,7*73
$GAGSV,2,1,08,31,67,320,34,09,42,258,42,26,30,073,37,33,28,129,37,1*7E
$GAGSV,2,2,08,04,25,200,44,24,23,275,30,05,19,315,38,13,05,027,34,1*7C
$GBGSV,3,1,09,36,73,062,44,30,59,095,42,45,43,306,21,29,36,182,49,1*75
$GBGSV,3,2,09,46,26,104,47,27,22,044,44,21,13,286,44,22,08,237,51,1*7C
$GBGSV,3,3,09,42,01,331,,1*49
$GBGSV,2,1,08,36,73,062,24,30,59,095,37,45,43,306,43,29,36,182,46,5*7E
$GBGSV,2,2,08,46,26,104,32,27,22,044,28,21,13,286,36,22,08,237,45,5*70
$GNGGA,155842.000,4005.098950,N,10513.207584,W,2,54,0.43,1585.657,M,-20.670,M,,*7F
$GPGSV,3,1,11,30,81,147,44,14,69,326,38,22,54,291,42,07,46,134,47,1*65
$GPGSV,3,2,11,13,40,288,40,46,37,214,45,02,34,084,37,21,28,065,37,1*66
$GPGSV,3,3,11,19,25,211,50,15,15,311,35,08,12,046,40,1*54
$GPGSV,1,1,03,30,81,147,42,14,69,326,40,08,12,046,41,8*55
$GLGSV,3,1,09,74,56,052,35,84,55,091,29,75,41,319,28,85,29,167,47,1*7E
$GLGSV,3,2,09,65,23,289,35,73,22,093,42,83,15,026,33,72,14,232,46,1*75
$GLGSV,3,3,09,66,09,337,42,1*49
$GAGSV,2,1,08,31,67,320,34,09,42,258,45,26,30,073,40,33,28,129,43,7*7C
$GAGSV,2,2,08,04,25,200,45,24,23,275,36,05,19,315,36,13,05,027,35,7*72
$GAGSV,2,1,08,31,67,320,34,09,42,258,42,26,30,073,37,33,28,129,37,1*7E
$GAGSV,2,2,08,04,25,200,44,24,23,275,30,05,19,315,39,13,05,027,35,1*7C
$GBGSV,3,1,10,36,73,062,44,30,59,095,42,45,43,306,26,57,39,226,,1*7C
$GBGSV,3,2,10,29,36,182,49,46,26,104,47,27,21,044,44,21,13,286,44,1*75
$GBGSV,3,3,10,22,08,237,51,42,01,331,,1*7B
$GBGSV,2,1,08,36,73,062,25,30,59,095,37,45,43,306,43,29,36,182,46,5*7F
$GBGSV,2,2,08,46,26,104,33,27,21,044,30,21,13,286,37,22,08,237,45,5*7A
$GNGGA,155847.000,4005.098866,N,10513.207482,W,2,54,0.43,1585.598,M,-20.670,M,,*79
$GPGSV,3,1,11,30,81,147,44,14,69,326,38,22,54,291,42,07,46,134,47,1*65
$GPGSV,3,2,11,13,40,288,40,46,37,214,45,02,34,084,34,21,28,065,38,1*6A
$GPGSV,3,3,11,19,25,211,50,15,15,311,37,08,12,046,40,1*56
$GPGSV,1,1,03,30,81,147,42,14,69,326,40,08,12,046,41,8*55
$GLGSV,3,1,09,74,56,052,35,84,55,091,29,75,41,319,30,85,29,167,47,1*77
$GLGSV,3,2,09,65,23,289,34,73,22,093,42,83,15,026,33,72,14,232,46,1*74
$GLGSV,3,3,09,66,09,337,42,1*49
$GAGSV,2,1,08,31,67,320,35,09,42,258,45,26,30,073,40,33,28,129,43,7*7D
$GAGSV,2,2,08,04,25,200,45,24,23,275,35,05,19,315,36,13,05,027,36,7*72
$GAGSV,2,1,08,31,67,320,34,09,42,258,42,26,30,073,37,33,28,129,37,1*7E
$GAGSV,2,2,08,04,25,200,44,24,23,275,30,05,19,315,39,13,05,027,35,1*7C
$GBGSV,3,1,10,36,73,062,44,30,59,092,43,45,43,306,31,57,39,226,,1*7C
$GBGSV,3,2,10,29,37,182,49,46,26,104,47,27,21,044,44,21,13,286,44,1*74
$GBGSV,3,3,10,22,08,237,51,42,01,331,,1*7B
$GBGSV,2,1,08,36,73,062,25,30,59,092,37,45,43,306,43,29,37,182,46,5*79
$GBGSV,2,2,08,46,26,104,32,27,21,044,31,21,13,286,37,22,08,237,45,5*7A
$GNGGA,155852.000,4005.098782,N,10513.207422,W,2,54,0.43,1585.469,M,-20.670,M,,*7D
$GPGSV,3,1,11,30,81,147,44,14,69,326,38,22,54,291,42,07,46,134,47,1*65
$GPGSV,3,2,11,13,40,288,40,46,37,214,46,02,34,084,33,21,28,065,40,1*61
$GPGSV,3,3,11,19,25,211,50,15,15,311,36,08,12,046,40,1*57
$GPGSV,1,1,03,30,81,147,42,14,69,326,40,08,12,046,41,8*55
$GLGSV,3,1,09,74,56,052,35,84,55,091,30,75,41,319,29,85,29,167,47,1*77
$GLGSV,3,2,09,65,23,289,33,73,22,093,42,83,15,026,31,72,14,232,46,1*71
$GLGSV,3,3,09,66,09,337,42,1*49
$GAGSV,2,1,08,31,67,320,35,09,42,258,45,26,30,073,40,33,28,129,43,7*7D
$GAGSV,2,2,08,04,25,200,44,24,23,275,35,05,19,315,36,13,05,027,36,7*73
$GAGSV,2,1,08,31,67,320,34,09,42,258,42,26,30,073,37,33,28,129,37,1*7E
$GAGSV,2,2,08,04,25,200,44,24,23,275,29,05,19,315,39,13,05,027,35,1*74
$GBGSV,3,1,10,36,73,066,44,30,59,092,43,45,43,306,31,57,39,226,,1*78
$GBGSV,3,2,10,29,37,182,49,46,26,104,47,27,21,044,44,21,13,286,44,1*74
$GBGSV,3,3,10,22,08,237,51,42,01,331,,1*7B
$GBGSV,2,1,08,36,73,066,25,30,59,092,37,45,43,306,43,29,37,182,46,5*7D
$GBGSV,2,2,08,46,26,104,31,27,21,044,33,21,13,286,37,22,08,237,45,5*7B
$GNGGA,155857.000,4005.098722,N,10513.207428,W,2,54,0.43,1585.343,M,-20.670,M,,*77
$GPGSV,3,1,11,30,81,147,44,14,69,326,38,22,54,291,42,07,46,134,47,1*65
$GPGSV,3,2,11,13,40,288,40,46,37,214,46,02,34,084,33,21,28,065,40,1*61
$GPGSV,3,3,11,19,25,211,50,15,15,311,36,08,12,046,40,1*57
$GPGSV,1,1,03,30,81,147,42,14,69,326,40,08,12,046,41,8*55
$GLGSV,3,1,09,74,56,052,35,84,55,091,31,75,41,319,27,85,29,167,47,1*78
$GLGSV,3,2,09,65,23,289,32,73,22,093,41,83,15,026,31,72,14,232,46,1*73
$GLGSV,3,3,09,66,09,337,42,1*49
$GAGSV,2,1,08,31,67,320,35,09,42,258,45,26,30,073,40,33,28,129,43,7*7D
$GAGSV,2,2,08,04,25,200,44,24,23,275,36,05,19,315,35,13,05,027,35,7*70
$GAGSV,2,1,08,31,67,320,34,09,42,258,42,26,30,073,37,33,28,129,37,1*7E
$GAGSV,2,2,08,04,25,200,44,24,23,275,28,05,19,315,39,13,05,027,35,1*75
$GBGSV,3,1,10,36,73,066,44,30,59,092,43,45,43,306,31,57,39,226,,1*78
$GBGSV,3,2,10,29,37,182,49,46,26,104,47,27,21,044,44,21,13,286,44,1*74
$GBGSV,3,3,10,22,08,237,51,42,01,331,,1*7B
$GBGSV,2,1,08,36,73,066,25,30,59,092,37,45,43,306,43,29,37,182,46,5*7D
$GBGSV,2,2,08,46,26,104,31,27,21,044,33,21,13,286,37,22,08,237,45,5*7B
$GNGGA,155902.000,4005.098650,N,10513.207428,W,2,54,0.43,1585.230,M,-20.670,M,,*77
$GPGSV,3,1,11,30,81,147,44,14,69,326,38,22,54,291,42,07,46,134,47,1*65
$GPGSV,3,2,11,13,40,288,40,46,37,214,46,02,34,084,37,21,28,065,40,1*65
$GPGSV,3,3,11,19,25,211,50,15,15,311,34,08,12,046,41,1*54
$GPGSV,1,1,03,30,81,147,42,14,69,326,40,08,12,046,41,8*55
$GLGSV,3,1,09,74,56,052,36,84,55,091,30,75,41,319,26,85,29,167,47,1*7B
$GLGSV,3,2,09,65,23,289,34,73,22,093,40,83,15,026,31,72,14,232,46,1*74
$GLGSV,3,3,09,66,09,337,42,1*49
$GAGSV,2,1,08,31,67,320,35,09,42,258,45,26,30,073,40,33,28,129,43,7*7D
$GAGSV,2,2,08,04,25,200,44,24,23,275,36,05,19,315,35,13,05,027,35,7*70
$GAGSV,2,1,08,31,67,320,34,09,42,258,42,26,30,073,38,33,28,129,37,1*71
$GAGSV,2,2,08,04,25,200,44,24,23,275,28,05,19,315,39,13,05,027,35,1*75
$GBGSV,3,1,09,36,73,066,44,30,59,092,43,45,44,307,32,57,39,226,,1*75
$GBGSV,3,2,09,29,37,182,49,46,25,105,47,27,21,044,44,21,13,286,44,1*7E
$GBGSV,3,3,09,22,08,237,51,1*45
$GBGSV,2,1,08,36,73,066,25,30,59,092,37,45,44,307,43,29,37,182,46,5*7B
$GBGSV,2,2,08,46,25,105,30,27,21,044,33,21,13,286,37,22,08,237,45,5*78
$GNGGA,155907.000,4005.098584,N,10513.207506,W,2,54,0.43,1585.110,M,-20.670,M,,*74
$GPGSV,3,1,11,30,81,147,45,14,69,326,38,22,54,291,42,07,46,134,47,1*64
$GPGSV,3,2,11,13,40,288,40,46,37,214,46,02,34,084,37,21,28,065,39,1*6B
$GPGSV,3,3,11,19,25,211,50,15,15,311,29,08,12,046,41,1*58
$GPGSV,1,1,03,30,81,147,41,14,69,326,40,08,12,046,41,8*56
$GLGSV,3,1,09,74,56,052,36,84,55,091,29,75,41,319,27,85,29,167,47,1*72
$GLGSV,3,2,09,65,23,289,35,73,22,093,40,83,15,026,33,72,14,232,45,1*74
$GLGSV,3,3,09,66,09,337,41,1*4A
$GAGSV,2,1,08,31,67,320,35,09,42,258,45,26,30,073,40,33,28,129,43,7*7D
$GAGSV,2,2,08,04,25,200,44,24,23,275,36,05,19,315,35,13,05,027,35,7*70
$GAGSV,2,1,08,31,67,320,34,09,42,258,42,26,30,073,38,33,28,129,37,1*71
$GAGSV,2,2,08,04,25,200,45,24,23,275,27,05,19,315,39,13,05,027,35,1*7B
$GBGSV,3,1,09,36,73,066,44,30,59,092,43,45,44,307,33,57,39,226,,1*74
$GBGSV,3,2,09,29,37,182,48,46,25,105,47,27,21,044,44,21,13,286,44,1*7F
$GBGSV,3,3,09,22,08,237,51,1*45
$GBGSV,2,1,08,36,73,066,25,30,59,092,37,45,44,307,43,29,37,182,46,5*7B
$GBGSV,2,2,08,46,25,105,29,27,21,044,32,21,13,286,37,22,08,237,45,5*71
$GNGGA,155912.000,4005.098560,N,10513.207608,W,2,53,0.43,1585.052,M,-20.670,M,,*77
$GPGSV,3,1,11,30,81,147,45,14,69,326,38,22,54,291,42,07,46,134,47,1*64
$GPGSV,3,2,11,13,40,288,40,46,37,214,45,02,34,084,37,21,28,065,38,1*69
$GPGSV,3,3,11,19,25,211,50,15,15,311,30,08,12,046,41,1*50
$GPGSV,1,1,03,30,81,147,41,14,69,326,40,08,12,046,41,8*56
$GLGSV,3,1,09,74,56,052,35,84,55,091,29,75,41,319,27,85,29,167,47,1*71
$GLGSV,3,2,09,65,23,289,35,73,22,093,40,83,15,026,34,72,14,232,44,1*72
$GLGSV,3,3,09,66,09,337,40,1*4B
$GAGSV,2,1,08,31,67,320,35,09,42,258,45,26,30,073,40,33,28,129,43,7*7D
$GAGSV,2,2,08,04,25,200,44,24,23,275,35,05,19,315,35,13,05,027,35,7*73
$GAGSV,2,1,08,31,67,320,34,09,42,258,42,26,30,073,38,33,28,129,37,1*71
$GAGSV,2,2,08,04,25,200,45,24,23,275,27,05,19,315,39,13,05,027,35,1*7B
$GBGSV,2,1,08,36,73,066,44,30,59,092,43,45,44,307,32,29,37,182,48,1*73
$GBGSV,2,2,08,46,25,105,47,27,21,044,44,21,13,286,44,22,08,237,50,1*7C
$GBGSV,2,1,08,36,73,066,26,30,59,092,37,45,44,307,43,29,37,182,46,5*78
$GBGSV,2,2,08,46,25,105,29,27,21,044,31,21,13,286,37,22,08,237,45,5*72
$GNGGA,155917.000,4005.098554,N,10513.207668,W,2,54,0.43,1585.044,M,-20.670,M,,*73
$GPGSV,3,1,11,30,81,147,45,14,69,326,38,22,54,291,42,07,46,134,47,1*64
$GPGSV,3,2,11,13,40,288,40,46,37,214,45,02,34,084,38,21,28,065,37,1*69
$GPGSV,3,3,11,19,25,211,50,15,15,311,31,08,12,046,41,1*51
$GPGSV,1,1,03,30,81,147,41,14,69,326,40,08,12,046,41,8*56
$GLGSV,3,1,09,74,56,052,34,84,55,091,30,75,41,319,27,85,29,167,47,1*78
$GLGSV,3,2,09,65,23,289,34,73,22,093,40,83,15,026,34,72,14,232,43,1*74
$GLGSV,3,3,09,66,09,337,41,1*4A
$GAGSV,2,1,08,31,67,320,35,09,42,258,45,26,30,073,40,33,28,129,43,7*7D
$GAGSV,2,2,08,04,25,200,44,24,23,275,35,05,19,315,36,13,05,027,35,7*70
$GAGSV,2,1,08,31,67,320,35,09,42,258,42,26,30,073,38,33,28,129,38,1*7F
$GAGSV,2,2,08,04,25,200,45,24,23,275,27,05,19,315,39,13,05,027,35,1*7B
$GBGSV,3,1,10,36,73,066,44,30,59,092,44,45,44,307,31,57,38,225,,1*7B
$GBGSV,3,2,10,29,37,182,48,46,25,105,47,27,21,044,44,21,13,286,44,1*77
$GBGSV,3,3,10,22,08,237,50,42,01,331,,1*7A
$GBGSV,2,1,08,36,73,066,27,30,59,092,37,45,44,307,43,29,37,182,46,5*79
$GBGSV,2,2,08,46,25,105,29,27,21,044,31,21,13,286,36,22,08,237,45,5*73
$GNGGA,155922.000,4005.098542,N,10513.207638,W,2,53,0.43,1585.074,M,-20.670,M,,*73
$GPGSV,3,1,11,30,81,147,45,14,69,326,38,22,54,291,42,07,46,134,47,1*64
$GPGSV,3,2,11,13,40,288,41,46,37,214,45,02,35,083,39,21,28,065,37,1*6F
$GPGSV,3,3,11,19,25,211,50,15,15,311,33,08,12,046,41,1*53
$GPGSV,1,1,03,30,81,147,41,14,69,326,41,08,12,046,41,8*57
$GLGSV,3,1,09,74,56,052,34,84,55,091,30,75,41,319,25,85,29,167,47,1*7A
$GLGSV,3,2,09,65,23,289,33,73,22,093,40,83,15,026,34,72,14,232,44,1*74
$GLGSV,3,3,09,66,09,337,42,1*49
$GAGSV,2,1,08,31,67,320,35,09,42,258,45,26,30,073,40,33,28,129,43,7*7D
$GAGSV,2,2,08,04,25,200,44,24,23,275,35,05,19,315,37,13,05,027,35,7*71
$GAGSV,2,1,08,31,67,320,35,09,42,258,42,26,30,073,38,33,28,129,38,1*7F
$GAGSV,2,2,08,04,25,200,45,24,23,275,27,05,19,315,39,13,05,027,35,1*7B
$GBGSV,3,1,10,36,73,066,44,30,59,092,44,45,44,307,31,29,37,182,48,1*7F
$GBGSV,3,2,10,46,25,105,46,27,21,044,44,21,13,286,45,22,08,237,51,1*75
$GBGSV,3,3,10,42,01,331,,58,,,25,1*4B
$GBGSV,2,1,08,36,73,066,26,30,59,092,37,45,44,307,43,29,37,182,46,5*78
$GBGSV,2,2,08,46,25,105,28,27,21,044,31,21,13,286,36,22,08,237,45,5*72
$GNGGA,155927.000,4005.098488,N,10513.207530,W,2,54,0.43,1585.042,M,-20.670,M,,*78
$GPGSV,3,1,11,30,81,147,45,14,69,326,38,22,54,291,42,07,45,135,47,1*66
$GPGSV,3,2,11,13,40,288,41,46,37,214,46,02,35,083,39,21,28,065,37,1*6C
$GPGSV,3,3,11,19,25,211,50,15,15,311,34,08,11,046,41,1*57
$GPGSV,1,1,03,30,81,147,41,14,69,326,41,08,11,046,41,8*54
$GLGSV,3,1,09,74,56,052,34,84,55,091,29,75,41,319,27,85,29,167,48,1*7F
$GLGSV,3,2,09,65,23,289,33,73,22,093,39,83,15,026,34,72,14,232,44,1*7A
$GLGSV,3,3,09,66,09,337,42,1*49
$GAGSV,2,1,08,31,67,320,35,09,42,258,45,26,30,073,40,33,28,129,43,7*7D
$GAGSV,2,2,08,04,25,200,44,24,23,275,35,05,19,315,37,13,05,027,35,7*71
$GAGSV,2,1,08,31,67,320,35,09,42,258,42,26,30,073,38,33,28,129,38,1*7F
$GAGSV,2,2,08,04,25,200,45,24,23,275,26,05,19,315,38,13,05,027,35,1*7B
$GBGSV,3,1,09,36,73,066,44,30,59,092,44,45,44,307,32,29,37,182,48,1*74
$GBGSV,3,2,09,46,25,105,46,27,21,044,43,21,13,286,45,22,08,237,50,1*7B
$GBGSV,3,3,09,42,01,331,,1*49
$GBGSV,2,1,08,36,73,066,26,30,59,092,37,45,44,307,43,29,37,182,46,5*78
$GBGSV,2,2,08,46,25,105,27,27,21,044,32,21,13,286,36,22,08,237,45,5*7E
$GNGGA,155932.000,4005.098446,N,10513.207440,W,2,54,0.43,1584.938,M,-20.670,M,,*7D
$GPGSV,3,1,11,30,81,147,45,14,70,330,38,22,54,291,42,07,45,135,47,1*69
$GPGSV,3,2,11,13,40,286,41,46,37,214,46,02,35,083,39,21,28,065,37,1*62
$GPGSV,3,3,11,19,25,211,50,15,15,311,36,08,11,046,41,1*55
$GPGSV,1,1,03,30,81,147,41,14,70,330,41,08,11,046,41,8*5B
$GLGSV,3,1,09,74,56,052,34,84,55,091,30,75,41,319,24,85,29,167,48,1*74
$GLGSV,3,2,09,65,23,289,29,73,22,093,39,83,15,026,33,72,14,232,44,1*76
$GLGSV,3,3,09,66,09,337,42,1*49
$GAGSV,2,1,08,31,67,320,35,09,42,258,45,26,30,073,40,33,28,129,43,7*7D
$GAGSV,2,2,08,04,25,200,44,24,23,275,35,05,19,315,36,13,05,027,35,7*70
$GAGSV,2,1,08,31,67,320,35,09,42,258,42,26,30,073,38,33,28,129,38,1*7F
$GAGSV,2,2,08,04,25,200,45,24,23,275,26,05,19,315,37,13,05,027,35,1*74
$GBGSV,3,1,10,36,73,066,44,30,59,092,44,45,44,307,33,57,38,225,,1*79
$GBGSV,3,2,10,29,37,182,48,46,25,105,46,27,21,044,43,21,13,286,45,1*70
$GBGSV,3,3,10,22,08,237,50,42,01,331,,1*7A
$GBGSV,2,1,08,36,73,066,26,30,59,092,37,45,44,307,43,29,37,182,46,5*78
$GBGSV,2,2,08,46,25,105,25,27,21,044,32,21,13,286,36,22,08,237,45,5*7C
$GNGGA,155937.000,4005.098452,N,10513.207392,W,2,53,0.43,1584.803,M,-20.670,M,,*7B
$GPGSV,3,1,11,30,81,147,45,14,70,330,38,22,54,291,42,07,45,135,47,1*69
$GPGSV,3,2,11,13,40,286,41,46,37,214,46,02,35,083,39,21,28,065,37,1*62
$GPGSV,3,3,11,19,26,212,50,15,15,310,36,08,11,046,41,1*54
$GPGSV,1,1,03,30,81,147,41,14,70,330,41,08,11,046,41,8*5B
$GLGSV,3,1,09,74,56,052,33,84,55,091,32,75,41,319,22,85,29,167,48,1*77
$GLGSV,3,2,09,65,23,289,24,73,22,093,38,83,15,026,33,72,14,232,43,1*7D
$GLGSV,3,3,09,66,09,337,42,1*49
$GAGSV,2,1,08,31,67,320,35,09,42,258,45,26,30,073,40,33,28,129,42,7*7C
$GAGSV,2,2,08,04,25,200,44,24,23,275,35,05,19,315,36,13,05,027,36,7*73
$GAGSV,2,1,08,31,67,320,35,09,42,258,42,26,30,073,38,33,28,129,38,1*7F
$GAGSV,2,2,08,04,25,200,45,24,23,275,26,05,19,315,37,13,05,027,35,1*74
$GBGSV,3,1,10,36,73,066,44,30,59,092,44,45,44,307,34,57,38,225,,1*7E
$GBGSV,3,2,10,29,37,182,47,46,25,105,46,27,21,044,43,21,13,286,45,1*7F
$GBGSV,3,3,10,22,08,237,51,42,01,331,,1*7B
$GBGSV,2,1,08,36,73,066,26,30,59,092,37,45,44,307,43,29,37,182,46,5*78
$GBGSV,2,2,08,46,25,105,25,27,21,044,32,21,13,286,35,22,08,237,45,5*7F
$GNGGA,155942.000,4005.098494,N,10513.207428,W,2,54,0.43,1584.595,M,-20.669,M,,*78
$GPGSV,3,1,11,30,81,147,45,14,70,330,38,22,54,292,42,07,45,135,47,1*6A
$GPGSV,3,2,11,13,40,286,41,46,37,214,45,02,35,083,39,21,28,064,37,1*60
$GPGSV,3,3,11,19,26,212,50,15,15,310,36,08,11,046,41,1*54
$GPGSV,1,1,03,30,81,147,41,14,70,330,41,08,11,046,41,8*5B
$GLGSV,3,1,09,74,56,052,34,84,55,091,31,75,41,319,22,85,29,167,48,1*73
$GLGSV,3,2,09,65,23,289,27,73,22,093,39,83,15,026,33,72,14,232,42,1*7E
$GLGSV,3,3,09,66,09,337,42,1*49
$GAGSV,2,1,08,31,67,320,35,09,42,258,45,26,30,073,40,33,28,129,42,7*7C
$GAGSV,2,2,08,04,25,200,44,24,23,275,35,05,19,315,35,13,05,027,36,7*70
$GAGSV,2,1,08,31,67,320,35,09,42,258,42,26,30,073,38,33,28,129,38,1*7F
$GAGSV,2,2,08,04,25,200,45,24,23,275,25,05,19,315,36,13,05,027,35,1*76
$GBGSV,3,1,10,36,73,066,44,30,59,092,44,45,44,307,34,57,38,225,,1*7E
$GBGSV,3,2,10,29,37,182,47,46,25,105,46,27,21,044,43,21,13,286,45,1*7F
$GBGSV,3,3,10,22,08,237,49,42,01,331,,1*72
$GBGSV,2,1,08,36,73,066,27,30,59,092,37,45,44,307,43,29,37,182,46,5*79
$GBGSV,2,2,08,46,25,105,24,27,21,044,32,21,13,286,35,22,08,237,45,5*7E
$GNGGA,155947.000,4005.098512,N,10513.207536,W,2,53,0.43,1584.415,M,-20.670,M,,*7A
$GPGSV,3,1,11,30,81,147,45,14,70,330,38,22,54,292,42,07,45,135,47,1*6A
$GPGSV,3,2,11,13,40,286,41,46,37,214,45,02,35,083,39,21,28,064,37,1*60
$GPGSV,3,3,11,19,26,212,50,15,15,310,36,08,11,046,41,1*54
$GPGSV,1,1,03,30,81,147,41,14,70,330,41,08,11,046,41,8*5B
$GLGSV,3,1,09,74,56,052,34,84,55,091,31,75,41,319,22,85,29,167,48,1*73
$GLGSV,3,2,09,65,23,289,29,73,22,093,39,83,15,026,34,72,14,232,43,1*76
$GLGSV,3,3,09,66,09,337,41,1*4A
$GAGSV,2,1,08,31,67,320,35,09,42,258,45,26,30,073,40,33,28,129,42,7*7C
$GAGSV,2,2,08,04,25,200,44,24,23,275,35,05,19,315,35,13,05,027,36,7*70
$GAGSV,2,1,08,31,67,320,35,09,42,258,42,26,30,073,38,33,28,129,38,1*7F
$GAGSV,2,2,08,04,25,200,45,24,23,275,23,05,19,315,36,13,05,027,35,1*70
$GBGSV,3,1,10,36,73,066,44,30,59,092,44,45,44,307,36,57,38,225,,1*7C
$GBGSV,3,2,10,29,37,182,47,46,25,105,46,27,21,044,43,21,13,286,45,1*7F
$GBGSV,3,3,10,22,08,237,48,42,01,331,,1*73
$GBGSV,2,1,08,36,73,066,27,30,59,092,37,45,44,307,43,29,37,182,46,5*79
$GBGSV,2,2,08,46,25,105,22,27,21,044,32,21,13,286,35,22,08,237,45,5*78
$GNGGA,155952.000,4005.098536,N,10513.207650,W,2,54,0.43,1584.390,M,-20.670,M,,*76
$GPGSV,3,1,11,30,79,147,45,14,70,330,38,22,54,292,42,07,45,135,47,1*6D
$GPGSV,3,2,11,13,40,286,41,46,37,214,45,02,35,083,39,21,28,064,38,1*6F
$GPGSV,3,3,11,19,26,212,50,15,15,310,36,08,11,046,41,1*54
$GPGSV,1,1,03,30,79,147,41,14,70,330,41,08,11,046,42,8*5F
$GLGSV,3,1,09,74,56,052,34,84,55,091,31,75,41,319,20,85,29,167,48,1*71
$GLGSV,3,2,09,65,23,289,31,73,22,093,39,83,15,026,35,72,14,232,43,1*7E
$GLGSV,3,3,09,66,09,337,40,1*4B
$GAGSV,2,1,08,31,67,320,35,09,42,258,45,26,30,073,40,33,28,129,42,7*7C
$GAGSV,2,2,08,04,25,200,44,24,23,275,35,05,19,315,34,13,05,027,36,7*71
$GAGSV,2,1,08,31,67,320,34,09,42,258,42,26,30,073,38,33,28,129,39,1*7F
$GAGSV,2,2,08,04,25,200,46,24,23,275,22,05,19,315,37,13,05,027,35,1*73
$GBGSV,3,1,10,36,73,066,44,30,59,092,44,45,44,307,36,57,38,225,,1*7C
$GBGSV,3,2,10,29,37,182,47,46,25,105,46,27,21,044,43,21,13,286,45,1*7F
$GBGSV,3,3,10,22,08,237,50,42,01,331,,1*7A
$GBGSV,2,1,08,36,73,066,28,30,59,092,37,45,44,307,43,29,37,182,46,5*76
$GBGSV,2,2,08,46,25,105,21,27,21,044,31,21,13,286,35,22,08,237,45,5*78
$GNGGA,155957.000,4005.098542,N,10513.207758,W,2,54,0.43,1584.496,M,-20.670,M,,*78
$GPGSV,3,1,11,30,79,147,45,14,70,330,37,22,54,292,41,07,45,135,47,1*61
$GPGSV,3,2,11,13,40,286,41,46,37,214,46,02,35,083,39,21,28,064,38,1*6C
$GPGSV,3,3,11,19,26,212,50,15,15,310,36,08,11,046,41,1*54
$GPGSV,1,1,03,30,79,147,41,14,70,330,41,08,11,046,42,8*5F
$GLGSV,3,1,09,74,56,052,33,84,55,091,31,75,41,319,19,85,29,167,48,1*7C
$GLGSV,3,2,09,65,23,289,30,73,22,093,39,83,15,026,35,72,14,232,42,1*7E
$GLGSV,3,3,09,66,09,337,37,1*4B
$GAGSV,2,1,08,31,67,320,35,09,42,258,45,26,30,073,40,33,28,129,42,7*7C
$GAGSV,2,2,08,04,25,200,44,24,23,275,36,05,19,315,34,13,05,027,36,7*72
$GAGSV,2,1,08,31,67,320,34,09,42,258,42,26,30,073,38,33,28,129,39,1*7F
$GAGSV,2,2,08,04,25,200,46,24,23,275,22,05,19,315,37,13,05,027,35,1*73
$GBGSV,3,1,09,36,73,066,43,30,59,092,44,45,44,307,36,57,38,225,,1*73
$GBGSV,3,2,09,29,37,182,47,46,25,105,46,27,21,044,43,21,13,286,45,1*77
$GBGSV,3,3,09,22,08,237,50,1*44
$GBGSV,2,1,08,36,73,066,28,30,59,092,37,45,44,307,43,29,37,182,47,5*77
$GBGSV,2,2,08,46,25,105,22,27,21,044,29,21,13,286,35,22,08,237,45,5*72
$GNGGA,160002.000,4005.098536,N,10513.207758,W,2,54,0.43,1584.658,M,-20.670,M,,*74
$GPGSV,3,1,11,30,79,147,45,14,70,330,36,22,54,292,41,07,45,135,47,1*60
$GPGSV,3,2,11,13,40,286,41,46,37,214,45,02,35,083,40,21,28,064,38,1*61
$GPGSV,3,3,11,19,26,212,50,15,15,310,37,08,11,046,41,1*55
$GPGSV,1,1,03,30,79,147,41,14,70,330,41,08,11,046,41,8*5C
$GLGSV,3,1,09,74,56,052,33,84,55,091,32,75,41,319,15,85,29,167,48,1*73
$GLGSV,3,2,09,65,23,289,27,73,22,093,39,83,15,026,34,72,14,232,43,1*78
$GLGSV,3,3,09,66,09,337,37,1*4B
$GAGSV,2,1,08,31,67,320,35,09,42,258,45,26,30,073,40,33,28,129,42,7*7C
$GAGSV,2,2,08,04,24,199,44,24,23,275,36,05,19,314,34,13,05,027,36,7*71
$GAGSV,2,1,08,31,67,320,34,09,42,258,42,26,30,073,38,33,28,129,39,1*7F
$GAGSV,2,2,08,04,24,199,46,24,23,275,21,05,19,314,37,13,05,027,35,1*73
$GBGSV,3,1,09,36,73,066,43,30,59,092,44,45,44,307,37,29,37,182,47,1*79
$GBGSV,3,2,09,46,25,105,46,27,21,044,43,21,13,286,45,22,08,237,48,1*72
$GBGSV,3,3,09,42,01,331,,1*49
$GBGSV,2,1,08,36,73,066,28,30,59,092,36,45,44,307,43,29,37,182,47,5*76
$GBGSV,2,2,08,46,25,105,21,27,21,044,28,21,13,286,35,22,08,237,44,5*71
$GNGGA,160007.000,4005.098524,N,10513.207680,W,2,54,0.43,1584.808,M,-20.670,M,,*7D
$GPGSV,3,1,11,30,79,147,45,14,70,330,36,22,54,292,41,07,45,135,47,1*60
$GPGSV,3,2,11,13,40,286,41,46,37,214,45,02,35,083,40,21,28,064,38,1*61
$GPGSV,3,3,11,19,26,212,50,15,15,310,37,08,11,046,41,1*55
$GPGSV,1,1,03,30,79,147,42,14,70,330,41,08,11,046,42,8*5C
$GLGSV,3,1,09,74,56,052,33,84,55,091,32,75,41,319,15,85,29,167,48,1*73
$GLGSV,3,2,09,65,23,289,30,73,22,093,39,83,15,026,34,72,14,232,43,1*7E
$GLGSV,3,3,09,66,09,337,35,1*49
$GAGSV,2,1,08,31,67,320,35,09,42,257,45,26,30,073,40,33,28,129,42,7*73
$GAGSV,2,2,08,04,24,199,44,24,23,275,37,05,19,314,34,13,05,027,36,7*70
$GAGSV,2,1,08,31,67,320,35,09,42,257,42,26,30,073,39,33,28,129,40,1*7E
$GAGSV,2,2,08,04,24,199,46,24,23,275,21,05,19,314,38,13,05,027,36,1*7F
$GBGSV,3,1,10,36,73,066,43,30,59,092,44,45,44,307,38,57,38,225,,1*75
$GBGSV,3,2,10,29,37,182,47,46,25,105,46,27,21,044,43,21,13,286,45,1*7F
$GBGSV,3,3,10,22,08,237,49,42,01,331,,1*72
$GBGSV,2,1,08,36,73,066,29,30,59,092,37,45,44,307,43,29,37,182,47,5*76
$GBGSV,2,2,08,46,25,105,21,27,21,044,29,21,13,286,35,22,08,237,45,5*71
$GNGGA,160012.000,4005.098518,N,10513.207686,W,2,52,0.44,1584.781,M,-20.670,M,,*7F
$GPGSV,3,1,11,30,79,147,45,14,70,330,36,22,54,292,41,07,45,135,47,1*60
$GPGSV,3,2,11,13,40,286,41,46,37,214,45,02,35,083,40,21,28,064,38,1*61
$GPGSV,3,3,11,19,26,212,50,15,15,310,37,08,11,046,41,1*55
$GPGSV,1,1,03,30,79,147,42,14,70,330,41,08,11,046,42,8*5C
$GLGSV,3,1,09,74,56,052,33,84,55,091,31,75,41,319,17,85,29,167,49,1*73
$GLGSV,3,2,09,65,23,289,29,73,22,093,40,83,15,026,33,72,14,232,42,1*7E
$GLGSV,3,3,09,66,09,337,34,1*48
$GAGSV,2,1,08,31,67,320,35,09,42,257,45,26,30,073,39,33,28,129,42,7*7D
$GAGSV,2,2,08,04,24,199,44,24,23,275,37,05,19,314,35,13,04,026,36,7*71
$GAGSV,2,1,08,31,67,320,34,09,42,257,42,26,30,073,39,33,28,129,40,1*7F
$GAGSV,2,2,08,04,24,199,46,24,23,275,19,05,19,314,38,13,04,026,36,1*74
$GBGSV,3,1,10,36,73,066,43,30,59,092,45,45,44,307,38,57,38,225,,1*74
$GBGSV,3,2,10,29,37,182,47,46,25,105,46,27,21,044,44,21,13,286,45,1*78
$GBGSV,3,3,10,22,08,237,49,42,01,331,,1*72
$GBGSV,2,1,08,36,73,066,29,30,59,092,36,45,44,307,43,29,37,182,47,5*77
$GBGSV,2,2,08,46,25,105,21,27,21,044,31,21,13,286,35,22,08,237,45,5*78
$GNGGA,160017.000,4005.098548,N,10513.207716,W,2,52,0.44,1584.687,M,-20.670,M,,*70
$GPGSV,3,1,11,30,79,147,45,14,70,330,35,22,54,292,41,07,45,135,47,1*63
$GPGSV,3,2,11,13,40,286,41,46,37,214,45,02,35,083,40,21,28,064,38,1*61
$GPGSV,3,3,11,19,26,212,50,15,15,310,38,08,11,046,41,1*5A
$GPGSV,1,1,03,30,79,147,42,14,70,330,41,08,11,046,42,8*5C
$GLGSV,3,1,09,74,56,052,31,84,55,091,31,75,41,319,20,85,29,167,49,1*75
$GLGSV,3,2,09,65,23,289,28,73,22,093,38,83,15,026,34,72,14,232,41,1*74
$GLGSV,3,3,09,66,09,337,33,1*4F
$GAGSV,3,1,09,31,67,320,35,09,42,257,45,26,30,073,39,33,28,129,42,7*7D
$GAGSV,3,2,09,04,24,199,44,24,23,275,37,05,19,314,36,13,04,026,36,7*72
$GAGSV,3,3,09,12,01,174,45,7*4B
$GAGSV,3,1,09,31,67,320,35,09,42,257,42,26,30,073,39,33,28,129,40,1*7E
$GAGSV,3,2,09,04,24,199,46,24,23,275,18,05,19,314,38,13,04,026,36,1*75
$GAGSV,3,3,09,12,01,174,46,1*4E
$GBGSV,3,1,10,36,73,066,43,30,59,092,45,45,44,307,38,57,38,225,,1*74
$GBGSV,3,2,10,29,37,182,47,46,25,105,45,27,21,044,44,21,13,286,45,1*7B
$GBGSV,3,3,10,22,08,237,48,42,01,331,,1*73
$GBGSV,2,1,08,36,73,066,29,30,59,092,36,45,44,307,43,29,37,182,47,5*77
$GBGSV,2,2,08,46,25,105,21,27,21,044,32,21,13,286,35,22,08,237,45,5*7B
$GNGGA,160022.000,4005.098572,N,10513.207668,W,2,52,0.44,1584.534,M,-20.669,M,,*74
$GPGSV,3,1,11,30,79,147,45,14,70,330,35,22,54,292,41,07,45,135,47,1*63
$GPGSV,3,2,11,13,40,286,41,46,37,214,45,02,35,083,39,21,28,064,37,1*60
$GPGSV,3,3,11,19,26,212,50,15,15,310,38,08,11,046,41,1*5A
$GPGSV,1,1,03,30,79,147,41,14,70,330,41,08,11,046,41,8*5C
$GLGSV,3,1,09,74,56,052,31,84,55,091,31,75,41,319,20,85,29,167,49,1*75
$GLGSV,3,2,09,65,23,289,29,73,22,093,36,83,15,026,34,72,14,232,42,1*78
$GLGSV,3,3,09,66,09,337,33,1*4F
$GAGSV,3,1,09,31,67,320,35,09,42,257,45,26,30,073,39,33,28,129,42,7*7D
$GAGSV,3,2,09,04,24,199,44,24,23,276,37,05,19,314,36,13,04,026,36,7*71
$GAGSV,3,3,09,12,01,174,44,7*4A
$GAGSV,3,1,09,31,67,320,34,09,42,257,42,26,30,073,38,33,28,129,40,1*7E
$GAGSV,3,2,09,04,24,199,46,24,23,276,16,05,19,314,37,13,04,026,36,1*77
$GAGSV,3,3,09,12,01,174,45,1*4D
$GBGSV,3,1,10,36,73,066,43,30,59,092,45,45,44,307,38,57,38,225,,1*74
$GBGSV,3,2,10,29,37,182,47,46,25,105,45,27,21,044,44,21,13,286,44,1*7A
$GBGSV,3,3,10,22,08,237,48,42,01,331,,1*73
$GBGSV,2,1,08,36,73,066,29,30,59,092,36,45,44,307,42,29,37,182,47,5*76
$GBGSV,2,2,08,46,25,105,21,27,21,044,32,21,13,286,35,22,08,237,45,5*7B
$GNGGA,160027.000,4005.098578,N,10513.207602,W,2,52,0.44,1584.387,M,-20.670,M,,*71
$GPGSV,3,1,11,30,79,147,45,14,70,330,35,22,54,292,41,07,45,135,47,1*63
$GPGSV,3,2,11,13,40,286,41,46,37,214,46,02,35,083,39,21,28,064,37,1*63
$GPGSV,3,3,11,19,26,212,50,15,15,310,38,08,11,046,41,1*5A
$GPGSV,1,1,03,30,79,147,41,14,70,330,41,08,11,046,41,8*5C
$GLGSV,3,1,09,74,56,052,31,84,55,091,30,75,41,319,22,85,29,167,49,1*76
$GLGSV,3,2,09,65,23,289,25,73,22,093,35,83,15,026,34,72,14,232,42,1*77
$GLGSV,3,3,09,66,09,337,33,1*4F
$GAGSV,3,1,09,31,67,320,35,09,42,257,45,26,30,072,39,33,28,129,41,7*7F
$GAGSV,3,2,09,04,24,199,44,24,23,276,37,05,19,314,36,13,04,026,36,7*71
$GAGSV,3,3,09,12,01,174,44,7*4A
$GAGSV,3,1,09,31,67,320,34,09,42,257,42,26,30,072,38,33,28,129,40,1*7F
$GAGSV,3,2,09,04,24,199,46,24,23,276,16,05,19,314,37,13,04,026,36,1*77
$GAGSV,3,3,09,12,01,174,45,1*4D
$GBGSV,3,1,10,36,73,066,43,30,59,092,45,45,44,307,38,57,38,225,,1*74
$GBGSV,3,2,10,29,37,182,47,46,25,105,44,27,21,044,43,21,13,286,44,1*7C
$GBGSV,3,3,10,22,08,237,49,42,01,331,,1*72
$GBGSV,2,1,08,36,73,066,29,30,59,092,36,45,44,307,42,29,37,182,47,5*76
$GBGSV,2,2,08,46,25,105,21,27,21,044,32,21,13,286,35,22,08,237,44,5*7A
$GNGGA,160032.000,4005.098536,N,10513.207506,W,2,51,0.44,1584.320,M,-20.670,M,,*76
$GPGSV,3,1,11,30,79,147,45,14,70,330,35,22,54,292,41,07,45,135,47,1*63
$GPGSV,3,2,11,13,40,286,41,46,37,214,46,02,35,083,39,21,28,064,37,1*63
$GPGSV,3,3,11,19,26,212,50,15,15,310,38,08,11,046,41,1*5A
$GPGSV,1,1,03,30,79,147,41,14,70,330,41,08,11,046,41,8*5C
$GLGSV,3,1,09,74,56,052,32,84,55,091,30,75,41,319,24,85,29,167,49,1*73
$GLGSV,3,2,09,65,23,289,28,73,22,093,36,83,15,026,34,72,14,232,42,1*79
$GLGSV,3,3,09,66,09,337,33,1*4F
$GAGSV,3,1,09,31,67,322,35,09,42,257,45,26,30,072,39,33,29,129,41,7*7C
$GAGSV,3,2,09,04,24,199,44,24,23,276,37,05,19,314,36,13,04,026,37,7*70
$GAGSV,3,3,09,12,01,174,44,7*4A
$GAGSV,2,1,08,31,67,322,34,09,42,257,42,26,30,072,38,33,29,129,40,1*7C
$GAGSV,2,2,08,04,24,199,46,05,19,314,35,13,04,026,36,12,01,174,45,1*77
$GBGSV,3,1,10,36,73,066,43,30,59,092,45,45,44,307,38,57,38,225,,1*74
$GBGSV,3,2,10,29,37,182,46,46,25,105,44,27,21,044,42,21,13,286,44,1*7C
$GBGSV,3,3,10,22,08,237,48,42,01,331,,1*73
$GBGSV,2,1,08,36,73,066,29,30,59,092,36,45,44,307,42,29,37,182,46,5*77
$GBGSV,2,2,08,46,25,105,21,27,21,044,31,21,13,286,35,22,08,237,44,5*79
$GNGGA,160037.000,4005.098542,N,10513.207536,W,2,51,0.44,1584.371,M,-20.670,M,,*77
$GPGSV,3,1,11,30,79,147,45,14,70,330,35,22,54,292,41,07,45,135,47,1*63
$GPGSV,3,2,11,13,40,286,41,46,37,214,46,02,35,083,39,21,28,064,38,1*6C
$GPGSV,3,3,11,19,26,212,50,15,15,310,38,08,11,046,41,1*5A
$GPGSV,1,1,03,30,79,147,41,14,70,330,41,08,11,046,41,8*5C
$GLGSV,3,1,09,74,56,052,32,84,55,091,32,75,41,319,17,85,29,167,49,1*71
$GLGSV,3,2,09,65,23,287,28,73,22,093,36,83,15,026,35,72,14,232,42,1*76
$GLGSV,3,3,09,66,09,336,32,1*4F
$GAGSV,3,1,09,31,67,322,35,09,42,257,45,26,30,072,39,33,29,129,41,7*7C
$GAGSV,3,2,09,04,24,199,44,24,23,276,37,05,19,314,35,13,04,026,37,7*73
$GAGSV,3,3,09,12,01,174,44,7*4A
$GAGSV,2,1,08,31,67,322,34,09,42,257,42,26,30,072,38,33,29,129,40,1*7C
$GAGSV,2,2,08,04,24,199,46,05,19,314,35,13,04,026,36,12,01,174,45,1*77
$GBGSV,3,1,10,36,73,066,43,30,59,092,45,45,44,307,38,57,38,225,,1*74
$GBGSV,3,2,10,29,37,182,46,46,25,105,44,27,21,044,42,21,13,286,44,1*7C
$GBGSV,3,3,10,22,08,237,47,42,01,331,,1*7C
$GBGSV,2,1,08,36,73,066,29,30,59,092,36,45,44,307,42,29,37,182,46,5*77
$GBGSV,2,2,08,46,25,105,22,27,21,044,31,21,13,286,35,22,08,237,44,5*7A
$GNGGA,160042.000,4005.098560,N,10513.207662,W,2,51,0.44,1584.413,M,-20.670,M,,*74
$GPGSV,3,1,11,30,79,147,45,14,70,330,35,22,54,292,41,07,45,135,47,1*63
$GPGSV,3,2,11,13,40,286,41,46,37,214,46,02,35,083,39,21,28,064,38,1*6C
$GPGSV,3,3,11,19,26,212,50,15,15,310,38,08,11,046,40,1*5B
$GPGSV,1,1,03,30,79,147,41,14,70,330,41,08,11,046,41,8*5C
$GLGSV,3,1,09,74,56,052,32,84,55,091,29,75,41,319,18,85,29,167,49,1*74
$GLGSV,3,2,09,65,23,287,28,73,21,094,36,83,15,026,35,72,13,231,42,1*76
$GLGSV,3,3,09,66,09,336,33,1*4E
$GAGSV,3,1,09,31,67,322,35,09,42,257,45,26,30,072,39,33,29,129,41,7*7C
$GAGSV,3,2,09,04,24,199,44,24,23,276,37,05,19,314,35,13,04,026,37,7*73
$GAGSV,3,3,09,12,01,174,44,7*4A
$GAGSV,2,1,08,31,67,322,34,09,42,257,42,26,30,072,38,33,29,129,40,1*7C
$GAGSV,2,2,08,04,24,199,46,05,19,314,34,13,04,026,35,12,01,174,45,1*75
$GBGSV,3,1,10,36,73,066,43,30,59,092,45,45,44,307,38,57,38,225,,1*74
$GBGSV,3,2,10,29,37,182,46,46,25,105,44,27,21,044,43,21,13,286,44,1*7D
$GBGSV,3,3,10,22,08,237,48,42,01,331,,1*73
$GBGSV,2,1,08,36,73,066,29,30,59,092,36,45,44,307,42,29,37,182,46,5*77
$GBGSV,2,2,08,46,25,105,22,27,21,044,31,21,13,286,35,22,08,237,44,5*7A
$GNGGA,160047.000,4005.098560,N,10513.207686,W,2,51,0.44,1584.442,M,-20.670,M,,*7F
$GPGSV,3,1,11,30,79,147,45,14,70,330,35,22,54,292,41,07,45,135,47,1*63
$GPGSV,3,2,11,13,40,286,41,46,37,214,45,02,35,083,39,21,28,064,38,1*6F
$GPGSV,3,3,11,19,26,212,50,15,15,310,38,08,11,046,40,1*5B
$GPGSV,1,1,03,30,79,147,41,14,70,330,41,08,11,046,42,8*5F
$GLGSV,3,1,09,84,55,091,29,74,55,055,32,75,42,321,15,85,29,167,49,1*75
$GLGSV,3,2,09,65,23,287,27,73,21,094,36,83,15,026,35,72,13,231,41,1*7A
$GLGSV,3,3,09,66,09,336,33,1*4E
$GAGSV,3,1,09,31,67,322,35,09,42,257,45,26,30,072,39,33,29,129,41,7*7C
$GAGSV,3,2,09,04,24,199,44,24,23,276,37,05,19,314,34,13,04,026,37,7*72
$GAGSV,3,3,09,12,01,174,44,7*4A
$GAGSV,2,1,08,31,67,322,34,09,42,257,42,26,30,072,38,33,29,129,41,1*7D
$GAGSV,2,2,08,04,24,199,46,05,19,314,32,13,04,026,35,12,01,174,45,1*73
$GBGSV,3,1,10,36,73,066,43,30,59,092,45,45,44,307,38,57,38,225,,1*74
$GBGSV,3,2,10,29,37,182,46,46,25,105,44,27,21,044,43,21,13,286,44,1*7D
$GBGSV,3,3,10,22,08,237,46,42,01,331,,1*7D
$GBGSV,2,1,08,36,73,066,29,30,59,092,36,45,44,307,42,29,37,182,46,5*77
$GBGSV,2,2,08,46,25,105,23,27,21,044,32,21,13,286,36,22,08,237,45,5*7A
$GNGGA,160052.000,4005.098524,N,10513.207650,W,2,51,0.44,1584.513,M,-20.669,M,,*7D
$GPGSV,3,1,11,30,79,147,45,14,70,330,35,22,54,292,41,07,45,135,47,1*63
$GPGSV,3,2,11,13,40,286,41,46,37,214,45,02,35,083,39,21,28,064,38,1*6F
$GPGSV,3,3,11,19,26,212,50,15,15,310,38,08,11,046,40,1*5B
$GPGSV,1,1,03,30,79,147,41,14,70,330,41,08,11,046,42,8*5F
$GLGSV,3,1,09,84,55,091,30,74,55,055,31,75,42,321,21,85,29,167,49,1*79
$GLGSV,3,2,09,65,23,287,28,73,21,094,36,83,14,025,35,72,13,231,42,1*74
$GLGSV,3,3,09,66,09,336,32,1*4F
$GAGSV,3,1,09,31,67,322,35,09,42,257,45,26,30,072,39,33,29,129,41,7*7C
$GAGSV,3,2,09,04,24,199,45,24,23,276,37,05,19,314,34,13,04,026,37,7*73
$GAGSV,3,3,09,12,01,174,44,7*4A
$GAGSV,2,1,08,31,67,322,34,09,42,257,42,26,30,072,38,33,29,129,41,1*7D
$GAGSV,2,2,08,04,24,199,46,05,19,314,31,13,04,026,35,12,01,174,45,1*70
$GBGSV,3,1,10,36,73,066,43,30,59,092,45,45,44,307,39,57,38,225,,1*75
$GBGSV,3,2,10,29,37,182,46,46,25,105,44,27,21,044,43,21,13,286,44,1*7D
$GBGSV,3,3,10,22,08,237,44,42,01,331,,1*7F
$GBGSV,2,1,08,36,73,066,29,30,59,092,36,45,44,307,42,29,37,182,46,5*77
$GBGSV,2,2,08,46,25,105,24,27,21,044,33,21,13,286,36,22,08,237,45,5*7C
$GNGGA,160057.000,4005.098476,N,10513.207734,W,2,50,0.44,1584.587,M,-20.670,M,,*79
$GPGSV,3,1,11,30,79,147,45,14,70,330,35,22,54,292,40,07,45,135,47,1*62
$GPGSV,3,2,11,13,40,286,41,46,37,214,46,02,35,083,39,21,28,064,38,1*6C
