$PAIR001,062,0*3F
$PAIR001,062,0*3F
$PAIR001,062,0*3F
$PAIR001,062,0*3F
$PAIR001,062,0*3F
$PAIR001,062,0*3F
$PAIR001,062,0*3F
$PAIR001,062,0*3F
$PAIR001,062,0*3F
$GNGGA,125637.000,4005.099016,N,10513.208466,W,2,53,0.45,1583.705,M,-20.670,M,,*7D
$GPGSV,3,1,11,09,77,216,46,07,54,307,39,08,45,125,45,04,41,150,47,1*68
$GPGSV,3,2,11,27,38,074,35,46,37,214,46,16,25,048,37,30,24,288,42,1*64
$GPGSV,3,3,11,20,12,305,18,14,11,231,48,05,01,333,,1*54
$GPGSV,2,1,06,09,77,216,43,08,45,125,46,04,41,150,45,27,38,074,37,8*63
$GPGSV,2,2,06,30,24,288,35,14,11,231,41,8*6A
$GLGSV,3,1,09,71,62,288,40,73,62,309,35,70,44,190,38,80,36,040,44,1*76
$GLGSV,3,2,09,74,28,262,35,72,21,329,36,82,16,076,39,81,10,029,39,1*7D
$GLGSV,3,3,09,83,05,115,37,1*4E
$GAGSV,2,1,05,04,64,298,41,19,51,153,41,21,49,048,39,31,22,230,45,7*71
$GAGSV,2,2,05,09,15,317,32,7*4F
$GAGSV,2,1,05,04,64,298,35,19,51,153,39,21,49,048,40,31,22,230,39,1*7E
$GAGSV,2,2,05,09,15,317,35,1*4E
$GBGSV,4,1,14,46,73,356,41,19,52,246,46,36,37,269,44,57,29,315,,1*7A
$GBGSV,4,2,14,37,28,065,39,20,27,186,51,22,27,312,37,27,18,119,48,1*76
$GBGSV,4,3,14,28,18,071,34,38,08,332,32,08,06,345,37,30,02,163,48,1*77
$GBGSV,4,4,14,58,,,14,63,,,29,1*75
$GBGSV,3,1,10,46,73,356,30,19,52,246,40,36,37,269,39,37,28,065,38,5*7F
$GBGSV,3,2,10,22,27,312,30,20,27,186,38,27,18,119,38,28,18,071,34,5*7B
$GBGSV,3,3,10,38,08,332,21,30,02,163,37,5*70
$GNGGA,125642.000,4005.099070,N,10513.208472,W,2,53,0.45,1583.757,M,-20.670,M,,*7D
$GPGSV,3,1,11,09,77,216,46,07,54,307,39,08,45,125,45,04,41,150,47,1*68
$GPGSV,3,2,11,27,38,074,36,46,37,214,45,16,25,048,37,30,24,288,42,1*64
$GPGSV,3,3,11,20,12,305,22,14,11,231,49,05,01,333,,1*5C
$GPGSV,2,1,06,09,77,216,43,08,45,125,47,04,41,150,46,27,38,074,38,8*6E
$GPGSV,2,2,06,30,24,288,35,14,11,231,42,8*69
$GLGSV,3,1,09,71,62,288,41,73,62,309,35,70,44,190,38,80,36,040,43,1*70
$GLGSV,3,2,09,74,28,262,34,72,21,329,35,82,16,076,39,81,10,029,38,1*7E
$GLGSV,3,3,09,83,05,115,37,1*4E
$GAGSV,2,1,05,04,64,298,41,19,50,153,41,21,48,048,39,31,22,230,45,7*71
$GAGSV,2,2,05,09,15,317,33,7*4E
$GAGSV,2,1,05,04,64,298,36,19,50,153,40,21,48,048,40,31,22,230,40,1*7D
$GAGSV,2,2,05,09,15,317,35,1*4E
$GBGSV,4,1,14,46,73,356,41,19,52,246,46,36,37,269,44,57,29,315,,1*7A
$GBGSV,4,2,14,37,28,065,39,20,27,186,51,22,27,312,37,27,18,119,48,1*76
$GBGSV,4,3,14,28,18,071,35,38,08,332,32,08,06,345,37,30,02,163,48,1*76
$GBGSV,4,4,14,58,,,15,63,,,28,1*75
$GBGSV,3,1,10,46,73,356,31,19,52,246,41,36,37,269,40,37,28,065,39,5*70
$GBGSV,3,2,10,22,27,312,29,20,27,186,38,27,18,119,38,28,18,071,35,5*72
$GBGSV,3,3,10,38,08,332,22,30,02,163,38,5*7C
$GNGGA,125647.000,4005.099136,N,10513.208490,W,2,53,0.45,1583.813,M,-20.670,M,,*78
$GPGSV,3,1,11,09,77,216,46,07,54,307,39,08,45,125,45,04,41,150,47,1*68
$GPGSV,3,2,11,27,38,074,36,46,37,214,46,16,25,048,37,30,24,288,42,1*67
$GPGSV,3,3,11,20,12,305,22,14,11,231,49,05,01,333,,1*5C
$GPGSV,2,1,06,09,77,216,43,08,45,125,47,04,41,150,46,27,38,074,38,8*6E
$GPGSV,2,2,06,30,24,288,35,14,11,231,42,8*69
$GLGSV,3,1,09,71,62,288,41,73,62,309,35,70,44,190,38,80,36,040,43,1*70
$GLGSV,3,2,09,74,28,262,34,72,21,329,33,82,16,076,38,81,10,029,39,1*78
$GLGSV,3,3,09,83,05,115,37,1*4E
$GAGSV,2,1,05,04,64,298,41,19,50,153,41,21,48,048,39,31,22,230,45,7*71
$GAGSV,2,2,05,09,15,317,33,7*4E
$GAGSV,2,1,05,04,64,298,36,19,50,153,40,21,48,048,40,31,22,230,40,1*7D
$GAGSV,2,2,05,09,15,317,35,1*4E
$GBGSV,4,1,13,46,73,356,41,19,52,246,46,36,37,269,44,57,29,315,,1*7D
$GBGSV,4,2,13,37,28,065,40,20,27,186,51,22,27,312,38,27,18,119,48,1*70
$GBGSV,4,3,13,28,18,071,37,38,08,332,32,08,06,345,37,30,02,163,48,1*73
$GBGSV,4,4,13,58,,,14,1*7C
$GBGSV,3,1,10,46,73,356,31,19,52,246,41,36,37,269,40,37,28,065,39,5*70
$GBGSV,3,2,10,22,27,312,28,20,27,186,38,27,18,119,38,28,18,071,35,5*73
$GBGSV,3,3,10,38,08,332,22,30,02,163,37,5*73
$GNGGA,125652.000,4005.099202,N,10513.208502,W,2,53,0.45,1583.756,M,-20.670,M,,*7C
$GPGSV,3,1,11,09,77,216,46,07,54,307,39,08,45,125,45,04,41,150,47,1*68
$GPGSV,3,2,11,27,38,074,35,46,37,214,46,16,25,048,37,30,24,288,42,1*64
$GPGSV,3,3,11,20,12,305,22,14,11,231,50,05,01,333,,1*54
$GPGSV,2,1,06,09,77,216,44,08,45,125,47,04,41,150,46,27,38,074,38,8*69
$GPGSV,2,2,06,30,24,288,36,14,11,231,42,8*6A
$GLGSV,3,1,09,71,62,288,41,73,62,309,35,70,44,190,38,80,36,040,43,1*70
$GLGSV,3,2,09,74,28,262,34,72,21,329,34,82,16,076,38,81,10,029,38,1*7E
$GLGSV,3,3,09,83,05,115,37,1*4E
$GAGSV,2,1,05,04,64,298,41,19,50,153,41,21,48,048,39,31,23,231,45,7*71
$GAGSV,2,2,05,09,15,317,34,7*49
$GAGSV,2,1,05,04,64,298,36,19,50,153,40,21,48,048,40,31,23,231,40,1*7D
$GAGSV,2,2,05,09,15,317,36,1*4D
$GBGSV,4,1,13,46,73,356,41,19,52,246,46,36,37,269,44,57,29,315,,1*7D
$GBGSV,4,2,13,37,28,065,40,20,27,186,51,22,27,312,38,27,18,119,48,1*70
$GBGSV,4,3,13,28,18,071,37,38,08,332,32,08,06,345,37,30,02,163,48,1*73
$GBGSV,4,4,13,58,,,15,1*7D
$GBGSV,3,1,10,46,73,356,31,19,52,246,41,36,37,269,41,37,28,065,39,5*71
$GBGSV,3,2,10,22,27,312,26,20,27,186,38,27,18,119,38,28,18,071,35,5*7D
$GBGSV,3,3,10,38,08,332,22,30,02,163,36,5*72
$GNGGA,125657.000,4005.099268,N,10513.208520,W,2,53,0.45,1583.818,M,-20.670,M,,*70
$GPGSV,3,1,11,09,77,216,46,07,54,307,38,08,45,125,45,04,41,150,46,1*68
$GPGSV,3,2,11,27,38,074,33,46,37,214,46,16,25,048,37,30,24,288,42,1*62
$GPGSV,3,3,11,20,12,305,24,14,11,231,49,05,01,333,,1*5A
$GPGSV,2,1,06,09,77,216,44,08,45,125,47,04,41,150,46,27,38,074,38,8*69
$GPGSV,2,2,06,30,24,288,36,14,11,231,42,8*6A
$GLGSV,3,1,09,71,62,288,41,73,62,309,36,70,44,190,38,80,36,040,42,1*72
$GLGSV,3,2,09,74,28,262,34,72,21,329,36,82,16,076,38,81,10,029,38,1*7C
$GLGSV,3,3,09,83,05,115,37,1*4E
$GAGSV,2,1,05,04,64,298,40,19,50,153,41,21,48,048,39,31,23,231,45,7*70
$GAGSV,2,2,05,09,15,317,32,7*4F
$GAGSV,2,1,05,04,64,298,36,19,50,153,40,21,48,048,40,31,23,231,40,1*7D
$GAGSV,2,2,05,09,15,317,35,1*4E
$GBGSV,4,1,14,46,73,356,41,19,52,246,46,36,37,269,44,57,29,315,,1*7A
$GBGSV,4,2,14,37,28,065,40,20,27,186,51,22,27,312,38,27,18,119,48,1*77
$GBGSV,4,3,14,28,18,071,38,38,08,332,32,08,06,345,37,30,02,163,49,1*7A
$GBGSV,4,4,14,58,,,15,63,,,28,1*75
$GBGSV,3,1,10,46,73,356,31,19,52,246,41,36,37,269,41,37,28,065,39,5*71
$GBGSV,3,2,10,22,27,312,25,20,27,186,38,27,18,119,38,28,18,071,35,5*7E
$GBGSV,3,3,10,38,08,332,22,30,02,163,35,5*71
$GNGGA,125702.000,4005.099292,N,10513.208508,W,2,53,0.45,1583.864,M,-20.670,M,,*75
$GPGSV,3,1,11,09,77,216,46,07,54,307,38,08,45,125,45,04,41,150,46,1*68
$GPGSV,3,2,11,27,38,074,33,46,37,214,45,16,25,048,37,30,24,288,42,1*61
$GPGSV,3,3,11,20,12,305,25,14,11,231,49,05,01,333,,1*5B
$GPGSV,2,1,06,09,77,216,44,08,45,125,47,04,41,150,46,27,38,074,38,8*69
$GPGSV,2,2,06,30,24,288,36,14,11,231,42,8*6A
$GLGSV,3,1,09,71,62,288,41,73,62,309,37,70,44,190,38,80,36,040,42,1*73
$GLGSV,3,2,09,74,28,262,32,72,21,329,38,82,16,076,38,81,10,029,37,1*7B
$GLGSV,3,3,09,83,05,115,37,1*4E
$GAGSV,2,1,05,04,64,298,40,19,50,153,41,21,48,048,39,31,23,231,45,7*70
$GAGSV,2,2,05,09,15,317,31,7*4C
$GAGSV,2,1,05,04,64,298,36,19,50,153,40,21,48,048,40,31,23,231,40,1*7D
$GAGSV,2,2,05,09,15,317,34,1*4F
$GBGSV,4,1,13,46,73,356,41,19,52,246,46,36,37,269,44,57,29,315,,1*7D
$GBGSV,4,2,13,37,28,065,40,20,27,186,51,22,27,312,37,27,18,119,48,1*7F
$GBGSV,4,3,13,28,18,071,38,38,08,332,32,08,06,345,37,30,02,163,49,1*7D
$GBGSV,4,4,13,58,,,16,1*7E
$GBGSV,3,1,10,46,73,356,31,19,52,246,41,36,37,269,41,37,28,065,39,5*71
$GBGSV,3,2,10,22,27,312,26,20,27,186,38,27,18,119,38,28,18,071,35,5*7D
$GBGSV,3,3,10,38,08,332,21,30,02,163,35,5*72
$GNGGA,125707.000,4005.099292,N,10513.208496,W,2,53,0.45,1583.861,M,-20.670,M,,*73
$GPGSV,3,1,11,09,77,216,46,07,54,307,38,08,45,125,45,04,41,150,46,1*68
$GPGSV,3,2,11,27,38,074,34,46,37,214,45,16,25,048,37,30,24,288,42,1*66
$GPGSV,3,3,11,20,12,305,27,14,11,231,48,05,01,333,,1*58
$GPGSV,2,1,06,09,77,216,44,08,45,125,47,04,41,150,46,27,38,074,38,8*69
$GPGSV,2,2,06,30,24,288,36,14,11,231,42,8*6A
$GLGSV,3,1,09,71,63,285,41,73,62,313,38,70,43,190,38,80,36,040,42,1*7C
$GLGSV,3,2,09,74,29,263,31,72,22,328,38,82,16,076,38,81,10,029,36,1*7B
$GLGSV,3,3,09,83,05,115,37,1*4E
$GAGSV,2,1,05,04,64,298,40,19,50,153,41,21,48,048,39,31,23,231,46,7*73
$GAGSV,2,2,05,09,15,317,28,7*44
$GAGSV,2,1,05,04,64,298,36,19,50,153,40,21,48,048,40,31,23,231,41,1*7C
$GAGSV,2,2,05,09,15,317,32,1*49
$GBGSV,4,1,13,46,73,356,41,19,52,246,46,36,37,269,44,57,29,315,,1*7D
$GBGSV,4,2,13,37,28,065,40,20,27,186,51,22,27,312,36,27,18,119,48,1*7E
$GBGSV,4,3,13,28,18,071,38,38,08,332,32,08,06,345,37,30,02,163,49,1*7D
$GBGSV,4,4,13,58,,,14,1*7C
$GBGSV,3,1,10,46,73,356,32,19,52,246,41,36,37,269,41,37,28,065,39,5*72
$GBGSV,3,2,10,22,27,312,26,20,27,186,38,27,18,119,38,28,18,071,35,5*7D
$GBGSV,3,3,10,38,08,332,22,30,02,163,35,5*71
$GNGGA,125712.000,4005.099286,N,10513.208484,W,2,53,0.45,1583.867,M,-20.670,M,,*77
$GPGSV,3,1,11,09,77,216,45,07,54,307,39,08,45,125,45,04,41,150,46,1*6A
$GPGSV,3,2,11,27,38,074,35,46,37,214,45,16,25,048,38,30,24,288,42,1*68
$GPGSV,3,3,11,20,12,305,26,14,11,231,49,05,01,333,,1*58
$GPGSV,2,1,06,09,77,216,44,08,45,125,47,04,41,150,46,27,38,074,38,8*69
$GPGSV,2,2,06,30,24,288,36,14,11,231,43,8*6B
$GLGSV,3,1,09,71,63,285,41,73,62,313,38,70,43,190,38,80,36,040,42,1*7C
$GLGSV,3,2,09,74,29,263,32,72,22,328,39,82,16,076,38,81,10,029,34,1*7B
$GLGSV,3,3,09,83,05,115,37,1*4E
$GAGSV,2,1,05,04,64,298,40,19,50,153,41,21,48,048,39,31,23,231,46,7*73
$GAGSV,2,2,05,09,15,317,25,7*49
$GAGSV,2,1,05,04,64,298,36,19,50,153,40,21,48,048,40,31,23,231,41,1*7C
$GAGSV,2,2,05,09,15,317,32,1*49
$GBGSV,4,1,13,46,73,356,41,19,52,246,46,36,37,269,44,57,29,315,,1*7D
$GBGSV,4,2,13,37,28,065,40,20,27,186,51,22,27,312,36,27,18,119,48,1*7E
$GBGSV,4,3,13,28,18,071,38,38,08,332,31,08,06,345,37,30,02,163,49,1*7E
$GBGSV,4,4,13,58,,,14,1*7C
$GBGSV,3,1,10,46,73,356,32,19,52,246,41,36,37,269,41,37,28,065,39,5*72
$GBGSV,3,2,10,22,27,312,26,20,27,186,38,27,18,119,38,28,18,071,35,5*7D
$GBGSV,3,3,10,38,08,332,22,30,02,163,34,5*70
$GNGGA,125717.000,4005.099268,N,10513.208436,W,2,53,0.45,1583.734,M,-20.670,M,,*72
$GPGSV,3,1,11,09,77,216,45,07,54,307,39,08,45,125,45,04,41,150,46,1*6A
$GPGSV,3,2,11,27,38,074,35,46,37,214,44,16,25,048,38,30,24,288,42,1*69
$GPGSV,3,3,11,20,12,305,27,14,11,231,49,05,01,333,,1*59
$GPGSV,2,1,06,09,77,216,44,08,45,125,47,04,41,150,46,27,38,074,39,8*68
$GPGSV,2,2,06,30,24,288,36,14,11,231,43,8*6B
$GLGSV,3,1,09,71,63,285,42,73,62,313,36,70,43,190,38,80,35,041,40,1*71
$GLGSV,3,2,09,74,29,263,34,72,22,328,39,82,17,074,38,81,10,028,33,1*78
$GLGSV,3,3,09,83,06,114,37,1*4C
$GAGSV,2,1,05,04,64,298,40,19,50,153,41,21,48,048,39,31,23,231,46,7*73
$GAGSV,2,2,05,09,15,317,23,7*4F
$GAGSV,2,1,05,04,64,298,36,19,50,153,40,21,48,048,40,31,23,231,41,1*7C
$GAGSV,2,2,05,09,15,317,31,1*4A
$GBGSV,4,1,13,46,73,356,41,19,52,246,46,36,37,269,44,57,29,315,,1*7D
$GBGSV,4,2,13,37,28,065,40,20,27,186,51,22,27,312,37,27,18,119,48,1*7F
$GBGSV,4,3,13,28,18,071,37,38,08,332,31,08,06,345,37,30,02,163,50,1*79
$GBGSV,4,4,13,58,,,14,1*7C
$GBGSV,3,1,10,46,73,356,32,19,52,246,41,36,37,269,41,37,28,065,39,5*72
$GBGSV,3,2,10,22,27,312,26,20,27,186,37,27,18,119,38,28,18,071,35,5*72
$GBGSV,3,3,10,38,08,332,23,30,02,163,33,5*76
$GNGGA,125722.000,4005.099250,N,10513.208394,W,2,53,0.45,1583.672,M,-20.669,M,,*7B
$GPGSV,3,1,11,09,77,216,45,07,54,307,40,08,45,125,45,04,41,150,46,1*64
$GPGSV,3,2,11,27,38,074,35,46,37,214,45,16,25,048,38,30,24,288,42,1*68
$GPGSV,3,3,11,20,12,305,27,14,11,231,49,05,01,333,,1*59
$GPGSV,2,1,06,09,77,216,44,08,45,125,47,04,41,150,46,27,38,074,39,8*68
$GPGSV,2,2,06,30,24,288,36,14,11,231,43,8*6B
$GLGSV,3,1,09,71,63,285,42,73,62,313,37,70,43,190,38,80,35,041,39,1*7E
$GLGSV,3,2,09,74,29,263,35,72,22,328,39,82,17,074,39,81,10,028,33,1*78
$GLGSV,3,3,09,83,06,114,37,1*4C
$GAGSV,2,1,05,04,64,298,40,19,50,153,41,21,48,048,39,31,23,231,46,7*73
$GAGSV,2,2,05,09,15,317,24,7*48
$GAGSV,2,1,05,04,64,298,36,19,50,153,40,21,48,048,40,31,23,231,41,1*7C
$GAGSV,2,2,05,09,15,317,31,1*4A
$GBGSV,4,1,13,46,73,356,40,19,52,246,46,36,37,269,44,57,29,315,,1*7C
$GBGSV,4,2,13,37,28,065,41,20,27,186,51,22,27,312,37,27,18,119,47,1*71
$GBGSV,4,3,13,28,18,071,37,38,08,332,31,08,06,345,37,30,02,163,50,1*79
$GBGSV,4,4,13,58,,,14,1*7C
$GBGSV,3,1,10,46,73,356,32,19,52,246,41,36,37,269,41,37,28,065,39,5*72
$GBGSV,3,2,10,22,27,312,26,20,27,186,37,27,18,119,38,28,18,071,35,5*72
$GBGSV,3,3,10,38,08,332,23,30,02,163,33,5*76
$GNGGA,125727.000,4005.099214,N,10513.208358,W,2,53,0.45,1583.611,M,-20.670,M,,*73
$GPGSV,3,1,11,09,77,216,45,07,54,307,40,08,45,125,45,04,41,150,46,1*64
$GPGSV,3,2,11,27,38,074,35,46,37,214,45,16,25,048,38,30,24,288,42,1*68
$GPGSV,3,3,11,20,12,305,28,14,11,231,50,05,01,333,,1*5E
$GPGSV,2,1,06,09,77,216,44,08,45,125,47,04,41,150,47,27,38,074,39,8*69
$GPGSV,2,2,06,30,24,288,37,14,11,231,43,8*6A
$GLGSV,3,1,09,71,63,285,41,73,62,313,37,70,43,190,38,80,35,041,39,1*7D
$GLGSV,3,2,09,74,29,263,34,72,22,328,41,82,17,074,39,81,10,028,35,1*70
$GLGSV,3,3,09,83,06,114,37,1*4C
$GAGSV,2,1,05,04,64,298,40,19,50,153,41,21,48,048,39,31,23,231,46,7*73
$GAGSV,2,2,05,09,15,317,28,7*44
$GAGSV,2,1,05,04,64,298,36,19,50,153,40,21,48,048,40,31,23,231,41,1*7C
$GAGSV,2,2,05,09,15,317,33,1*48
$GBGSV,4,1,13,46,73,356,40,19,52,246,46,36,37,269,44,57,29,315,,1*7C
$GBGSV,4,2,13,37,28,065,41,20,27,186,51,22,27,312,37,27,18,119,47,1*71
$GBGSV,4,3,13,28,18,071,37,38,08,332,29,08,06,345,37,30,02,163,50,1*70
$GBGSV,4,4,13,58,,,14,1*7C
$GBGSV,3,1,10,46,73,356,32,19,52,246,41,36,37,269,41,37,28,065,39,5*72
$GBGSV,3,2,10,22,27,312,26,20,27,186,37,27,18,119,38,28,18,071,35,5*72
$GBGSV,3,3,10,38,08,332,23,30,02,163,33,5*76
$GNGGA,125732.000,4005.099172,N,10513.208352,W,2,53,0.45,1583.614,M,-20.670,M,,*7B
$GPGSV,3,1,11,09,77,216,45,07,54,307,40,08,45,125,45,04,41,150,46,1*64
$GPGSV,3,2,11,27,38,074,35,46,37,214,45,16,25,048,38,30,24,288,42,1*68
$GPGSV,3,3,11,20,12,305,28,14,11,231,50,05,01,333,,1*5E
$GPGSV,2,1,06,09,77,216,44,08,45,125,47,04,41,150,47,27,38,074,39,8*69
$GPGSV,2,2,06,30,24,288,37,14,11,231,43,8*6A
$GLGSV,3,1,09,71,63,285,41,73,62,313,37,70,43,190,38,80,35,041,40,1*73
$GLGSV,3,2,09,74,29,263,33,72,22,328,43,82,17,074,39,81,10,028,36,1*76
$GLGSV,3,3,09,83,06,114,37,1*4C
$GAGSV,2,1,05,04,64,298,40,19,50,153,41,21,48,048,39,31,23,231,46,7*73
$GAGSV,2,2,05,09,15,317,31,7*4C
$GAGSV,2,1,05,04,64,298,36,19,50,153,40,21,48,048,40,31,23,231,41,1*7C
$GAGSV,2,2,05,09,15,317,32,1*49
$GBGSV,4,1,13,46,73,356,40,19,52,246,46,36,37,269,44,57,29,315,,1*7C
$GBGSV,4,2,13,37,28,065,41,20,27,186,51,22,27,312,37,27,18,119,47,1*71
$GBGSV,4,3,13,28,18,071,37,38,08,332,27,08,06,345,37,30,02,163,50,1*7E
$GBGSV,4,4,13,58,,,12,1*7A
$GBGSV,3,1,10,46,73,356,32,19,52,246,41,36,37,269,41,37,28,065,39,5*72
$GBGSV,3,2,10,22,27,312,26,20,27,186,37,27,18,119,38,28,18,071,35,5*72
$GBGSV,3,3,10,38,08,332,24,30,02,163,33,5*71
$GNGGA,125737.000,4005.099148,N,10513.208328,W,2,52,0.45,1583.840,M,-20.669,M,,*7C
$GPGSV,3,1,11,09,77,216,45,07,54,307,40,08,45,125,45,04,41,150,45,1*67
$GPGSV,3,2,11,27,38,074,35,46,37,214,45,16,25,048,38,30,24,288,42,1*68
$GPGSV,3,3,11,20,12,305,26,14,11,231,50,05,01,333,,1*50
$GPGSV,2,1,06,09,77,216,44,08,45,125,47,04,41,150,47,27,38,074,39,8*69
$GPGSV,2,2,06,30,24,288,37,14,11,231,44,8*6D
$GLGSV,3,1,09,71,63,285,43,73,62,313,37,70,43,190,38,80,35,041,40,1*71
$GLGSV,3,2,09,74,29,263,34,72,22,328,43,82,17,074,38,81,10,028,37,1*71
$GLGSV,3,3,09,83,06,114,36,1*4D
$GAGSV,2,1,05,04,64,298,40,19,50,153,41,21,48,048,39,31,23,231,46,7*73
$GAGSV,2,2,05,09,15,317,32,7*4F
$GAGSV,2,1,05,04,64,298,36,19,50,153,40,21,48,048,40,31,23,231,42,1*7F
$GAGSV,2,2,05,09,15,317,32,1*49
$GBGSV,4,1,14,46,73,356,39,19,52,246,46,36,37,269,44,57,29,315,,1*75
$GBGSV,4,2,14,37,28,065,41,20,27,186,51,22,27,312,37,27,18,119,47,1*76
$GBGSV,4,3,14,28,18,071,37,38,08,332,26,08,06,345,37,30,02,163,50,1*78
$GBGSV,4,4,14,58,,,13,63,,,28,1*73
$GBGSV,3,1,10,46,73,356,32,19,52,246,41,36,37,269,41,37,28,065,39,5*72
$GBGSV,3,2,10,22,27,312,26,20,27,186,37,27,18,119,38,28,18,071,35,5*72
$GBGSV,3,3,10,38,08,332,24,30,02,163,33,5*71
$GNGGA,125742.000,4005.099112,N,10513.208274,W,2,53,0.45,1583.992,M,-20.670,M,,*7E
$GPGSV,3,1,11,09,77,216,45,07,54,307,40,08,45,125,45,04,41,150,45,1*67
$GPGSV,3,2,11,27,38,074,35,46,37,214,44,16,25,048,38,30,24,288,42,1*69
$GPGSV,3,3,11,20,12,305,29,14,11,231,50,05,01,333,,1*5F
$GPGSV,2,1,06,09,77,216,44,08,45,125,47,04,41,150,47,27,38,074,39,8*69
$GPGSV,2,2,06,30,24,288,37,14,11,231,44,8*6D
$GLGSV,3,1,09,71,63,285,42,73,62,313,36,70,43,190,38,80,35,041,40,1*71
$GLGSV,3,2,09,74,29,263,33,72,22,328,43,82,17,074,38,81,10,028,36,1*77
$GLGSV,3,3,09,83,06,114,37,1*4C
$GAGSV,2,1,05,04,64,298,40,19,50,153,41,21,48,048,39,31,23,231,46,7*73
$GAGSV,2,2,05,09,15,317,33,7*4E
$GAGSV,2,1,05,04,64,298,36,19,50,153,40,21,48,048,40,31,23,231,42,1*7F
$GAGSV,2,2,05,09,15,317,32,1*49
$GBGSV,4,1,13,46,73,356,39,19,52,244,46,36,37,269,44,57,29,315,,1*70
$GBGSV,4,2,13,37,28,065,41,22,27,312,38,20,26,186,51,27,18,119,47,1*7F
$GBGSV,4,3,13,28,18,071,37,38,08,332,26,08,06,345,37,30,02,163,51,1*7E
$GBGSV,4,4,13,58,,,13,1*7B
$GBGSV,3,1,10,46,73,356,32,19,52,244,41,36,37,269,41,37,28,065,39,5*70
$GBGSV,3,2,10,22,27,312,25,20,26,186,37,27,18,119,38,28,18,071,35,5*70
$GBGSV,3,3,10,38,08,332,24,30,02,163,32,5*70
$GNGGA,125747.000,4005.099118,N,10513.208298,W,2,52,0.45,1584.195,M,-20.670,M,,*7A
$GPGSV,3,1,11,09,77,216,45,07,54,307,40,08,45,125,45,04,41,150,45,1*67
$GPGSV,3,2,11,27,38,074,33,46,37,214,44,16,25,048,38,30,24,288,42,1*6F
$GPGSV,3,3,11,20,12,305,19,14,11,231,49,05,01,333,,1*54
$GPGSV,2,1,06,09,77,216,44,08,45,125,47,04,41,150,47,27,38,074,39,8*69
$GPGSV,2,2,06,30,24,288,37,14,11,231,44,8*6D
$GLGSV,3,1,09,71,63,285,42,73,62,313,36,70,43,190,38,80,35,041,38,1*7E
$GLGSV,3,2,09,74,29,263,33,72,22,328,43,82,17,074,38,81,10,028,38,1*79
$GLGSV,3,3,09,83,06,114,37,1*4C
$GAGSV,2,1,05,04,64,298,40,19,50,153,41,21,48,048,39,31,23,231,46,7*73
$GAGSV,2,2,05,09,15,317,33,7*4E
$GAGSV,2,1,05,04,64,298,35,19,50,153,39,21,48,048,40,31,23,231,42,1*72
$GAGSV,2,2,05,09,15,317,32,1*49
$GBGSV,4,1,14,46,73,356,39,19,52,244,46,36,37,269,44,57,29,315,,1*77
$GBGSV,4,2,14,22,28,311,38,37,28,065,41,20,26,186,51,27,18,119,47,1*74
$GBGSV,4,3,14,28,18,071,37,38,08,332,26,08,06,345,36,30,02,163,51,1*78
$GBGSV,4,4,14,58,,,13,63,,,28,1*73
$GBGSV,3,1,10,46,73,356,32,19,52,244,41,36,37,269,41,37,28,065,39,5*70
$GBGSV,3,2,10,22,28,311,24,20,26,186,37,27,18,119,37,28,18,071,34,5*73
$GBGSV,3,3,10,38,08,332,24,30,02,163,31,5*73
$GNGGA,125752.000,4005.099118,N,10513.208292,W,2,52,0.45,1584.379,M,-20.670,M,,*74
$GPGSV,3,1,11,09,77,216,45,07,54,307,40,08,45,125,45,04,41,150,45,1*67
$GPGSV,3,2,11,27,38,074,33,46,37,214,45,16,25,048,38,30,24,288,42,1*6E
$GPGSV,3,3,11,20,12,305,18,14,11,231,49,05,01,333,,1*55
$GPGSV,2,1,06,09,77,216,44,08,45,125,47,04,41,150,47,27,38,074,39,8*69
$GPGSV,2,2,06,30,24,288,38,14,11,231,44,8*62
$GLGSV,3,1,09,71,63,285,42,73,62,313,37,70,43,190,38,80,35,041,37,1*70
$GLGSV,3,2,09,74,29,263,34,72,22,328,43,82,17,074,39,81,10,028,39,1*7E
$GLGSV,3,3,09,83,06,114,37,1*4C
$GAGSV,2,1,05,04,64,298,40,19,50,153,41,21,48,048,39,31,23,231,46,7*73
$GAGSV,2,2,05,09,15,317,33,7*4E
$GAGSV,2,1,05,04,64,298,35,19,50,153,39,21,48,048,40,31,23,231,42,1*72
$GAGSV,2,2,05,09,15,317,32,1*49
$GBGSV,4,1,13,46,73,356,39,19,52,244,46,36,37,269,44,57,29,315,,1*70
$GBGSV,4,2,13,22,28,311,38,37,28,065,41,20,26,186,51,27,19,118,47,1*73
$GBGSV,4,3,13,28,19,070,37,38,08,332,26,08,06,345,36,30,03,162,51,1*7F
$GBGSV,4,4,13,58,,,13,1*7B
$GBGSV,3,1,10,46,73,356,31,19,52,244,41,36,37,269,41,37,28,065,39,5*73
$GBGSV,3,2,10,22,28,311,24,20,26,186,37,27,19,118,37,28,19,070,34,5*73
$GBGSV,3,3,10,38,08,332,24,30,03,162,31,5*73
$GNGGA,125757.000,4005.099076,N,10513.208292,W,2,52,0.45,1584.353,M,-20.670,M,,*70
$GPGSV,3,1,11,09,77,216,45,07,54,307,40,08,45,125,45,04,41,150,45,1*67
$GPGSV,3,2,11,27,38,074,36,46,37,214,45,16,25,048,38,30,24,288,42,1*6B
$GPGSV,3,3,11,20,12,305,18,14,11,231,49,05,01,333,,1*55
$GPGSV,2,1,06,09,77,216,44,08,45,125,47,04,41,150,47,27,38,074,39,8*69
$GPGSV,2,2,06,30,24,288,38,14,11,231,44,8*62
$GLGSV,3,1,09,71,63,285,42,73,62,313,37,70,43,190,37,80,35,041,37,1*7F
$GLGSV,3,2,09,74,29,263,34,72,22,328,43,82,17,074,40,81,10,028,39,1*70
$GLGSV,3,3,09,83,06,114,37,1*4C
$GAGSV,2,1,05,04,64,298,40,19,50,153,41,21,48,048,39,31,23,231,46,7*73
$GAGSV,2,2,05,09,15,317,32,7*4F
$GAGSV,2,1,05,04,64,298,35,19,50,153,39,21,48,048,40,31,23,231,42,1*72
$GAGSV,2,2,05,09,15,317,32,1*49
$GBGSV,4,1,14,46,73,356,39,19,52,244,46,36,38,270,44,57,29,315,,1*70
$GBGSV,4,2,14,22,28,311,37,37,28,065,41,20,26,186,51,27,19,118,47,1*7B
$GBGSV,4,3,14,28,19,070,37,38,08,332,27,08,06,345,36,30,03,162,51,1*79
$GBGSV,4,4,14,58,,,14,63,,,26,1*7A
$GBGSV,3,1,10,46,73,356,31,19,52,244,41,36,38,270,41,37,28,065,39,5*74
$GBGSV,3,2,10,22,28,311,21,20,26,186,37,27,19,118,37,28,19,070,34,5*76
$GBGSV,3,3,10,38,08,332,24,30,03,162,33,5*71
$GNGGA,125802.000,4005.099022,N,10513.208298,W,2,52,0.45,1584.352,M,-20.670,M,,*75
$GPGSV,3,1,11,09,77,216,45,07,54,307,40,08,45,125,46,04,41,150,44,1*65
$GPGSV,3,2,11,27,38,074,36,46,37,214,45,16,25,048,38,30,24,288,42,1*6B
$GPGSV,3,3,11,20,12,305,28,14,11,231,49,05,01,333,,1*56
$GPGSV,2,1,06,09,77,216,44,08,45,125,48,04,41,150,47,27,38,074,39,8*66
$GPGSV,2,2,06,30,24,288,38,14,11,231,44,8*62
$GLGSV,3,1,09,71,63,285,42,73,62,313,37,70,43,190,37,80,35,041,37,1*7F
$GLGSV,3,2,09,74,29,263,34,72,22,328,43,82,17,074,39,81,10,028,40,1*70
$GLGSV,3,3,09,83,06,114,37,1*4C
$GAGSV,2,1,05,04,64,298,40,19,50,153,41,21,48,048,39,31,23,231,46,7*73
$GAGSV,2,2,05,09,15,317,31,7*4C
$GAGSV,2,1,05,04,64,298,35,19,50,153,39,21,48,048,40,31,23,231,42,1*72
$GAGSV,2,2,05,09,15,317,32,1*49
$GBGSV,4,1,13,46,73,356,39,19,52,244,46,36,38,270,44,57,29,315,,1*77
$GBGSV,4,2,13,22,28,311,37,37,27,065,41,20,26,186,51,27,19,118,46,1*72
$GBGSV,4,3,13,28,19,070,37,38,08,332,27,08,06,345,36,30,03,162,51,1*7E
$GBGSV,4,4,13,58,,,15,1*7D
$GBGSV,3,1,10,46,73,356,31,19,52,244,41,36,38,270,41,22,28,311,18,5*73
$GBGSV,3,2,10,37,27,065,39,20,26,186,37,27,19,118,37,28,19,070,34,5*74
$GBGSV,3,3,10,38,08,332,25,30,03,162,34,5*77
$GNGGA,125807.000,4005.098968,N,10513.208262,W,2,53,0.45,1584.450,M,-20.670,M,,*77
$GPGSV,3,1,11,09,77,216,45,07,54,307,40,08,45,125,46,04,41,150,44,1*65
$GPGSV,3,2,11,27,38,074,35,46,37,214,45,16,25,048,38,30,24,288,41,1*6B
$GPGSV,3,3,11,20,12,305,30,14,11,231,49,05,01,333,,1*5F
$GPGSV,2,1,06,09,77,216,43,08,45,125,48,04,41,150,47,27,38,074,39,8*61
$GPGSV,2,2,06,30,24,288,38,14,11,231,44,8*62
$GLGSV,3,1,09,71,63,285,43,73,62,313,36,70,43,190,37,80,35,041,36,1*7E
$GLGSV,3,2,09,74,29,263,33,72,22,328,43,82,17,074,39,81,10,028,40,1*77
$GLGSV,3,3,09,83,06,114,37,1*4C
$GAGSV,2,1,05,04,64,298,40,19,50,153,41,21,48,048,39,31,23,231,46,7*73
$GAGSV,2,2,05,09,15,317,28,7*44
$GAGSV,2,1,05,04,64,298,34,19,50,153,38,21,48,048,39,31,23,231,42,1*7C
$GAGSV,2,2,05,09,15,317,31,1*4A
$GBGSV,4,1,13,46,73,359,39,19,52,244,46,36,38,270,44,57,29,315,,1*78
$GBGSV,4,2,13,22,28,311,38,37,27,065,41,20,26,186,51,27,19,118,46,1*7D
$GBGSV,4,3,13,28,19,070,36,38,08,332,29,08,06,345,35,30,03,162,51,1*72
$GBGSV,4,4,13,58,,,14,1*7C
$GBGSV,3,1,10,46,73,359,31,19,52,244,41,36,38,270,41,22,28,311,16,5*72
$GBGSV,3,2,10,37,27,065,39,20,26,186,37,27,19,118,36,28,19,070,34,5*75
$GBGSV,3,3,10,38,08,332,25,30,03,162,34,5*77
$GNGGA,125812.000,4005.098938,N,10513.208190,W,2,52,0.45,1584.615,M,-20.670,M,,*7A
$GPGSV,3,1,11,09,77,216,45,07,54,307,40,08,45,125,46,04,41,150,44,1*65
$GPGSV,3,2,11,27,38,074,34,46,37,214,45,16,25,048,38,30,24,288,41,1*6A
$GPGSV,3,3,11,20,12,305,33,14,11,231,49,05,01,333,,1*5C
$GPGSV,2,1,06,09,77,216,43,08,45,125,48,04,41,150,47,27,38,074,39,8*61
$GPGSV,2,2,06,30,24,288,38,14,11,231,44,8*62
$GLGSV,3,1,09,71,63,285,43,73,62,313,36,70,43,190,37,80,35,041,36,1*7E
$GLGSV,3,2,09,74,29,263,33,72,22,328,42,82,17,074,39,81,10,028,41,1*77
$GLGSV,3,3,09,83,06,114,37,1*4C
$GAGSV,2,1,05,04,64,298,40,19,50,153,41,21,48,048,39,31,23,231,46,7*73
$GAGSV,2,2,05,09,15,317,26,7*4A
$GAGSV,2,1,05,04,64,298,34,19,50,153,38,21,48,048,39,31,23,231,42,1*7C
$GAGSV,2,2,05,09,15,317,31,1*4A
$GBGSV,4,1,14,46,73,359,39,19,52,244,46,36,38,270,44,57,29,315,,1*7F
$GBGSV,4,2,14,22,28,311,38,37,27,065,41,20,26,186,51,27,19,118,46,1*7A
$GBGSV,4,3,14,28,19,070,35,38,08,332,31,08,06,345,35,30,03,162,51,1*7F
$GBGSV,4,4,14,58,,,14,63,,,28,1*74
$GBGSV,3,1,10,46,73,359,31,19,52,244,41,36,38,270,41,22,28,311,15,5*71
$GBGSV,3,2,10,37,27,065,39,20,26,186,38,27,19,118,36,28,19,070,34,5*7A
$GBGSV,3,3,10,38,08,332,25,30,03,162,34,5*77
$GNGGA,125817.000,4005.098944,N,10513.208094,W,2,52,0.45,1584.747,M,-20.670,M,,*77
$GPGSV,3,1,11,09,77,216,45,07,54,307,41,08,45,125,46,04,41,150,44,1*64
$GPGSV,3,2,11,27,38,074,35,46,37,214,45,16,25,048,38,30,24,288,41,1*6B
$GPGSV,3,3,11,20,12,305,32,14,11,231,49,05,01,333,,1*5D
$GPGSV,2,1,06,09,77,216,43,08,45,125,48,04,41,150,47,27,38,074,39,8*61
$GPGSV,2,2,06,30,24,288,38,14,11,231,44,8*62
$GLGSV,3,1,09,71,63,285,43,73,62,313,36,70,43,190,36,80,35,041,36,1*7F
$GLGSV,3,2,09,74,29,263,34,72,22,328,41,82,17,074,39,81,10,028,39,1*7C
$GLGSV,3,3,09,83,06,114,36,1*4D
$GAGSV,2,1,05,04,64,298,40,19,50,153,41,21,48,048,39,31,23,231,46,7*73
$GAGSV,2,2,05,09,15,317,28,7*44
$GAGSV,2,1,05,04,64,298,34,19,50,153,38,21,48,048,39,31,23,231,42,1*7C
$GAGSV,2,2,05,09,15,317,30,1*4B
$GBGSV,4,1,13,46,73,359,39,19,52,244,46,36,38,270,44,57,29,315,,1*78
$GBGSV,4,2,13,22,28,311,39,37,27,065,41,20,26,186,51,27,19,118,46,1*7C
$GBGSV,4,3,13,28,19,070,33,38,08,332,31,08,06,345,35,30,03,162,51,1*7E
$GBGSV,4,4,13,58,,,14,1*7C
$GBGSV,3,1,10,46,73,359,31,19,52,244,41,36,38,270,41,22,28,311,16,5*72
$GBGSV,3,2,10,37,27,065,39,20,26,186,38,27,19,118,36,28,19,070,34,5*7A
$GBGSV,3,3,10,38,08,332,25,30,03,162,35,5*76
$GNGGA,125822.000,4005.098926,N,10513.208052,W,2,53,0.45,1584.700,M,-20.670,M,,*7D
$GPGSV,3,1,11,09,77,216,45,07,54,307,41,08,45,125,46,04,41,150,44,1*64
$GPGSV,3,2,11,27,38,074,35,46,37,214,45,16,25,048,38,30,24,288,41,1*6B
$GPGSV,3,3,11,20,12,305,32,14,11,231,49,05,01,333,,1*5D
$GPGSV,2,1,06,09,77,216,44,08,45,125,48,04,41,150,48,27,38,074,39,8*69
$GPGSV,2,2,06,30,24,288,38,14,11,231,44,8*62
$GLGSV,3,1,09,71,63,285,43,73,62,313,36,70,43,190,36,80,35,041,36,1*7F
$GLGSV,3,2,09,74,29,263,35,72,22,328,41,82,17,074,39,81,10,028,38,1*7C
$GLGSV,3,3,09,83,06,114,35,1*4E
$GAGSV,2,1,05,04,64,298,40,19,50,153,41,21,48,048,38,31,23,231,46,7*72
$GAGSV,2,2,05,09,15,317,32,7*4F
$GAGSV,2,1,05,04,64,298,34,19,50,153,38,21,48,048,40,31,23,231,42,1*72
$GAGSV,2,2,05,09,15,317,29,1*43
$GBGSV,4,1,13,46,73,359,39,19,52,244,46,36,38,270,44,57,30,315,,1*70
$GBGSV,4,2,13,22,28,311,39,37,27,065,41,20,26,186,51,27,19,118,46,1*7C
$GBGSV,4,3,13,28,19,070,34,38,08,332,31,08,06,345,35,30,03,162,51,1*79
$GBGSV,4,4,13,58,,,13,1*7B
$GBGSV,3,1,10,46,73,359,31,19,52,244,41,36,38,270,41,22,28,311,19,5*7D
$GBGSV,3,2,10,37,27,065,39,20,26,186,39,27,19,118,36,28,19,070,34,5*7B
$GBGSV,3,3,10,38,08,332,25,30,03,162,35,5*76
$GNGGA,125827.000,4005.098878,N,10513.208016,W,2,53,0.45,1584.656,M,-20.670,M,,*70
$GPGSV,3,1,11,09,77,216,45,07,54,307,41,08,45,125,46,04,41,150,44,1*64
$GPGSV,3,2,11,27,38,074,36,46,37,214,45,16,25,048,38,30,24,288,41,1*68
$GPGSV,3,3,11,20,12,305,29,14,11,231,49,05,01,333,,1*57
$GPGSV,2,1,06,09,77,216,44,08,45,125,48,04,41,150,48,27,38,074,39,8*69
$GPGSV,2,2,06,30,24,288,38,14,11,231,44,8*62
$GLGSV,3,1,09,71,63,285,43,73,62,313,36,70,43,190,36,80,35,041,36,1*7F
$GLGSV,3,2,09,74,29,263,36,72,22,328,42,82,17,074,39,81,10,028,36,1*72
$GLGSV,3,3,09,83,06,114,34,1*4F
$GAGSV,2,1,05,04,64,298,40,19,50,153,41,21,48,048,38,31,23,231,46,7*72
$GAGSV,2,2,05,09,15,317,34,7*49
$GAGSV,2,1,05,04,64,298,34,19,50,153,38,21,48,048,40,31,23,231,42,1*72
$GAGSV,2,2,05,09,15,317,27,1*4D
$GBGSV,4,1,13,46,73,359,39,19,52,244,46,36,38,270,45,57,30,315,,1*71
$GBGSV,4,2,13,22,28,311,39,37,27,065,41,20,26,186,51,27,19,118,46,1*7C
$GBGSV,4,3,13,28,19,070,35,38,08,332,30,08,06,345,35,30,03,162,51,1*79
$GBGSV,4,4,13,58,,,14,1*7C
$GBGSV,3,1,10,46,73,359,31,19,52,244,41,36,38,270,41,22,28,311,18,5*7C
$GBGSV,3,2,10,37,27,065,39,20,26,186,39,27,19,118,36,28,19,070,34,5*7B
$GBGSV,3,3,10,38,08,332,25,30,03,162,35,5*76
$GNGGA,125832.000,4005.098872,N,10513.208022,W,2,53,0.45,1584.547,M,-20.670,M,,*7A
$GPGSV,3,1,11,09,77,216,45,07,55,308,42,08,46,123,46,04,40,150,43,1*6A
$GPGSV,3,2,11,27,38,074,36,46,37,214,45,16,25,048,39,30,24,288,41,1*69
$GPGSV,3,3,11,20,12,305,24,14,11,231,49,05,01,333,,1*5A
$GPGSV,2,1,06,09,77,216,43,08,46,123,47,04,40,150,47,27,38,074,38,8*6B
$GPGSV,2,2,06,30,24,288,38,14,11,231,44,8*62
$GLGSV,3,1,09,71,63,285,43,73,62,313,36,70,43,190,36,80,35,041,36,1*7F
$GLGSV,3,2,09,74,29,263,35,72,22,328,40,82,17,074,39,81,10,028,36,1*73
$GLGSV,3,3,09,83,06,114,35,1*4E
$GAGSV,2,1,05,04,64,298,40,19,50,153,41,21,48,048,38,31,23,231,46,7*72
$GAGSV,2,2,05,09,15,317,35,7*48
$GAGSV,2,1,05,04,64,298,34,19,50,153,37,21,48,048,39,31,23,231,42,1*73
$GAGSV,2,2,05,09,15,317,25,1*4F
$GBGSV,4,1,13,46,73,359,39,19,52,244,46,36,38,270,45,57,30,315,,1*71
$GBGSV,4,2,13,22,28,311,39,37,27,065,41,20,26,186,51,27,19,118,46,1*7C
$GBGSV,4,3,13,28,19,070,35,38,08,332,31,08,06,345,34,30,03,162,51,1*79
$GBGSV,4,4,13,58,,,14,1*7C
$GBGSV,3,1,10,46,73,359,30,19,52,244,41,36,38,270,40,22,28,311,17,5*73
$GBGSV,3,2,10,37,27,065,38,20,26,186,39,27,19,118,35,28,19,070,33,5*7E
$GBGSV,3,3,10,38,08,332,24,30,03,162,36,5*74
$GNGGA,125837.000,4005.098872,N,10513.208034,W,2,53,0.45,1584.487,M,-20.670,M,,*75
$GPGSV,3,1,11,09,76,212,45,07,55,308,42,08,46,123,46,04,40,150,43,1*6F
$GPGSV,3,2,11,27,38,074,36,46,37,214,46,16,25,048,39,30,24,288,41,1*6A
$GPGSV,3,3,11,20,12,305,18,14,11,231,49,05,01,333,,1*55
$GPGSV,2,1,06,09,76,212,43,08,46,123,48,04,40,150,48,27,38,074,39,8*6F
$GPGSV,2,2,06,30,24,288,38,14,11,231,45,8*63
$GLGSV,3,1,09,71,63,285,42,73,62,313,36,70,43,190,36,80,35,041,36,1*7E
$GLGSV,3,2,09,74,29,263,34,72,22,328,40,82,17,074,38,81,10,028,34,1*71
$GLGSV,3,3,09,83,06,114,35,1*4E
$GAGSV,2,1,05,04,64,298,40,19,50,153,41,21,48,048,38,31,23,231,46,7*72
$GAGSV,2,2,05,09,15,317,37,7*4A
$GAGSV,2,1,05,04,64,298,34,19,50,153,38,21,48,048,40,31,23,231,42,1*72
$GAGSV,2,2,05,09,15,317,25,1*4F
$GBGSV,3,1,12,46,73,359,39,19,52,244,46,36,38,270,45,22,28,311,39,1*72
$GBGSV,3,2,12,37,27,065,40,20,26,186,51,27,19,118,46,28,19,070,35,1*7B
$GBGSV,3,3,12,38,08,332,31,08,06,345,34,30,03,162,51,58,,,14,1*44
$GBGSV,3,1,10,46,73,359,32,19,52,244,41,36,38,270,41,22,28,311,16,5*71
$GBGSV,3,2,10,37,27,065,39,20,26,186,39,27,19,118,35,28,19,070,34,5*78
$GBGSV,3,3,10,38,08,332,25,30,03,162,38,5*7B
$GNGGA,125842.000,4005.098884,N,10513.208016,W,2,53,0.45,1584.470,M,-20.670,M,,*76
$GPGSV,3,1,11,09,76,212,45,07,55,308,40,08,46,123,46,04,40,150,43,1*6D
$GPGSV,3,2,11,27,38,074,36,46,37,214,45,16,24,048,39,30,24,288,41,1*68
$GPGSV,3,3,11,20,12,305,16,14,12,232,49,05,01,333,,1*5B
$GPGSV,2,1,06,09,76,212,44,08,46,123,48,04,40,150,48,27,38,074,40,8*66
$GPGSV,2,2,06,30,24,288,38,14,12,232,45,8*63
$GLGSV,3,1,09,71,63,285,42,73,62,313,36,70,43,190,36,80,35,041,36,1*7E
$GLGSV,3,2,09,74,29,263,35,72,22,328,40,82,17,074,38,81,10,028,35,1*71
$GLGSV,3,3,09,83,06,114,35,1*4E
$GAGSV,2,1,05,04,64,298,40,19,50,153,41,21,48,048,38,31,23,231,46,7*72
$GAGSV,2,2,05,09,15,317,37,7*4A
$GAGSV,2,1,05,04,64,298,34,19,50,153,38,21,48,048,40,31,23,231,42,1*72
$GAGSV,2,2,05,09,15,317,25,1*4F
$GBGSV,4,1,13,46,73,359,39,19,52,244,46,36,38,270,45,57,30,315,,1*71
$GBGSV,4,2,13,22,28,311,39,37,27,065,40,20,26,186,51,27,19,118,46,1*7D
$GBGSV,4,3,13,28,19,070,33,38,08,332,31,08,06,345,33,30,03,162,51,1*78
$GBGSV,4,4,13,58,,,15,1*7D
$GBGSV,3,1,10,46,73,359,32,19,52,244,41,36,38,270,41,22,28,311,16,5*71
$GBGSV,3,2,10,37,27,065,39,20,26,186,39,27,19,118,35,28,19,070,34,5*78
$GBGSV,3,3,10,38,08,332,25,30,03,162,38,5*7B
$GNGGA,125847.000,4005.098926,N,10513.208064,W,2,53,0.45,1584.506,M,-20.670,M,,*7F
$GPGSV,3,1,11,09,76,212,45,07,55,308,40,08,46,123,46,04,40,150,43,1*6D
$GPGSV,3,2,11,27,38,074,36,46,37,214,45,16,24,048,39,30,24,288,41,1*68
$GPGSV,3,3,11,20,12,304,16,14,12,232,49,05,01,333,,1*5A
$GPGSV,2,1,06,09,76,212,44,08,46,123,48,04,40,150,48,27,38,074,40,8*66
$GPGSV,2,2,06,30,24,288,38,14,12,232,45,8*63
$GLGSV,3,1,09,71,63,285,42,73,62,313,36,70,43,190,35,80,35,041,36,1*7D
$GLGSV,3,2,09,74,29,263,35,72,22,328,38,82,17,074,38,81,10,028,34,1*7F
$GLGSV,3,3,09,83,06,114,35,1*4E
$GAGSV,2,1,05,04,64,298,40,19,50,153,41,21,48,048,38,31,23,231,46,7*72
$GAGSV,2,2,05,09,15,317,37,7*4A
$GAGSV,2,1,05,04,64,298,34,19,50,153,38,21,48,048,40,31,23,231,42,1*72
$GAGSV,2,2,05,09,15,317,24,1*4E
$GBGSV,4,1,13,46,73,359,39,19,52,244,46,36,38,270,45,57,30,315,,1*71
$GBGSV,4,2,13,22,28,311,39,37,27,065,41,20,26,186,51,27,19,118,46,1*7C
$GBGSV,4,3,13,28,19,070,31,38,08,332,29,08,06,345,34,30,03,162,51,1*74
$GBGSV,4,4,13,58,,,15,1*7D
$GBGSV,3,1,10,46,73,359,33,19,52,244,41,36,38,270,41,22,28,311,16,5*70
$GBGSV,3,2,10,37,27,065,39,20,26,186,40,27,19,118,35,28,19,070,34,5*76
$GBGSV,3,3,10,38,08,332,25,30,03,162,38,5*7B
$GNGGA,125852.000,4005.098998,N,10513.208154,W,2,53,0.45,1584.551,M,-20.669,M,,*76
$GPGSV,3,1,11,09,76,212,45,07,55,308,40,08,46,123,46,04,40,150,43,1*6D
$GPGSV,3,2,11,27,38,072,37,46,37,214,45,16,24,048,39,30,24,288,41,1*6F
$GPGSV,3,3,11,20,12,304,19,14,12,232,49,05,01,333,,1*55
$GPGSV,2,1,06,09,76,212,44,08,46,123,48,04,40,150,48,27,38,072,40,8*60
$GPGSV,2,2,06,30,24,288,38,14,12,232,45,8*63
$GLGSV,3,1,09,71,63,285,41,73,62,313,37,70,43,190,35,80,35,041,37,1*7E
$GLGSV,3,2,09,74,29,263,36,72,22,328,36,82,17,074,38,81,10,028,35,1*73
$GLGSV,3,3,09,83,06,114,35,1*4E
$GAGSV,2,1,05,04,64,298,40,19,50,153,41,21,48,048,37,31,23,231,46,7*7D
$GAGSV,2,2,05,09,15,317,36,7*4B
$GAGSV,2,1,05,04,64,298,34,19,50,153,38,21,48,048,40,31,23,231,42,1*72
$GAGSV,2,2,05,09,15,317,24,1*4E
$GBGSV,4,1,13,46,73,359,39,19,52,244,46,36,38,270,45,57,30,315,,1*71
$GBGSV,4,2,13,22,28,311,39,37,27,065,41,20,26,186,51,27,19,118,46,1*7C
$GBGSV,4,3,13,28,19,070,31,38,08,332,29,08,06,345,33,30,03,162,51,1*73
$GBGSV,4,4,13,58,,,13,1*7B
$GBGSV,3,1,10,46,73,359,32,19,52,244,41,36,38,270,41,22,28,311,16,5*71
$GBGSV,3,2,10,37,27,065,39,20,26,186,40,27,19,118,35,28,19,070,34,5*76
$GBGSV,3,3,10,38,08,332,25,30,03,162,38,5*7B
$GNGGA,125857.000,4005.099118,N,10513.208256,W,2,53,0.45,1584.610,M,-20.670,M,,*7D
$GPGSV,3,1,11,09,76,212,45,07,55,308,40,08,46,123,46,04,40,150,43,1*6D
$GPGSV,3,2,11,27,38,072,37,46,37,214,45,30,25,289,41,16,24,048,39,1*6F
$GPGSV,3,3,11,20,12,304,23,14,12,232,49,05,01,333,,1*5C
$GPGSV,2,1,06,09,76,212,44,08,46,123,48,04,40,150,48,27,38,072,39,8*6E
$GPGSV,2,2,06,30,25,289,38,14,12,232,45,8*63
$GLGSV,3,1,09,71,63,285,42,73,62,313,37,70,43,190,35,80,35,041,37,1*7D
$GLGSV,3,2,09,74,29,263,36,72,22,328,37,82,17,074,38,81,10,028,35,1*72
$GLGSV,3,3,09,83,06,114,34,1*4F
$GAGSV,2,1,05,04,64,298,40,19,50,153,41,21,48,048,37,31,23,231,46,7*7D
$GAGSV,2,2,05,09,15,317,33,7*4E
$GAGSV,2,1,05,04,64,298,33,19,50,153,38,21,48,048,40,31,23,231,42,1*75
$GAGSV,2,2,05,09,15,317,23,1*49
$GBGSV,4,1,13,46,73,359,39,19,52,244,46,36,38,270,45,57,30,315,,1*71
$GBGSV,4,2,13,22,28,311,39,37,27,065,41,20,26,186,51,27,19,118,46,1*7C
$GBGSV,4,3,13,28,19,070,34,38,08,332,28,08,06,345,33,30,03,162,51,1*77
$GBGSV,4,4,13,58,,,13,1*7B
$GBGSV,3,1,10,46,73,359,32,19,52,244,41,36,38,270,41,22,28,311,15,5*72
$GBGSV,3,2,10,37,27,065,39,20,26,186,40,27,19,118,35,28,19,070,34,5*76
$GBGSV,3,3,10,38,08,332,25,30,03,162,38,5*7B
$GNGGA,125902.000,4005.099226,N,10513.208322,W,2,52,0.45,1584.581,M,-20.670,M,,*7A
$GPGSV,3,1,11,09,76,212,45,07,55,308,40,08,46,123,46,04,40,150,43,1*6D
$GPGSV,3,2,11,27,38,072,37,46,37,214,45,30,25,289,41,16,24,048,39,1*6F
$GPGSV,3,3,11,20,12,304,25,14,12,232,49,05,01,333,,1*5A
$GPGSV,2,1,06,09,76,212,44,08,46,123,48,04,40,150,48,27,38,072,40,8*60
$GPGSV,2,2,06,30,25,289,38,14,12,232,45,8*63
$GLGSV,3,1,09,71,63,285,42,73,62,313,37,70,43,190,35,80,35,041,37,1*7D
$GLGSV,3,2,09,74,29,263,37,72,22,328,38,82,17,074,38,81,10,028,34,1*7D
$GLGSV,3,3,09,83,06,114,34,1*4F
$GAGSV,2,1,05,04,64,298,40,19,50,153,41,21,48,048,37,31,23,231,46,7*7D
$GAGSV,2,2,05,09,15,317,29,7*45
$GAGSV,2,1,05,04,64,298,34,19,50,153,38,21,48,048,40,31,23,231,42,1*72
$GAGSV,2,2,05,09,15,317,22,1*48
$GBGSV,4,1,13,46,73,359,39,19,52,244,46,36,38,270,45,57,30,315,,1*71
$GBGSV,4,2,13,22,28,311,39,37,27,065,42,20,26,186,51,27,19,118,46,1*7F
$GBGSV,4,3,13,28,19,070,35,38,08,332,28,08,06,345,33,30,03,162,51,1*76
$GBGSV,4,4,13,58,,,15,1*7D
$GBGSV,3,1,09,46,73,359,33,19,52,244,42,36,38,270,41,37,27,065,39,5*7D
$GBGSV,3,2,09,20,26,186,41,27,19,118,35,28,19,070,34,38,08,332,25,5*71
$GBGSV,3,3,09,30,03,162,39,5*44
$GNGGA,125907.000,4005.099274,N,10513.208298,W,2,52,0.45,1584.505,M,-20.670,M,,*74
$GPGSV,3,1,11,09,76,212,45,07,55,308,40,08,46,123,46,04,40,150,43,1*6D
$GPGSV,3,2,11,27,38,072,37,46,37,214,45,30,25,289,40,16,24,048,39,1*6E
$GPGSV,3,3,11,20,12,304,27,14,12,232,49,05,01,333,,1*58
$GPGSV,2,1,06,09,76,212,44,08,46,123,48,04,40,150,48,27,38,072,40,8*60
$GPGSV,2,2,06,30,25,289,39,14,12,232,45,8*62
$GLGSV,3,1,09,71,63,285,42,73,62,313,37,70,43,190,35,80,35,041,37,1*7D
$GLGSV,3,2,09,74,29,263,38,72,22,328,38,82,17,074,38,81,10,028,32,1*74
$GLGSV,3,3,09,83,06,114,34,1*4F
$GAGSV,2,1,05,04,64,297,40,19,50,153,41,21,48,048,37,31,23,231,46,7*72
$GAGSV,2,2,05,09,15,317,27,7*4B
$GAGSV,2,1,05,04,64,297,35,19,50,153,38,21,48,048,40,31,23,231,43,1*7D
$GAGSV,2,2,05,09,15,317,21,1*4B
$GBGSV,4,1,13,46,73,359,39,19,52,244,46,36,38,270,45,57,30,315,,1*71
$GBGSV,4,2,13,22,28,311,39,37,27,065,42,20,26,186,51,27,19,118,45,1*7C
$GBGSV,4,3,13,28,19,070,35,38,08,332,26,08,06,345,33,30,03,162,51,1*78
$GBGSV,4,4,13,58,,,14,1*7C
$GBGSV,3,1,09,46,73,359,33,19,52,244,42,36,38,270,41,37,27,065,39,5*7D
$GBGSV,3,2,09,20,26,186,41,27,19,118,35,28,19,070,34,38,08,332,26,5*72
$GBGSV,3,3,09,30,03,162,39,5*44
$GNGGA,125912.000,4005.099364,N,10513.208292,W,2,52,0.45,1584.466,M,-20.669,M,,*76
$GPGSV,3,1,11,09,76,212,45,07,55,308,40,08,46,123,46,04,40,150,43,1*6D
$GPGSV,3,2,11,27,38,072,37,46,37,214,45,30,25,289,40,16,24,048,39,1*6E
$GPGSV,3,3,11,20,12,304,27,14,12,232,49,05,01,333,,1*58
$GPGSV,2,1,06,09,76,212,44,08,46,123,48,04,40,150,48,27,38,072,40,8*60
$GPGSV,2,2,06,30,25,289,39,14,12,232,45,8*62
$GLGSV,3,1,09,71,63,285,42,73,62,313,37,70,43,190,34,80,35,041,37,1*7C
$GLGSV,3,2,09,74,29,263,38,72,22,328,38,82,17,074,39,81,10,028,31,1*76
$GLGSV,3,3,09,83,06,114,34,1*4F
$GAGSV,2,1,05,04,64,297,40,19,50,153,41,21,48,048,37,31,23,231,46,7*72
$GAGSV,2,2,05,09,16,317,29,7*46
$GAGSV,2,1,05,04,64,297,35,19,50,153,38,21,48,048,39,31,23,231,43,1*73
$GAGSV,2,2,05,09,16,317,20,1*49
$GBGSV,4,1,13,46,73,359,39,19,52,244,46,36,38,270,45,57,30,315,,1*71
$GBGSV,4,2,13,22,28,311,39,37,27,065,42,20,26,186,51,27,19,118,45,1*7C
$GBGSV,4,3,13,28,19,070,34,38,08,332,24,08,06,345,33,30,03,162,51,1*7B
$GBGSV,4,4,13,58,,,15,1*7D
$GBGSV,3,1,09,46,73,359,33,19,52,244,42,36,38,270,41,37,27,065,39,5*7D
$GBGSV,3,2,09,20,26,186,41,27,19,118,34,28,19,070,34,38,08,332,25,5*70
$GBGSV,3,3,09,30,03,162,40,5*4A
$GNGGA,125917.000,4005.099436,N,10513.208298,W,2,52,0.45,1584.393,M,-20.670,M,,*7C
$GPGSV,3,1,11,09,76,212,45,07,55,308,40,08,46,123,46,04,40,150,43,1*6D
$GPGSV,3,2,11,27,38,072,37,46,37,214,44,30,25,289,40,16,24,048,40,1*61
$GPGSV,3,3,11,20,12,304,27,14,12,232,49,05,01,333,,1*58
$GPGSV,2,1,06,09,76,212,44,08,46,123,48,04,40,150,48,27,38,072,40,8*60
$GPGSV,2,2,06,30,25,289,39,14,12,232,45,8*62
$GLGSV,3,1,09,71,63,285,41,73,62,313,36,70,43,190,33,80,35,041,37,1*79
$GLGSV,3,2,09,74,29,263,38,72,22,328,38,82,17,074,40,81,10,028,29,1*71
$GLGSV,3,3,09,83,06,114,33,1*48
$GAGSV,2,1,05,04,64,297,40,19,50,153,41,21,48,048,37,31,23,231,46,7*72
$GAGSV,2,2,05,09,16,317,33,7*4D
$GAGSV,2,1,05,04,64,297,34,19,50,153,38,21,48,048,39,31,23,231,43,1*72
$GAGSV,2,2,05,09,16,317,20,1*49
$GBGSV,4,1,14,46,73,359,39,19,52,244,46,36,38,270,45,57,30,315,,1*76
$GBGSV,4,2,14,22,28,311,38,37,27,065,42,20,26,186,51,27,19,118,45,1*7A
$GBGSV,4,3,14,28,19,070,32,38,08,332,21,08,06,345,33,30,03,162,51,1*7F
$GBGSV,4,4,14,58,,,15,63,,,30,1*7C
$GBGSV,3,1,09,46,73,359,33,19,52,244,42,36,38,270,41,37,27,065,39,5*7D
$GBGSV,3,2,09,20,26,186,41,27,19,118,34,28,19,070,34,38,08,332,25,5*70
$GBGSV,3,3,09,30,03,162,41,5*4B
$GNGGA,125922.000,4005.099484,N,10513.208292,W,2,51,0.45,1584.394,M,-20.670,M,,*7D
$GPGSV,3,1,11,09,76,212,45,07,55,308,40,08,46,123,46,04,40,150,43,1*6D
$GPGSV,3,2,11,27,38,072,37,46,37,214,45,30,25,289,39,16,24,048,40,1*6E
$GPGSV,3,3,11,20,12,304,22,14,12,232,49,05,01,333,,1*5D
$GPGSV,2,1,06,09,76,212,44,08,46,123,48,04,40,150,48,27,38,072,40,8*60
$GPGSV,2,2,06,30,25,289,39,14,12,232,45,8*62
$GLGSV,3,1,09,71,63,285,42,73,62,313,36,70,43,190,33,80,35,041,37,1*7A
$GLGSV,3,2,09,74,29,263,38,72,22,328,37,82,17,074,40,81,10,028,29,1*7E
$GLGSV,3,3,09,83,06,114,33,1*48
$GAGSV,2,1,05,04,64,297,40,19,49,154,41,21,48,048,37,31,23,231,46,7*7D
$GAGSV,2,2,05,09,16,317,35,7*4B
$GAGSV,2,1,05,04,64,297,34,19,49,154,38,21,48,048,39,31,23,231,43,1*7D
$GAGSV,2,2,05,09,16,317,21,1*48
$GBGSV,4,1,14,46,73,359,39,19,52,244,46,36,38,270,46,57,30,315,,1*75
$GBGSV,4,2,14,22,28,311,38,37,27,065,42,20,26,186,51,27,19,118,45,1*7A
$GBGSV,4,3,14,28,19,070,31,38,08,332,20,08,06,345,33,30,03,162,51,1*7D
$GBGSV,4,4,14,58,,,15,63,,,30,1*7C
$GBGSV,3,1,09,46,73,359,33,19,52,244,42,36,38,270,41,37,27,065,39,5*7D
$GBGSV,3,2,09,20,26,186,41,27,19,118,34,28,19,070,35,38,08,332,26,5*72
$GBGSV,3,3,09,30,03,162,41,5*4B
$GNGGA,125927.000,4005.099460,N,10513.208232,W,2,51,0.45,1584.373,M,-20.670,M,,*71
$GPGSV,3,1,11,09,76,212,45,07,55,308,40,08,46,123,47,04,40,150,43,1*6C
$GPGSV,3,2,11,27,38,072,37,46,37,214,44,30,25,289,39,16,24,048,40,1*6F
$GPGSV,3,3,11,20,12,304,21,14,12,232,48,05,01,333,,1*5F
$GPGSV,2,1,06,09,76,212,44,08,46,123,48,04,40,150,48,27,38,072,40,8*60
$GPGSV,2,2,06,30,25,289,39,14,12,232,45,8*62
$GLGSV,3,1,09,71,63,285,42,73,62,313,36,70,43,190,32,80,35,041,37,1*7B
$GLGSV,3,2,09,74,29,263,37,72,22,328,37,82,17,074,39,81,10,028,32,1*75
$GLGSV,3,3,09,83,06,114,33,1*48
$GAGSV,2,1,05,04,64,297,40,19,49,154,40,21,47,048,36,31,23,231,46,7*72
$GAGSV,2,2,05,09,16,317,36,7*48
$GAGSV,2,1,05,04,64,297,34,19,49,154,38,21,47,048,39,31,23,231,43,1*72
$GAGSV,2,2,05,09,16,317,24,1*4D
$GBGSV,4,1,14,46,73,359,39,19,52,244,46,36,38,270,46,57,30,315,,1*75
$GBGSV,4,2,14,22,28,311,38,37,27,065,42,20,26,186,51,27,19,118,45,1*7A
$GBGSV,4,3,14,28,19,070,31,38,08,332,21,08,06,345,34,30,03,162,51,1*7B
$GBGSV,4,4,14,58,,,15,63,,,30,1*7C
$GBGSV,3,1,09,46,73,359,32,19,52,244,42,36,38,270,41,37,27,065,39,5*7C
$GBGSV,3,2,09,20,26,186,42,27,19,118,34,28,19,070,35,38,08,332,26,5*71
$GBGSV,3,3,09,30,03,162,42,5*48
$GNGGA,125932.000,4005.099394,N,10513.208178,W,2,51,0.45,1584.427,M,-20.670,M,,*72
$GPGSV,3,1,11,09,76,212,45,07,55,308,40,08,46,123,47,04,40,150,43,1*6C
$GPGSV,3,2,11,27,38,072,37,46,37,214,45,30,25,289,39,16,24,048,40,1*6E
$GPGSV,3,3,11,20,12,304,19,14,12,232,48,05,01,333,,1*54
$GPGSV,2,1,06,09,76,212,44,08,46,123,48,04,40,150,48,27,38,072,40,8*60
$GPGSV,2,2,06,30,25,289,39,14,12,232,45,8*62
$GLGSV,3,1,09,71,63,285,42,73,62,313,36,70,43,190,32,80,35,041,37,1*7B
$GLGSV,3,2,09,74,29,263,37,72,22,328,39,82,17,074,38,81,10,028,33,1*7B
$GLGSV,3,3,09,83,06,114,33,1*48
$GAGSV,2,1,05,04,64,297,40,19,49,154,40,21,47,048,36,31,23,231,46,7*72
$GAGSV,2,2,05,09,16,317,37,7*49
$GAGSV,2,1,05,04,64,297,34,19,49,154,38,21,47,048,38,31,23,231,43,1*73
$GAGSV,2,2,05,09,16,317,27,1*4E
$GBGSV,4,1,13,46,73,359,39,19,52,244,46,36,38,270,46,57,30,315,,1*72
$GBGSV,4,2,13,22,28,311,38,37,27,065,43,20,26,186,50,27,19,118,44,1*7C
$GBGSV,4,3,13,28,19,070,31,38,08,332,23,08,06,345,34,30,03,162,51,1*7E
$GBGSV,4,4,13,58,,,14,1*7C
$GBGSV,3,1,09,46,73,359,32,19,52,244,42,36,38,270,41,37,27,065,39,5*7C
$GBGSV,3,2,09,20,26,186,42,27,19,118,33,28,19,070,35,38,08,332,26,5*76
$GBGSV,3,3,09,30,03,162,42,5*48
$GNGGA,125937.000,4005.099364,N,10513.208172,W,2,49,0.45,1584.481,M,-20.670,M,,*77
$GPGSV,3,1,11,09,76,212,45,07,55,308,40,08,46,123,47,04,40,150,43,1*6C
$GPGSV,3,2,11,27,38,072,37,46,37,214,46,30,25,289,38,16,24,048,40,1*6C
$GPGSV,3,3,11,20,12,304,20,14,12,232,48,05,01,333,,1*5E
$GPGSV,2,1,06,09,76,212,44,08,46,123,48,04,40,150,48,27,38,072,40,8*60
$GPGSV,2,2,06,30,25,289,39,14,12,232,45,8*62
$GLGSV,3,1,09,71,63,285,42,73,62,313,36,70,43,190,32,80,35,041,37,1*7B
$GLGSV,3,2,09,74,29,263,38,72,22,328,39,82,17,074,38,81,10,028,34,1*73
$GLGSV,3,3,09,83,06,114,32,1*49
$GAGSV,2,1,05,04,64,297,40,19,49,154,40,21,47,048,36,31,24,232,46,7*76
$GAGSV,2,2,05,09,16,317,37,7*49
$GAGSV,2,1,05,04,64,297,34,19,49,154,38,21,47,048,38,31,24,232,43,1*77
$GAGSV,2,2,05,09,16,317,28,1*41
$GBGSV,4,1,13,46,73,359,39,19,52,244,46,36,38,270,46,57,30,315,,1*72
$GBGSV,4,2,13,22,28,311,38,37,27,065,43,20,26,186,50,27,19,118,44,1*7C
$GBGSV,4,3,13,28,19,070,33,38,08,332,25,08,06,345,34,30,03,162,51,1*7A
$GBGSV,4,4,13,58,,,14,1*7C
$GBGSV,3,1,09,46,73,359,32,19,52,244,42,36,38,270,41,37,27,065,39,5*7C
$GBGSV,3,2,09,20,26,186,42,27,19,118,33,28,19,070,35,38,08,332,26,5*76
$GBGSV,3,3,09,30,03,162,42,5*48
$GNGGA,125942.000,4005.099340,N,10513.208148,W,2,53,0.45,1584.474,M,-20.670,M,,*7B
$GPGSV,3,1,11,09,76,212,45,07,55,308,40,08,46,123,47,04,40,150,44,1*6B
$GPGSV,3,2,11,27,38,072,37,46,37,214,46,30,25,289,38,16,24,048,41,1*6D
$GPGSV,3,3,11,20,12,304,26,14,12,232,48,05,01,333,,1*58
$GPGSV,2,1,06,09,76,212,44,08,46,123,48,04,40,150,48,27,38,072,41,8*61
$GPGSV,2,2,06,30,25,289,39,14,12,232,45,8*62
$GLGSV,3,1,09,71,63,285,42,73,62,313,36,70,43,190,32,80,35,041,37,1*7B
$GLGSV,3,2,09,74,29,263,38,72,22,328,36,82,17,074,37,81,10,028,35,1*72
$GLGSV,3,3,09,83,06,114,31,1*4A
$GAGSV,2,1,05,04,64,297,40,19,49,154,40,21,47,048,35,31,24,232,46,7*75
$GAGSV,2,2,05,09,16,317,37,7*49
$GAGSV,2,1,05,04,64,297,34,19,49,154,37,21,47,048,38,31,24,232,43,1*78
$GAGSV,2,2,05,09,16,317,29,1*40
$GBGSV,4,1,13,46,73,359,39,19,52,244,46,36,38,270,46,57,30,315,,1*72
$GBGSV,4,2,13,22,28,311,38,37,27,065,43,20,26,186,50,27,19,118,44,1*7C
$GBGSV,4,3,13,28,19,070,34,38,08,332,25,08,06,345,34,30,03,162,51,1*7D
$GBGSV,4,4,13,58,,,15,1*7D
$GBGSV,3,1,10,46,73,359,32,19,52,244,42,36,38,270,41,22,28,311,24,5*73
$GBGSV,3,2,10,37,27,065,39,20,26,186,42,27,19,118,33,28,19,070,35,5*73
$GBGSV,3,3,10,38,08,332,26,30,03,162,42,5*75
$GNGGA,125947.000,4005.099328,N,10513.208100,W,2,51,0.45,1584.479,M,-20.669,M,,*7B
$GPGSV,3,1,11,09,76,212,45,07,55,308,40,08,46,123,47,04,40,150,44,1*6B
$GPGSV,3,2,11,27,38,072,38,46,37,214,45,30,25,289,38,16,24,048,41,1*61
$GPGSV,3,3,11,20,12,304,29,14,12,232,48,05,01,333,,1*57
$GPGSV,2,1,06,09,76,212,44,08,46,123,48,04,40,150,48,27,38,072,41,8*61
$GPGSV,2,2,06,30,25,289,39,14,12,232,45,8*62
$GLGSV,3,1,09,71,63,281,41,73,62,313,37,70,41,189,33,80,35,041,37,1*76
$GLGSV,3,2,09,74,29,263,38,72,24,328,36,82,17,074,37,81,10,028,36,1*77
$GLGSV,3,3,09,83,06,114,32,1*49
$GAGSV,2,1,05,04,64,297,40,19,49,154,40,21,47,048,35,31,24,232,46,7*75
$GAGSV,2,2,05,09,16,317,37,7*49
$GAGSV,2,1,05,04,64,297,34,19,49,154,37,21,47,048,37,31,24,232,43,1*77
$GAGSV,2,2,05,09,16,317,30,1*48
$GBGSV,4,1,14,46,73,359,39,19,52,244,46,36,38,270,46,57,30,315,,1*75
$GBGSV,4,2,14,22,28,311,36,37,27,065,43,20,26,186,50,27,19,118,44,1*75
$GBGSV,4,3,14,28,19,070,34,38,08,332,25,08,06,345,34,30,03,162,51,1*7A
$GBGSV,4,4,14,58,,,15,63,,,27,1*7A
$GBGSV,3,1,10,46,73,359,32,19,52,244,42,36,38,270,41,22,28,311,25,5*72
$GBGSV,3,2,10,37,27,065,39,20,26,186,42,27,19,118,32,28,19,070,35,5*72
$GBGSV,3,3,10,38,08,332,26,30,03,162,42,5*75
$GNGGA,125952.000,4005.099304,N,10513.208052,W,2,51,0.45,1584.444,M,-20.670,M,,*71
$GPGSV,3,1,11,09,76,212,45,07,55,308,40,08,46,123,47,04,40,150,44,1*6B
$GPGSV,3,2,11,27,38,072,38,46,37,214,46,30,25,289,38,16,24,048,41,1*62
$GPGSV,3,3,11,20,12,304,29,14,12,232,48,05,01,333,,1*57
$GPGSV,2,1,06,09,76,212,44,08,46,123,48,04,40,150,48,27,38,072,41,8*61
$GPGSV,2,2,06,30,25,289,39,14,12,232,45,8*62
$GLGSV,3,1,09,71,63,281,41,73,63,316,36,70,41,189,34,80,35,041,37,1*74
$GLGSV,3,2,09,74,29,264,38,72,24,328,37,82,17,074,37,81,10,028,35,1*72
$GLGSV,3,3,09,83,06,114,32,1*49
$GAGSV,2,1,05,04,64,297,40,19,49,154,40,21,47,048,35,31,24,232,46,7*75
$GAGSV,2,2,05,09,16,317,35,7*4B
$GAGSV,2,1,05,04,64,297,34,19,49,154,37,21,47,048,37,31,24,232,43,1*77
$GAGSV,2,2,05,09,16,317,30,1*48
$GBGSV,4,1,13,46,73,359,39,19,52,244,46,36,38,270,45,57,30,315,,1*71
$GBGSV,4,2,13,22,28,311,36,37,27,065,43,20,26,186,50,27,19,118,44,1*72
$GBGSV,4,3,13,28,19,070,33,38,08,332,26,08,06,345,34,30,03,162,51,1*79
$GBGSV,4,4,13,58,,,14,1*7C
$GBGSV,3,1,10,46,73,359,32,19,52,244,42,36,38,270,41,22,28,311,25,5*72
$GBGSV,3,2,10,37,27,065,39,20,26,186,42,27,19,118,32,28,19,070,35,5*72
$GBGSV,3,3,10,38,08,332,26,30,03,162,43,5*74
$GNGGA,125957.000,4005.099304,N,10513.208112,W,2,51,0.45,1584.588,M,-20.670,M,,*70
$GPGSV,3,1,11,09,76,212,45,07,55,308,40,08,46,123,47,04,40,150,44,1*6B
$GPGSV,3,2,11,27,38,072,38,46,37,214,46,30,25,289,38,16,24,048,41,1*62
$GPGSV,3,3,11,20,12,304,29,14,12,232,48,05,01,333,,1*57
$GPGSV,2,1,06,09,76,212,44,08,46,123,48,04,40,150,48,27,38,072,41,8*61
$GPGSV,2,2,06,30,25,289,39,14,12,232,45,8*62
$GLGSV,3,1,09,71,63,281,42,73,63,316,36,70,41,189,34,80,34,042,37,1*75
$GLGSV,3,2,09,74,29,264,38,72,24,328,36,82,17,073,37,81,10,027,38,1*76
$GLGSV,3,3,09,83,06,114,31,1*4A
$GAGSV,2,1,05,04,64,297,40,19,49,154,40,21,47,048,35,31,24,232,46,7*75
$GAGSV,2,2,05,09,16,317,33,7*4D
$GAGSV,2,1,05,04,64,297,34,19,49,154,37,21,47,048,37,31,24,232,43,1*77
$GAGSV,2,2,05,09,16,317,30,1*48
$GBGSV,4,1,13,46,73,359,39,19,52,244,46,36,38,270,45,57,30,315,,1*71
$GBGSV,4,2,13,22,28,311,38,37,27,065,43,20,26,186,50,27,19,118,44,1*7C
$GBGSV,4,3,13,28,19,070,32,38,08,332,27,08,06,345,33,30,03,162,51,1*7E
$GBGSV,4,4,13,58,,,14,1*7C
$GBGSV,3,1,10,46,73,359,31,19,52,244,42,36,38,270,41,22,28,311,25,5*71
$GBGSV,3,2,10,37,27,065,39,20,26,186,42,27,19,118,32,28,19,070,35,5*72
$GBGSV,3,3,10,38,08,332,26,30,03,162,43,5*74
$GNGGA,130002.000,4005.099262,N,10513.208166,W,2,51,0.45,1584.728,M,-20.670,M,,*77
$GPGSV,3,1,11,09,76,212,45,07,55,308,41,08,46,123,47,04,40,150,45,1*6B
$GPGSV,3,2,11,27,38,072,38,46,37,214,46,30,25,289,39,16,24,048,42,1*60
$GPGSV,3,3,11,20,12,304,27,14,12,232,48,05,01,333,,1*59
$GPGSV,2,1,06,09,76,212,44,08,46,123,48,04,40,150,48,27,38,072,41,8*61
$GPGSV,2,2,06,30,25,289,39,14,12,232,45,8*62
$GLGSV,3,1,09,71,63,281,41,73,63,316,37,70,41,189,33,80,34,042,38,1*7F
$GLGSV,3,2,09,74,29,264,38,72,24,328,36,82,17,073,39,81,10,027,39,1*79
$GLGSV,3,3,09,83,07,113,31,1*4C
$GAGSV,2,1,05,04,64,297,40,19,49,154,40,21,47,048,35,31,24,232,46,7*75
$GAGSV,2,2,05,09,16,317,33,7*4D
$GAGSV,2,1,05,04,64,297,34,19,49,154,37,21,47,048,37,31,24,232,43,1*77
$GAGSV,2,2,05,09,16,317,30,1*48
$GBGSV,4,1,14,46,73,359,39,19,52,244,46,36,38,270,45,57,30,315,,1*76
$GBGSV,4,2,14,22,28,311,38,37,27,065,43,20,26,186,50,27,19,118,44,1*7B
$GBGSV,4,3,14,28,19,070,31,38,08,332,27,08,06,345,33,30,03,162,51,1*7A
$GBGSV,4,4,14,58,,,15,63,,,29,1*74
$GBGSV,3,1,10,46,73,359,31,19,52,244,42,36,38,270,41,22,28,311,25,5*71
$GBGSV,3,2,10,37,27,065,39,20,26,186,42,27,19,118,32,28,19,070,35,5*72
$GBGSV,3,3,10,38,08,332,26,30,03,162,43,5*74
$GNGGA,130007.000,4005.099208,N,10513.208214,W,2,52,0.45,1584.796,M,-20.670,M,,*7E
$GPGSV,3,1,11,09,76,212,45,07,55,308,41,08,46,123,47,04,40,150,45,1*6B
$GPGSV,3,2,11,27,38,072,37,46,37,214,46,30,25,289,39,16,24,048,42,1*6F
$GPGSV,3,3,11,20,12,304,23,14,12,232,47,05,01,333,,1*52
$GPGSV,2,1,06,09,76,212,44,08,46,123,48,04,40,150,48,27,38,072,41,8*61
$GPGSV,2,2,06,30,25,289,39,14,12,232,45,8*62
$GLGSV,3,1,09,71,63,281,41,73,63,316,38,70,41,189,33,80,34,042,39,1*71
$GLGSV,3,2,09,74,29,264,38,72,24,328,37,82,17,073,38,81,10,027,40,1*77
$GLGSV,3,3,09,83,07,113,30,1*4D
$GAGSV,2,1,05,04,64,297,40,19,49,154,40,21,47,048,35,31,24,232,46,7*75
$GAGSV,2,2,05,09,16,317,35,7*4B
$GAGSV,2,1,05,04,64,297,34,19,49,154,37,21,47,048,37,31,24,232,43,1*77
$GAGSV,2,2,05,09,16,317,28,1*41
$GBGSV,4,1,13,46,73,359,39,19,52,244,46,36,38,270,45,57,30,315,,1*71
$GBGSV,4,2,13,22,28,311,38,37,27,065,43,20,26,186,50,27,19,118,44,1*7C
$GBGSV,4,3,13,28,19,070,31,38,08,332,28,08,06,345,33,30,03,162,51,1*72
$GBGSV,4,4,13,58,,,15,1*7D
$GBGSV,3,1,10,46,73,359,32,19,52,244,42,36,38,270,41,22,28,311,25,5*72
$GBGSV,3,2,10,37,27,065,39,20,26,186,43,27,19,118,32,28,19,070,35,5*73
$GBGSV,3,3,10,38,08,332,26,30,03,162,43,5*74
$GNGGA,130012.000,4005.099214,N,10513.208244,W,2,51,0.45,1584.760,M,-20.670,M,,*78
$GPGSV,3,1,11,09,76,212,45,07,55,308,41,08,46,123,47,04,40,150,45,1*6B
$GPGSV,3,2,11,27,38,072,37,46,37,214,46,30,25,289,39,16,24,048,42,1*6F
$GPGSV,3,3,11,20,12,304,21,14,12,232,47,05,01,333,,1*50
$GPGSV,2,1,06,09,76,212,44,08,46,123,48,04,40,150,48,27,38,072,40,8*60
$GPGSV,2,2,06,30,25,289,39,14,12,232,45,8*62
$GLGSV,3,1,09,71,63,281,41,73,63,316,38,70,41,189,33,80,34,042,40,1*7F
$GLGSV,3,2,09,74,29,264,38,72,24,328,34,82,17,073,38,81,10,027,38,1*7B
$GLGSV,3,3,09,83,07,113,30,1*4D
$GAGSV,2,1,05,04,64,297,40,19,49,154,40,21,47,048,34,31,24,232,46,7*74
$GAGSV,2,2,05,09,16,317,37,7*49
$GAGSV,2,1,05,04,64,297,34,19,49,154,36,21,47,048,37,31,24,232,43,1*76
$GAGSV,2,2,05,09,16,317,25,1*4C
$GBGSV,4,1,13,46,73,359,39,19,52,244,46,36,38,270,45,57,30,315,,1*71
$GBGSV,4,2,13,22,28,311,38,37,27,065,43,20,26,186,49,27,19,118,44,1*74
$GBGSV,4,3,13,28,19,070,31,38,08,332,29,08,06,344,34,30,03,162,51,1*75
$GBGSV,4,4,13,58,,,16,1*7E
$GBGSV,3,1,10,46,73,359,32,19,52,244,42,36,38,270,41,22,28,311,25,5*72
$GBGSV,3,2,10,37,27,065,39,20,26,186,43,27,19,118,31,28,19,070,35,5*70
$GBGSV,3,3,10,38,08,332,26,30,03,162,43,5*74
$GNGGA,130017.000,4005.099154,N,10513.208208,W,2,51,0.45,1584.632,M,-20.670,M,,*74
$GPGSV,3,1,11,09,76,212,45,07,55,308,42,08,46,123,47,04,40,150,45,1*68
$GPGSV,3,2,11,27,38,072,39,46,37,214,46,30,25,289,38,16,24,048,42,1*60
$GPGSV,3,3,11,20,12,304,19,14,12,232,47,05,01,333,,1*5B
$GPGSV,2,1,06,09,76,212,44,08,46,123,48,04,40,150,48,27,38,072,40,8*60
$GPGSV,2,2,06,30,25,289,39,14,12,232,45,8*62
$GLGSV,3,1,09,71,63,281,42,73,63,316,38,70,41,189,33,80,34,042,40,1*7C
$GLGSV,3,2,09,74,29,264,39,72,24,328,33,82,17,073,37,81,10,027,38,1*72
$GLGSV,3,3,09,83,07,113,28,1*44
$GAGSV,2,1,05,04,64,297,40,19,49,154,40,21,47,048,34,31,24,232,46,7*74
$GAGSV,2,2,05,09,16,317,38,7*46
$GAGSV,2,1,05,04,64,297,34,19,49,154,36,21,47,048,37,31,24,232,43,1*76
$GAGSV,2,2,05,09,16,317,23,1*4A
$GBGSV,4,1,13,46,73,359,39,19,52,244,46,36,38,270,45,57,30,315,,1*71
$GBGSV,4,2,13,22,28,311,38,37,27,065,43,20,26,186,49,27,19,118,44,1*74
$GBGSV,4,3,13,28,19,070,31,38,08,332,29,08,06,344,33,30,03,162,51,1*72
$GBGSV,4,4,13,58,,,14,1*7C
$GBGSV,3,1,10,46,73,359,32,19,52,244,42,36,38,270,41,22,28,311,25,5*72
$GBGSV,3,2,10,37,27,065,39,20,26,186,43,27,19,118,31,28,19,070,35,5*70
$GBGSV,3,3,10,38,08,332,26,30,03,162,43,5*74
$GNGGA,130022.000,4005.099112,N,10513.208202,W,2,53,0.45,1584.495,M,-20.669,M,,*7F
$GPGSV,3,1,11,09,76,212,45,07,55,308,42,08,46,123,47,04,40,150,45,1*68
$GPGSV,3,2,11,27,38,072,39,46,37,214,45,30,25,289,38,16,24,048,42,1*63
$GPGSV,3,3,11,20,12,304,25,14,12,232,47,05,01,333,,1*54
$GPGSV,2,1,06,09,76,212,44,08,46,123,48,04,40,150,48,27,38,072,40,8*60
$GPGSV,2,2,06,30,25,289,39,14,12,232,45,8*62
$GLGSV,3,1,09,71,63,281,42,73,63,316,36,70,41,189,34,80,34,042,40,1*75
$GLGSV,3,2,09,74,29,264,39,72,24,328,35,82,17,073,37,81,10,027,36,1*7A
$GLGSV,3,3,09,83,07,113,28,1*44
$GAGSV,2,1,05,04,64,297,40,19,49,154,40,21,47,048,34,31,24,232,46,7*74
$GAGSV,2,2,05,09,16,317,39,7*47
$GAGSV,2,1,05,04,64,297,34,19,49,154,36,21,47,048,37,31,24,232,43,1*76
$GAGSV,2,2,05,09,16,317,23,1*4A
$GBGSV,4,1,13,46,73,359,39,19,51,242,46,36,38,270,45,57,30,315,,1*74
$GBGSV,4,2,13,22,28,311,38,37,27,065,43,20,26,186,49,27,19,118,44,1*74
$GBGSV,4,3,13,28,19,070,32,38,08,332,30,08,06,344,33,30,03,162,51,1*79
$GBGSV,4,4,13,58,,,15,1*7D
$GBGSV,3,1,10,46,73,359,32,19,51,242,42,36,38,270,41,22,28,311,24,5*76
$GBGSV,3,2,10,37,27,065,39,20,26,186,43,27,19,118,31,28,19,070,35,5*70
$GBGSV,3,3,10,38,08,332,26,30,03,162,43,5*74
$GNGGA,130027.000,4005.099022,N,10513.208238,W,2,53,0.45,1584.572,M,-20.670,M,,*71
$GPGSV,3,1,11,09,76,212,45,07,55,308,42,08,46,123,47,04,40,150,46,1*6B
$GPGSV,3,2,11,27,38,072,39,46,37,214,46,30,25,289,38,16,24,048,42,1*60
$GPGSV,3,3,11,20,12,304,29,14,12,232,47,05,01,333,,1*58
$GPGSV,2,1,06,09,76,212,44,08,46,123,48,04,40,150,48,27,38,072,40,8*60
$GPGSV,2,2,06,30,25,289,39,14,12,232,45,8*62
$GLGSV,3,1,09,71,63,281,42,73,63,316,36,70,41,189,35,80,34,042,41,1*75
$GLGSV,3,2,09,74,29,264,39,72,24,328,34,82,17,073,37,81,10,027,33,1*7E
$GLGSV,3,3,09,83,07,113,28,1*44
$GAGSV,2,1,05,04,64,297,40,19,49,154,40,21,47,048,34,31,24,232,46,7*74
$GAGSV,2,2,05,09,16,317,39,7*47
$GAGSV,2,1,05,04,64,297,34,19,49,154,36,21,47,048,37,31,24,232,43,1*76
$GAGSV,2,2,05,09,16,317,26,1*4F
$GBGSV,4,1,14,46,73,359,39,19,51,242,46,36,38,270,45,57,30,315,,1*73
$GBGSV,4,2,14,22,28,310,38,37,27,065,44,20,25,186,49,27,19,118,43,1*71
$GBGSV,4,3,14,28,19,070,30,38,08,332,30,08,06,344,34,30,03,162,51,1*7B
$GBGSV,4,4,14,58,,,15,63,,,28,1*75
$GBGSV,3,1,10,46,73,359,32,19,51,242,42,36,38,270,41,22,28,310,24,5*77
$GBGSV,3,2,10,37,27,065,39,20,25,186,43,27,19,118,31,28,19,070,35,5*73
$GBGSV,3,3,10,38,08,332,27,30,03,162,45,5*73
$GNGGA,130032.000,4005.098950,N,10513.208226,W,2,53,0.45,1584.483,M,-20.670,M,,*78
$GPGSV,3,1,11,09,76,212,45,07,55,308,42,08,46,123,47,04,40,150,46,1*6B
$GPGSV,3,2,11,27,38,072,38,46,37,214,46,30,25,289,38,16,24,048,41,1*62
$GPGSV,3,3,11,20,12,304,31,14,12,232,47,05,01,333,,1*51
$GPGSV,2,1,06,09,76,212,44,08,46,123,48,04,40,150,48,27,38,072,40,8*60
$GPGSV,2,2,06,30,25,289,39,14,12,232,45,8*62
$GLGSV,3,1,09,71,63,281,42,73,63,316,38,70,41,189,35,80,34,042,41,1*7B
$GLGSV,3,2,09,74,29,264,39,72,24,328,28,82,17,073,37,81,10,027,31,1*71
$GLGSV,3,3,09,83,07,113,26,1*4A
$GAGSV,2,1,05,04,64,297,40,19,49,154,39,21,47,048,34,31,24,232,46,7*7A
$GAGSV,2,2,05,09,16,317,39,7*47
$GAGSV,2,1,05,04,64,297,34,19,49,154,36,21,47,048,37,31,24,232,43,1*76
$GAGSV,2,2,05,09,16,317,28,1*41
$GBGSV,4,1,13,46,73,359,39,19,51,242,46,36,38,270,45,57,30,315,,1*74
$GBGSV,4,2,13,22,28,310,37,37,27,065,44,20,25,186,49,27,20,117,43,1*7C
$GBGSV,4,3,13,28,19,069,31,38,08,332,30,08,06,344,34,30,03,162,51,1*75
$GBGSV,4,4,13,58,,,15,1*7D
$GBGSV,3,1,10,46,73,359,31,19,51,242,42,36,38,270,41,22,28,310,22,5*72
$GBGSV,3,2,10,37,27,065,39,20,25,186,43,27,20,117,30,28,19,069,35,5*7F
$GBGSV,3,3,10,38,08,332,27,30,03,162,45,5*73
$GNGGA,130037.000,4005.098860,N,10513.208172,W,2,53,0.45,1584.301,M,-20.670,M,,*70
$GPGSV,3,1,11,09,76,212,45,07,55,308,42,08,46,123,47,04,40,150,46,1*6B
$GPGSV,3,2,11,27,38,072,38,46,37,214,46,30,25,289,38,16,24,048,40,1*63
$GPGSV,3,3,11,20,12,304,29,14,12,232,47,05,01,333,,1*58
$GPGSV,2,1,06,09,76,212,44,08,46,123,48,04,40,150,48,27,38,072,40,8*60
$GPGSV,2,2,06,30,25,289,39,14,12,232,45,8*62
$GLGSV,3,1,09,71,63,281,42,73,63,316,38,70,41,189,35,80,34,042,41,1*7B
$GLGSV,3,2,09,74,29,264,40,72,24,328,33,82,17,073,37,81,10,027,33,1*77
$GLGSV,3,3,09,83,07,113,27,1*4B
$GAGSV,2,1,05,04,64,297,40,19,49,154,39,21,47,048,34,31,24,232,46,7*7A
$GAGSV,2,2,05,09,16,317,39,7*47
$GAGSV,2,1,05,04,64,297,34,19,49,154,36,21,47,048,37,31,24,232,43,1*76
$GAGSV,2,2,05,09,16,317,31,1*49
$GBGSV,4,1,13,46,73,359,39,19,51,242,46,36,38,270,45,57,30,315,,1*74
$GBGSV,4,2,13,22,28,310,37,37,27,065,44,20,25,186,49,27,20,117,43,1*7C
$GBGSV,4,3,13,28,19,069,28,38,08,332,30,08,06,344,34,30,04,162,51,1*7A
$GBGSV,4,4,13,58,,,13,1*7B
$GBGSV,3,1,10,46,73,359,31,19,51,242,42,36,38,270,41,22,28,310,22,5*72
$GBGSV,3,2,10,37,27,065,39,20,25,186,43,27,20,117,30,28,19,069,35,5*7F
