$PAIR001,062,0*3F
$PAIR001,062,0*3F
$PAIR001,062,0*3F
$PAIR001,062,0*3F
$PAIR001,062,0*3F
$PAIR001,062,0*3F
$PAIR001,062,0*3F
$PAIR001,062,0*3F
$PAIR001,062,0*3F
$GNGGA,000006.000,4000.587910,N,10514.619144,W,2,44,0.47,1595.209,M,-20.635,M,,*72
$GPGSV,4,1,13,29,88,234,35,05,57,047,,18,42,293,,15,37,148,47,1*66
$GPGSV,4,2,13,46,37,214,50,13,31,104,46,20,24,051,24,23,21,227,47,1*63
$GPGSV,4,3,13,26,19,301,20,25,17,204,44,11,08,084,23,16,03,329,16,1*64
$GPGSV,4,4,13,12,02,180,35,1*58
$GPGSV,1,1,04,23,21,227,46,26,19,301,16,25,17,204,50,11,08,084,22,8*61
$GLGSV,2,1,05,87,46,330,16,72,45,165,47,77,17,265,32,78,13,323,18,1*71
$GLGSV,2,2,05,76,03,224,,1*4B
$GAGSV,3,1,10,34,60,047,19,15,50,300,14,05,38,094,31,27,34,282,27,7*73
$GAGSV,3,2,10,30,30,220,48,03,25,153,48,09,14,041,,36,14,082,17,7*75
$GAGSV,3,3,10,21,06,328,19,13,04,276,24,7*75
$GAGSV,2,1,06,34,60,047,22,05,38,094,22,27,34,282,17,30,30,220,39,1*77
$GAGSV,2,2,06,03,25,153,40,21,06,328,17,1*7E
$GBGSV,4,1,15,43,73,333,21,11,72,069,20,42,65,143,44,34,51,106,42,1*7D
$GBGSV,4,2,15,14,46,182,44,21,40,053,,12,22,111,39,33,22,197,51,1*7A
$GBGSV,4,3,15,28,14,302,23,57,06,032,,23,06,251,36,37,05,299,,1*78
$GBGSV,4,4,15,44,01,117,12,58,,,30,63,,,21,1*4F
$GBGSV,2,1,06,43,73,333,17,42,65,143,44,34,51,106,45,21,40,053,19,5*7E
$GBGSV,2,2,06,33,22,197,48,23,06,251,41,5*73
$GNGGA,000011.000,4000.587898,N,10514.618982,W,2,47,0.45,1594.704,M,-20.634,M,,*7F
$GPGSV,4,1,13,29,88,234,33,05,57,047,27,18,42,293,26,46,37,214,50,1*6B
$GPGSV,4,2,13,15,37,148,47,13,31,104,46,20,24,051,17,23,21,227,47,1*69
$GPGSV,4,3,13,26,19,301,15,25,17,204,45,11,08,084,25,16,03,329,13,1*60
$GPGSV,4,4,13,12,02,180,34,1*59
$GPGSV,1,1,03,23,21,227,46,25,17,204,50,11,08,084,23,8*5E
$GLGSV,2,1,05,87,46,330,15,72,45,165,47,77,17,265,32,78,13,323,13,1*79
$GLGSV,2,2,05,76,03,224,,1*4B
$GAGSV,3,1,10,34,60,047,20,15,50,301,14,05,38,094,32,27,34,282,28,7*74
$GAGSV,3,2,10,30,30,220,48,03,25,153,48,09,14,041,18,36,14,082,17,7*7C
$GAGSV,3,3,10,21,06,328,18,13,04,276,29,7*79
$GAGSV,2,1,08,34,60,047,23,15,50,301,14,05,38,094,23,27,34,282,16,1*74
$GAGSV,2,2,08,30,30,220,40,03,25,153,40,21,06,328,16,13,04,276,21,1*73
$GBGSV,4,1,14,43,73,333,23,11,72,069,19,42,65,143,44,34,51,106,42,1*74
$GBGSV,4,2,14,14,46,182,44,21,40,053,20,33,22,197,51,12,22,111,39,1*79
$GBGSV,4,3,14,28,14,302,20,23,06,251,36,57,06,032,,37,05,299,21,1*79
$GBGSV,4,4,14,44,01,117,11,58,,,31,1*4A
$GBGSV,2,1,06,43,73,333,17,42,65,143,45,34,51,106,45,21,40,053,20,5*75
$GBGSV,2,2,06,33,22,197,48,23,06,251,41,5*73
$GNGGA,000016.000,4000.587736,N,10514.618988,W,2,47,0.46,1594.851,M,-20.635,M,,*74
$GPGSV,4,1,13,29,88,234,31,05,57,047,31,18,42,293,16,15,37,148,47,1*67
$GPGSV,4,2,13,46,37,214,50,13,31,104,46,20,24,051,17,23,21,227,48,1*6C
$GPGSV,4,3,13,26,19,301,17,25,17,204,44,11,08,084,,16,03,329,16,1*61
$GPGSV,4,4,13,12,02,180,33,1*5E
$GPGSV,1,1,04,23,21,227,46,26,19,301,16,25,17,204,51,11,08,084,23,8*61
$GLGSV,2,1,05,87,46,330,22,72,45,165,47,77,17,265,32,78,13,323,19,1*77
$GLGSV,2,2,05,76,03,224,,1*4B
$GAGSV,3,1,10,34,60,047,17,15,50,301,,05,38,094,33,27,34,282,28,7*74
$GAGSV,3,2,10,30,30,220,48,03,25,153,48,09,14,041,20,36,14,082,14,7*74
$GAGSV,3,3,10,21,07,328,17,13,04,276,29,7*77
$GAGSV,2,1,07,34,60,047,22,05,38,094,24,27,34,282,14,30,30,220,40,1*7D
$GAGSV,2,2,07,03,25,153,40,09,14,041,17,21,07,328,17,1*41
$GBGSV,4,1,15,43,73,333,29,11,72,069,17,42,65,143,45,34,51,106,42,1*70
$GBGSV,4,2,15,14,46,182,44,21,40,053,,12,22,111,39,33,22,197,51,1*7A
$GBGSV,4,3,15,28,14,302,18,57,06,032,,23,06,251,36,37,05,299,24,1*76
$GBGSV,4,4,15,44,01,117,13,58,,,31,63,,,24,1*4A
$GBGSV,2,1,07,43,73,333,18,42,65,143,45,34,51,106,45,21,40,053,19,5*71
$GBGSV,2,2,07,33,22,197,48,23,06,251,40,37,05,299,17,5*46
$GNGGA,000021.000,4000.587568,N,10514.618808,W,2,46,0.44,1595.090,M,-20.635,M,,*77
$GPGSV,4,1,13,29,88,234,29,05,57,047,27,18,42,293,17,15,37,148,46,1*69
$GPGSV,4,2,13,46,37,214,50,13,31,104,46,20,24,051,25,23,21,227,48,1*6D
$GPGSV,4,3,13,26,19,301,17,25,17,204,44,11,08,084,23,16,03,329,,1*67
$GPGSV,4,4,13,12,02,180,33,1*5E
$GPGSV,1,1,04,18,42,293,21,23,21,227,46,25,17,204,51,11,08,084,23,8*6C
$GLGSV,2,1,05,87,46,330,17,72,45,165,47,77,17,265,32,78,13,323,17,1*7F
$GLGSV,2,2,05,76,03,224,,1*4B
$GAGSV,3,1,10,34,60,047,19,15,50,301,20,05,38,094,32,27,33,281,24,7*71
$GAGSV,3,2,10,30,30,220,48,03,25,153,48,09,14,041,21,36,14,082,16,7*77
$GAGSV,3,3,10,21,07,328,20,13,04,276,30,7*7B
$GAGSV,2,1,07,34,60,047,22,05,38,094,24,30,30,220,40,03,25,153,40,1*75
$GAGSV,2,2,07,09,14,041,15,21,07,328,17,13,04,276,24,1*47
$GBGSV,4,1,15,43,73,333,27,11,72,069,16,42,65,143,46,34,51,106,43,1*7D
$GBGSV,4,2,15,14,46,182,44,21,40,053,,12,22,111,38,33,22,197,51,1*7B
$GBGSV,4,3,15,28,14,302,,57,06,032,,23,06,251,36,37,05,299,,1*79
$GBGSV,4,4,15,44,01,117,,58,,,31,63,,,21,1*4D
$GBGSV,2,1,07,43,73,333,18,42,65,143,45,34,51,106,45,21,40,053,21,5*7A
$GBGSV,2,2,07,33,22,197,48,23,06,251,39,37,05,299,15,5*4A
$GNGGA,000026.000,4000.587238,N,10514.618532,W,2,46,0.45,1595.241,M,-20.635,M,,*79
$GPGSV,4,1,13,29,88,234,27,05,57,047,,18,42,293,,15,37,148,46,1*64
$GPGSV,4,2,13,46,37,214,50,13,31,104,46,20,24,051,27,23,21,227,48,1*6F
$GPGSV,4,3,13,26,19,301,21,25,17,204,44,11,08,084,27,16,03,329,,1*66
$GPGSV,4,4,13,12,02,180,35,1*58
$GPGSV,1,1,04,18,42,293,18,23,21,227,46,25,17,204,51,11,08,084,23,8*66
$GLGSV,2,1,05,87,46,330,16,72,45,165,47,77,17,265,32,78,13,323,24,1*7E
$GLGSV,2,2,05,76,03,224,,1*4B
$GAGSV,3,1,10,34,59,048,,15,50,301,18,05,38,094,31,27,33,281,24,7*74
$GAGSV,3,2,10,30,29,219,49,03,25,153,48,09,14,041,20,36,14,082,17,7*74
$GAGSV,3,3,10,21,07,328,12,13,04,276,30,7*7A
$GAGSV,2,1,07,34,59,048,21,05,38,094,24,30,29,219,39,03,25,153,39,1*71
$GAGSV,2,2,07,09,14,041,16,21,07,328,16,13,04,276,21,1*40
$GBGSV,4,1,14,43,73,333,30,11,72,069,24,42,65,143,46,34,51,106,43,1*7B
$GBGSV,4,2,14,14,46,182,44,21,40,053,25,12,22,111,39,33,22,197,51,1*7C
$GBGSV,4,3,14,28,14,302,,23,06,251,33,37,05,299,25,44,01,117,,1*79
$GBGSV,4,4,14,31,,,30,58,,,31,1*7D
$GBGSV,2,1,07,43,73,333,18,42,65,143,45,34,51,106,45,21,40,053,20,5*7B
$GBGSV,2,2,07,33,22,197,48,23,06,251,38,37,05,299,15,5*4B
$GNGGA,000031.000,4000.586824,N,10514.618370,W,2,47,0.45,1595.628,M,-20.635,M,,*73
$GPGSV,4,1,13,29,88,234,30,05,57,047,31,18,42,293,,15,37,148,45,1*63
$GPGSV,4,2,13,46,37,214,50,13,31,104,46,20,24,051,28,23,21,227,48,1*60
$GPGSV,4,3,13,26,19,301,,25,17,204,44,11,08,084,21,16,03,329,17,1*65
$GPGSV,4,4,13,12,02,180,36,1*5B
$GPGSV,1,1,03,23,21,227,46,25,17,204,51,11,08,084,24,8*58
$GLGSV,2,1,05,87,46,330,16,72,45,165,47,77,17,265,32,78,13,323,22,1*78
$GLGSV,2,2,05,76,03,224,,1*4B
$GAGSV,3,1,10,34,59,048,19,15,50,301,15,05,38,094,30,27,33,281,28,7*7C
$GAGSV,3,2,10,30,29,219,49,03,25,153,48,09,14,041,20,36,14,082,18,7*7B
$GAGSV,3,3,10,21,07,328,18,13,04,276,28,7*79
$GAGSV,2,1,07,34,59,048,21,05,38,094,24,30,29,219,39,03,25,153,39,1*71
$GAGSV,2,2,07,09,14,041,15,21,07,328,16,13,04,276,18,1*49
$GBGSV,4,1,14,43,73,333,23,11,72,069,20,42,65,143,46,34,51,106,43,1*7D
$GBGSV,4,2,14,14,46,182,44,21,40,053,26,12,22,111,40,33,22,197,51,1*71
$GBGSV,4,3,14,28,14,302,20,23,06,251,33,37,05,299,25,44,01,117,,1*7B
$GBGSV,4,4,14,31,,,30,58,,,31,1*7D
$GBGSV,2,1,07,43,73,333,18,42,65,143,45,34,51,106,45,21,40,053,19,5*71
$GBGSV,2,2,07,33,22,197,48,23,06,251,36,37,05,299,17,5*47
$GNGGA,000036.000,4000.586536,N,10514.618442,W,2,49,0.44,1596.537,M,-20.635,M,,*7D
$GPGSV,4,1,13,29,88,234,31,05,57,047,25,18,42,293,27,46,37,214,50,1*6A
$GPGSV,4,2,13,15,37,148,45,13,31,104,46,20,24,051,30,23,21,227,48,1*61
$GPGSV,4,3,13,26,19,301,24,25,17,204,44,11,08,084,,16,03,329,17,1*60
$GPGSV,4,4,13,12,02,180,36,1*5B
$GPGSV,1,1,03,23,21,227,45,25,17,204,50,11,08,084,22,8*5C
$GLGSV,2,1,05,87,46,330,16,72,46,164,46,77,17,265,33,78,13,323,15,1*7E
$GLGSV,2,2,05,76,03,224,,1*4B
$GAGSV,3,1,10,34,59,048,22,15,50,301,18,05,38,094,25,27,33,281,31,7*75
$GAGSV,3,2,10,30,29,219,49,03,25,153,48,09,14,041,21,36,14,082,20,7*71
$GAGSV,3,3,10,21,07,328,19,13,04,276,26,7*76
$GAGSV,2,1,07,34,59,048,20,05,38,094,20,30,29,219,36,03,25,153,38,1*7A
$GAGSV,2,2,07,09,14,041,15,21,07,328,14,13,04,276,21,1*41
$GBGSV,4,1,14,43,73,333,18,11,72,069,23,42,65,143,46,34,51,106,43,1*76
$GBGSV,4,2,14,14,46,182,43,21,40,053,29,12,22,111,41,33,22,197,51,1*78
$GBGSV,4,3,14,28,14,302,26,57,06,032,,23,06,251,33,37,05,299,28,1*73
$GBGSV,4,4,14,44,01,117,,31,,,30,1*44
$GBGSV,2,1,07,43,73,333,17,42,65,143,44,34,51,106,43,21,40,053,18,5*78
$GBGSV,2,2,07,33,22,197,45,23,06,251,35,37,05,299,17,5*49
$GNGGA,000041.000,4000.586440,N,10514.618628,W,2,45,0.45,1597.373,M,-20.635,M,,*79
$GPGSV,4,1,13,29,88,234,30,05,57,047,,18,42,293,19,15,37,148,45,1*69
$GPGSV,4,2,13,46,37,214,50,13,31,104,47,20,24,051,30,23,21,227,48,1*68
$GPGSV,4,3,13,26,19,301,25,25,17,204,45,11,08,084,,16,03,329,,1*66
$GPGSV,4,4,13,12,02,180,36,1*5B
$GPGSV,1,1,03,23,21,227,45,25,17,204,50,11,08,084,22,8*5C
$GLGSV,2,1,05,72,46,164,46,87,46,330,18,77,16,264,33,78,13,323,19,1*7C
$GLGSV,2,2,05,76,02,223,,1*4D
$GAGSV,3,1,10,34,59,048,22,15,50,301,24,05,38,094,,27,33,281,29,7*74
$GAGSV,3,2,10,30,29,219,49,03,25,153,48,09,14,041,20,36,14,082,21,7*71
$GAGSV,3,3,10,21,07,328,17,13,04,276,25,7*7B
$GAGSV,2,1,07,34,59,048,19,05,38,094,18,30,29,219,36,03,25,153,38,1*7B
$GAGSV,2,2,07,36,14,082,16,21,07,328,13,13,04,276,22,1*45
$GBGSV,4,1,15,43,73,333,12,11,72,069,27,42,65,143,46,34,51,106,43,1*79
$GBGSV,4,2,15,14,46,182,43,21,40,053,27,12,22,111,41,33,22,197,51,1*77
$GBGSV,4,3,15,28,14,302,,57,06,032,,23,06,251,33,37,05,299,28,1*76
$GBGSV,4,4,15,44,01,117,,58,,,30,31,,,30,1*4B
$GBGSV,2,1,07,43,73,333,17,42,65,143,44,34,51,106,43,21,40,053,18,5*78
$GBGSV,2,2,07,33,22,197,45,23,06,251,34,37,05,299,17,5*48
$GNGGA,000046.000,4000.586272,N,10514.618934,W,2,47,0.45,1598.179,M,-20.635,M,,*7E
$GPGSV,4,1,13,29,88,234,34,05,57,047,27,18,42,293,34,15,37,148,45,1*67
$GPGSV,4,2,13,46,37,214,50,13,31,104,47,20,24,051,29,23,21,227,48,1*60
$GPGSV,4,3,13,26,19,301,17,25,17,204,45,11,08,084,,16,03,329,,1*67
$GPGSV,4,4,13,12,02,180,34,1*59
$GPGSV,1,1,04,18,42,293,21,23,21,227,45,25,17,204,50,11,08,084,21,8*6C
$GLGSV,2,1,05,72,46,164,46,87,46,330,24,77,16,264,33,78,13,321,24,1*7F
$GLGSV,2,2,05,76,02,223,,1*4D
$GAGSV,3,1,10,34,59,048,21,15,50,301,22,05,38,094,25,27,33,281,27,7*78
$GAGSV,3,2,10,30,29,219,49,03,25,153,48,09,14,041,,36,14,082,19,7*78
$GAGSV,3,3,10,21,07,328,16,13,04,276,22,7*7D
$GAGSV,2,1,06,34,59,048,19,05,38,094,19,30,29,219,36,03,25,153,38,1*7B
$GAGSV,2,2,06,36,14,082,17,13,04,276,18,1*73
$GBGSV,4,1,15,43,73,333,16,11,72,069,29,42,65,143,46,34,51,106,43,1*73
$GBGSV,4,2,15,14,46,182,43,21,40,053,20,12,22,111,41,33,22,197,51,1*70
$GBGSV,4,3,15,28,14,302,25,57,06,032,,23,06,251,32,37,05,299,30,1*79
$GBGSV,4,4,15,44,01,117,,58,,,30,31,,,30,1*4B
$GBGSV,2,1,07,43,73,333,17,42,65,143,44,34,51,106,43,21,40,053,19,5*79
$GBGSV,2,2,07,33,22,197,45,23,06,251,34,37,05,299,18,5*47
$GNGGA,000051.000,4000.585966,N,10514.619024,W,2,47,0.44,1598.345,M,-20.635,M,,*70
$GPGSV,4,1,13,29,88,234,34,05,57,047,,18,42,293,29,15,37,148,45,1*6E
$GPGSV,4,2,13,46,37,214,50,13,31,104,47,20,24,051,28,23,21,227,48,1*61
$GPGSV,4,3,13,26,19,301,23,25,17,204,46,11,08,084,32,16,03,329,20,1*60
$GPGSV,4,4,13,12,02,180,33,1*5E
$GPGSV,1,1,04,18,42,293,16,23,21,227,45,25,17,204,50,11,08,084,22,8*6B
$GLGSV,2,1,05,87,47,331,16,72,46,164,46,77,16,264,31,78,13,321,26,1*7E
$GLGSV,2,2,05,76,02,223,,1*4D
$GAGSV,3,1,10,34,59,048,18,15,50,301,17,05,38,094,29,27,33,281,25,7*7A
$GAGSV,3,2,10,30,29,219,49,03,25,153,48,09,14,041,19,36,14,082,18,7*71
$GAGSV,3,3,10,21,07,328,14,13,04,276,,7*7F
$GAGSV,2,1,06,34,59,048,19,05,38,094,19,30,29,219,36,03,25,153,38,1*7B
$GAGSV,2,2,06,36,14,082,16,13,04,276,17,1*7D
$GBGSV,4,1,14,43,73,333,,11,72,069,29,42,65,143,46,34,51,106,43,1*75
$GBGSV,4,2,14,14,46,182,43,21,40,053,,12,22,111,42,33,22,197,51,1*70
$GBGSV,4,3,14,28,14,302,24,23,06,251,32,37,05,299,28,44,01,117,,1*73
$GBGSV,4,4,14,31,,,30,58,,,30,1*7C
$GBGSV,2,1,07,43,73,333,17,42,65,143,44,34,51,106,43,21,40,053,18,5*78
$GBGSV,2,2,07,33,22,197,45,23,06,251,32,37,05,299,18,5*41
$GNGGA,000056.000,4000.585324,N,10514.619006,W,2,44,0.45,1598.514,M,-20.635,M,,*7B
$GPGSV,4,1,13,29,88,234,34,05,57,047,,18,42,293,24,46,37,214,50,1*6B
$GPGSV,4,2,13,15,37,148,45,13,31,104,47,20,24,051,25,23,21,227,49,1*65
$GPGSV,4,3,13,26,19,301,17,25,17,204,46,11,08,084,,16,03,329,,1*64
$GPGSV,4,4,13,12,02,180,33,1*5E
$GPGSV,1,1,04,18,42,293,17,23,21,227,45,25,17,204,50,11,08,084,21,8*69
$GLGSV,2,1,05,87,47,331,13,72,46,164,45,77,16,264,33,78,13,321,16,1*79
$GLGSV,2,2,05,76,02,223,,1*4D
$GAGSV,3,1,10,34,59,048,21,15,50,301,17,05,38,094,32,27,33,281,27,7*78
$GAGSV,3,2,10,30,29,219,49,03,25,153,48,09,14,041,,36,14,082,17,7*76
$GAGSV,3,3,10,21,07,328,15,13,04,276,,7*7E
$GAGSV,2,1,06,34,59,048,19,05,38,094,18,30,29,219,36,03,25,153,38,1*7A
$GAGSV,2,2,06,36,14,082,15,13,04,276,16,1*7F
$GBGSV,4,1,14,43,73,333,25,11,72,069,28,42,65,143,46,34,51,106,43,1*73
$GBGSV,4,2,14,14,46,182,43,21,40,053,,12,22,111,42,33,22,197,51,1*70
$GBGSV,4,3,14,28,14,302,22,57,06,032,,23,06,251,31,37,05,299,,1*7F
$GBGSV,4,4,14,44,01,117,,31,,,30,1*44
$GBGSV,2,1,07,43,73,333,16,42,65,143,44,34,51,106,43,21,40,053,18,5*79
$GBGSV,2,2,07,33,22,197,44,23,06,251,32,37,05,299,16,5*4E
$GNGGA,000101.000,4000.584862,N,10514.618844,W,2,42,0.47,1598.437,M,-20.634,M,,*7A
$GPGSV,4,1,13,29,88,234,33,05,57,047,,18,42,293,25,46,37,214,50,1*6D
$GPGSV,4,2,13,15,37,148,45,13,31,104,47,20,24,051,19,23,21,227,50,1*62
$GPGSV,4,3,13,26,19,301,19,25,17,204,46,11,08,084,,16,03,329,17,1*6C
$GPGSV,4,4,13,12,02,180,32,1*5F
$GPGSV,1,1,04,18,42,293,17,23,21,227,46,25,17,204,50,11,08,084,21,8*6A
$GLGSV,2,1,05,87,47,331,22,72,46,164,45,77,16,264,31,78,13,321,17,1*78
$GLGSV,2,2,05,76,02,223,,1*4D
$GAGSV,3,1,10,34,59,048,22,15,50,301,24,05,38,094,33,27,33,281,27,7*7A
$GAGSV,3,2,10,30,29,219,49,03,25,153,48,36,14,082,16,09,14,041,19,7*7F
$GAGSV,3,3,10,21,07,328,,13,04,276,,7*7A
$GAGSV,2,1,06,34,59,048,19,05,38,094,19,30,29,219,36,03,25,153,39,1*7A
$GAGSV,2,2,06,36,14,082,15,13,04,276,14,1*7D
$GBGSV,3,1,12,43,73,333,,11,72,069,18,42,65,143,46,34,51,106,44,1*71
$GBGSV,3,2,12,14,46,182,44,21,40,053,,12,22,111,42,33,22,197,51,1*76
$GBGSV,3,3,12,28,14,302,,23,06,251,29,37,05,299,24,44,01,117,,1*72
$GBGSV,2,1,07,43,73,333,16,42,65,143,44,34,51,106,43,21,40,053,18,5*79
$GBGSV,2,2,07,33,22,197,44,23,06,251,31,37,05,299,15,5*4E
$GNGGA,000106.000,4000.584976,N,10514.618946,W,2,40,0.48,1598.399,M,-20.635,M,,*75
$GPGSV,4,1,13,29,88,234,24,05,57,047,20,18,42,293,24,46,37,214,50,1*68
$GPGSV,4,2,13,15,37,148,45,13,31,104,47,20,24,051,16,23,21,227,50,1*6D
$GPGSV,4,3,13,26,19,301,17,25,17,204,46,11,08,084,,16,03,329,,1*64
$GPGSV,4,4,13,12,02,180,32,1*5F
$GPGSV,1,1,03,23,21,227,46,25,17,204,50,11,08,084,20,8*5D
$GLGSV,2,1,05,87,47,331,14,72,46,164,45,77,16,264,32,78,13,321,29,1*73
$GLGSV,2,2,05,76,02,223,,1*4D
$GAGSV,3,1,10,34,59,048,20,15,50,301,23,05,38,094,33,27,33,281,26,7*7E
$GAGSV,3,2,10,30,29,219,49,03,25,153,48,36,14,082,15,09,14,041,20,7*76
$GAGSV,3,3,10,21,07,328,,13,04,276,25,7*7D
$GAGSV,2,1,05,34,59,048,18,05,38,094,19,30,29,219,36,03,25,153,39,1*78
$GAGSV,2,2,05,36,14,082,14,1*4F
$GBGSV,4,1,13,43,73,333,,11,72,072,22,42,65,143,46,34,51,106,44,1*74
$GBGSV,4,2,13,14,47,182,44,21,40,053,,33,22,197,51,12,21,111,42,1*72
$GBGSV,4,3,13,28,14,302,,23,06,251,29,57,06,032,,37,05,299,,1*71
$GBGSV,4,4,13,44,01,117,,1*42
$GBGSV,2,1,06,43,73,333,17,42,65,143,44,34,51,106,43,21,40,053,18,5*79
$GBGSV,2,2,06,33,22,197,44,23,06,251,31,5*78
$GNGGA,000111.000,4000.585000,N,10514.619018,W,2,39,0.49,1598.380,M,-20.635,M,,*7E
$GPGSV,4,1,13,29,88,234,23,05,57,047,,18,42,293,22,15,37,148,46,1*60
$GPGSV,4,2,13,46,37,214,50,13,31,104,48,20,24,051,22,23,21,227,50,1*6D
$GPGSV,4,3,13,26,19,301,25,25,17,204,46,11,08,084,28,16,03,329,19,1*67
$GPGSV,4,4,13,12,02,180,32,1*5F
$GPGSV,1,1,03,23,21,227,46,25,17,204,50,11,08,084,20,8*5D
$GLGSV,2,1,05,87,47,331,27,72,46,164,45,77,16,264,34,78,13,321,22,1*7E
$GLGSV,2,2,05,76,02,223,,1*4D
$GAGSV,3,1,10,34,59,048,,15,50,301,21,05,38,094,32,27,33,281,24,7*7D
$GAGSV,3,2,10,30,29,219,49,03,25,153,48,09,14,041,19,36,14,082,17,7*7E
$GAGSV,3,3,10,21,07,328,,13,04,276,21,7*79
$GAGSV,1,1,04,34,59,048,18,05,38,094,20,30,29,219,36,03,25,153,39,1*70
$GBGSV,3,1,12,43,73,333,24,11,72,072,28,42,65,143,46,34,51,106,44,1*7E
$GBGSV,3,2,12,14,47,182,44,21,40,053,26,33,22,197,51,12,21,111,42,1*70
$GBGSV,3,3,12,28,14,302,,23,06,251,28,37,05,299,,63,,,22,1*46
$GBGSV,2,1,06,43,73,333,17,42,65,143,44,34,51,106,43,21,40,053,18,5*79
$GBGSV,2,2,06,33,22,197,44,23,06,251,30,5*79
$GNGGA,000116.000,4000.585054,N,10514.619114,W,2,42,0.48,1598.710,M,-20.635,M,,*75
$GPGSV,4,1,13,29,88,234,28,05,57,047,,18,42,293,,15,37,148,47,1*6A
$GPGSV,4,2,13,46,37,214,50,13,31,104,48,20,24,051,27,23,21,227,50,1*68
$GPGSV,4,3,13,26,19,301,20,25,17,204,46,11,08,084,,16,03,329,25,1*67
$GPGSV,4,4,13,12,02,180,32,1*5F
$GPGSV,1,1,03,23,21,227,46,25,17,204,50,11,08,084,19,8*57
$GLGSV,2,1,05,87,47,331,19,72,46,164,45,77,16,264,35,78,13,321,17,1*74
$GLGSV,2,2,05,76,02,223,,1*4D
$GAGSV,3,1,10,34,59,048,23,15,50,301,23,05,38,094,31,27,33,281,16,7*7C
$GAGSV,3,2,10,30,29,219,49,03,25,153,48,09,14,041,,36,14,082,17,7*76
$GAGSV,3,3,10,21,07,328,,13,04,276,24,7*7C
$GAGSV,1,1,04,34,59,048,17,05,38,094,22,30,29,219,36,03,25,153,39,1*7D
$GBGSV,4,1,13,43,73,333,16,11,72,072,25,42,65,143,46,34,51,106,44,1*74
$GBGSV,4,2,13,14,47,182,44,21,40,052,25,33,22,197,51,12,21,111,42,1*74
$GBGSV,4,3,13,28,14,302,26,37,05,299,24,23,05,250,27,44,01,117,,1*7C
$GBGSV,4,4,13,31,,,27,1*73
$GBGSV,2,1,06,43,73,333,17,42,65,143,44,34,51,106,43,21,40,052,18,5*78
$GBGSV,2,2,06,33,22,197,44,23,05,250,30,5*7B
$GNGGA,000121.000,4000.584808,N,10514.619012,W,2,44,0.44,1599.312,M,-20.635,M,,*7B
$GPGSV,4,1,13,29,88,234,32,05,57,047,,18,42,293,29,46,37,214,50,1*60
$GPGSV,4,2,13,15,37,148,47,13,31,104,48,20,24,051,29,23,21,227,49,1*64
$GPGSV,4,3,13,26,19,301,14,25,17,204,46,11,08,084,28,16,03,329,23,1*6C
$GPGSV,4,4,13,12,02,180,32,1*5F
$GPGSV,1,1,03,23,21,227,46,25,17,204,49,11,08,084,19,8*5F
$GLGSV,2,1,05,87,47,331,16,72,46,164,44,77,16,264,35,78,13,321,26,1*78
$GLGSV,2,2,05,76,02,223,,1*4D
$GAGSV,3,1,10,34,59,048,23,15,50,301,21,05,38,094,28,27,33,281,21,7*72
$GAGSV,3,2,10,30,29,219,49,03,25,153,48,36,14,082,15,09,14,041,24,7*72
$GAGSV,3,3,10,21,07,328,19,13,04,276,26,7*76
$GAGSV,1,1,04,34,59,048,17,05,38,094,21,30,29,219,36,03,25,153,39,1*7E
$GBGSV,4,1,13,43,73,333,,11,72,072,14,42,65,143,47,34,51,106,44,1*70
$GBGSV,4,2,13,14,47,182,44,21,40,052,25,33,22,197,51,12,21,111,41,1*77
$GBGSV,4,3,13,28,15,303,22,57,06,032,,37,05,299,24,23,05,250,27,1*7B
$GBGSV,4,4,13,44,01,117,,1*42
$GBGSV,2,1,06,43,73,333,16,42,65,143,44,34,51,106,43,21,40,052,18,5*79
$GBGSV,2,2,06,33,22,197,44,23,05,250,28,5*72
$GNGGA,000126.000,4000.584664,N,10514.618958,W,2,44,0.47,1599.516,M,-20.635,M,,*7F
$GPGSV,4,1,13,29,88,234,34,05,57,047,,18,42,293,,46,37,214,50,1*6D
$GPGSV,4,2,13,15,37,148,47,13,31,104,48,20,24,051,29,23,21,227,49,1*64
$GPGSV,4,3,13,26,19,301,30,25,17,204,46,11,08,084,28,16,03,329,14,1*6E
$GPGSV,4,4,13,12,02,180,31,1*5C
$GPGSV,1,1,04,23,21,227,46,26,19,301,18,25,17,204,49,11,08,084,17,8*61
$GLGSV,2,1,05,87,47,331,18,72,46,164,43,77,16,264,36,78,13,321,24,1*70
$GLGSV,2,2,05,76,02,223,,1*4D
$GAGSV,3,1,10,34,59,048,18,15,50,301,16,05,38,094,28,27,33,281,21,7*7E
$GAGSV,3,2,10,30,29,219,49,03,25,153,48,09,14,041,,36,14,082,16,7*77
$GAGSV,3,3,10,21,07,328,20,13,04,276,25,7*7F
$GAGSV,2,1,05,34,59,048,17,05,38,094,21,30,29,219,36,03,25,153,39,1*7C
$GAGSV,2,2,05,36,14,082,17,1*4C
$GBGSV,4,1,14,43,73,333,27,11,72,072,23,42,65,143,47,34,50,107,44,1*76
$GBGSV,4,2,14,14,47,182,45,21,40,052,21,33,23,198,51,12,21,111,40,1*7A
$GBGSV,4,3,14,28,15,303,13,57,06,032,,23,05,250,29,37,05,299,,1*76
$GBGSV,4,4,14,44,01,117,,31,,,29,1*4C
$GBGSV,2,1,06,43,73,333,16,42,65,143,44,34,50,107,43,21,40,052,18,5*79
$GBGSV,2,2,06,33,23,198,44,23,05,250,26,5*72
$GNGGA,000131.000,4000.584544,N,10514.618820,W,2,41,0.48,1599.350,M,-20.635,M,,*78
$GPGSV,4,1,13,29,88,234,35,05,57,047,,18,42,293,,15,37,148,47,1*66
$GPGSV,4,2,13,46,37,214,50,13,31,104,48,20,24,051,27,23,21,227,49,1*60
$GPGSV,4,3,13,26,19,301,27,25,17,204,46,11,08,084,,16,03,329,21,1*64
$GPGSV,4,4,13,12,02,180,29,1*55
$GPGSV,1,1,04,23,21,227,45,26,19,301,18,25,17,204,49,11,08,084,16,8*63
$GLGSV,2,1,05,87,47,331,22,72,46,164,44,77,16,264,36,78,13,321,29,1*73
$GLGSV,2,2,05,76,02,223,,1*4D
$GAGSV,3,1,10,34,59,048,,15,50,301,18,05,38,094,28,27,33,281,23,7*7B
$GAGSV,3,2,10,30,29,219,49,03,25,153,48,09,14,041,,36,14,082,,7*70
$GAGSV,3,3,10,21,07,328,19,13,04,276,25,7*75
$GAGSV,2,1,06,34,59,048,16,05,38,094,21,27,33,281,19,30,29,219,36,1*71
$GAGSV,2,2,06,03,25,153,39,36,14,082,17,1*76
$GBGSV,4,1,13,43,73,333,20,11,72,072,23,42,65,143,47,34,50,107,44,1*76
$GBGSV,4,2,13,14,47,182,45,21,40,052,15,33,23,198,51,12,21,111,40,1*7A
$GBGSV,4,3,13,28,15,303,,37,05,298,,23,05,250,27,44,01,117,,1*7F
$GBGSV,4,4,13,58,,,30,1*7A
$GBGSV,2,1,06,43,73,333,16,42,65,143,44,34,50,107,43,21,40,052,18,5*79
$GBGSV,2,2,06,33,23,198,43,23,05,250,26,5*75
$GNGGA,000136.000,4000.584508,N,10514.618862,W,2,44,0.47,1599.600,M,-20.635,M,,*7B
$GPGSV,4,1,13,29,88,234,35,05,57,047,,18,42,293,27,15,37,148,47,1*63
$GPGSV,4,2,13,46,37,214,50,13,31,104,48,20,24,051,21,23,21,227,49,1*66
$GPGSV,4,3,13,26,19,301,19,25,17,204,47,11,08,084,,16,03,329,20,1*69
$GPGSV,4,4,13,12,02,180,29,1*55
$GPGSV,1,1,04,23,21,227,45,26,19,301,15,25,17,204,49,11,08,084,15,8*6D
$GLGSV,2,1,05,87,47,331,19,72,46,164,44,77,16,264,37,78,13,321,15,1*75
$GLGSV,2,2,05,76,02,223,,1*4D
$GAGSV,3,1,10,34,59,048,21,15,50,301,25,05,38,094,30,27,33,281,22,7*7E
$GAGSV,3,2,10,30,29,219,49,03,25,153,48,09,14,041,18,36,14,082,24,7*7F
$GAGSV,3,3,10,21,07,328,,13,04,276,24,7*7C
$GAGSV,2,1,07,34,59,048,17,05,38,094,21,27,33,281,18,30,29,219,36,1*70
$GAGSV,2,2,07,03,25,153,38,36,14,082,18,13,04,276,20,1*4E
$GBGSV,3,1,12,43,74,334,29,11,72,072,23,42,66,141,47,34,50,107,43,1*7F
$GBGSV,3,2,12,14,47,182,45,21,40,052,,33,23,198,51,12,21,111,40,1*78
$GBGSV,3,3,12,28,15,303,27,37,05,298,,23,05,250,24,58,,,30,1*47
$GBGSV,2,1,06,43,74,334,16,42,66,141,44,34,50,107,43,21,40,052,17,5*77
$GBGSV,2,2,06,33,23,198,43,23,05,250,24,5*77
$GNGGA,000141.000,4000.584496,N,10514.619060,W,2,47,0.45,1600.327,M,-20.635,M,,*74
$GPGSV,4,1,13,29,88,234,31,05,57,047,25,18,42,293,26,15,37,148,47,1*61
$GPGSV,4,2,13,46,37,214,50,13,31,104,48,20,24,051,17,23,21,227,49,1*63
$GPGSV,4,3,13,26,19,301,23,25,17,204,47,11,08,084,28,16,03,329,18,1*61
$GPGSV,4,4,13,12,02,180,30,1*5D
$GPGSV,1,1,04,23,21,227,45,26,19,301,16,25,17,204,49,11,08,084,16,8*6D
$GLGSV,2,1,05,87,47,331,19,72,46,164,44,77,16,264,37,78,13,321,23,1*70
$GLGSV,2,2,05,76,02,223,,1*4D
$GAGSV,3,1,10,34,59,048,22,15,50,301,,05,38,094,29,27,33,281,24,7*74
$GAGSV,3,2,10,30,29,219,49,03,25,153,48,09,14,041,18,36,14,082,22,7*79
$GAGSV,3,3,10,21,07,328,21,13,04,276,25,7*7E
$GAGSV,3,1,09,34,59,048,17,05,38,094,21,27,33,281,17,30,29,219,36,1*70
$GAGSV,3,2,09,03,25,153,38,09,14,041,16,36,14,082,18,21,07,328,17,1*73
$GAGSV,3,3,09,13,04,276,23,1*48
$GBGSV,4,1,13,43,74,334,28,11,72,072,23,42,66,141,47,34,50,107,42,1*79
$GBGSV,4,2,13,14,47,182,45,21,40,052,,33,23,198,51,12,21,111,40,1*7E
$GBGSV,4,3,13,28,15,303,20,37,05,298,24,23,05,250,21,58,,,30,1*45
$GBGSV,4,4,13,63,,,30,1*72
$GBGSV,2,1,06,43,74,334,17,42,66,141,46,34,50,107,44,21,40,052,18,5*7C
$GBGSV,2,2,06,33,23,198,43,23,05,250,25,5*76
$GNGGA,000146.000,4000.584346,N,10514.619114,W,2,44,0.46,1600.881,M,-20.634,M,,*7D
$GPGSV,4,1,13,29,88,234,30,05,57,047,25,18,42,293,18,46,37,214,50,1*67
$GPGSV,4,2,13,15,37,148,46,13,31,104,48,20,24,051,15,23,21,227,49,1*6A
$GPGSV,4,3,13,26,19,301,25,25,17,204,48,11,08,084,26,16,03,329,17,1*69
$GPGSV,4,4,13,12,02,180,29,1*55
$GPGSV,1,1,03,23,21,227,44,25,17,204,49,11,08,084,16,8*52
$GLGSV,2,1,05,87,47,331,25,72,46,164,44,77,16,264,36,78,13,321,23,1*7E
$GLGSV,2,2,05,76,02,223,,1*4D
$GAGSV,3,1,10,34,59,048,17,15,50,301,18,05,38,094,29,27,33,281,18,7*74
$GAGSV,3,2,10,30,29,219,49,03,25,153,48,09,14,041,17,36,14,082,22,7*76
$GAGSV,3,3,10,21,07,328,19,13,04,276,23,7*73
$GAGSV,2,1,07,34,59,048,17,05,38,094,21,30,29,219,36,03,25,153,38,1*7F
$GAGSV,2,2,07,09,14,041,17,21,07,328,18,13,04,276,24,1*4A
$GBGSV,4,1,14,43,74,334,27,11,72,072,28,42,66,141,47,34,50,107,42,1*7A
$GBGSV,4,2,14,14,47,182,45,21,40,052,,33,23,198,51,12,21,111,41,1*78
$GBGSV,4,3,14,28,15,303,17,57,06,032,,23,05,250,23,37,05,298,29,1*72
$GBGSV,4,4,14,63,,,29,58,,,30,1*73
$GBGSV,2,1,06,43,74,334,18,42,66,141,46,34,50,107,44,21,40,052,18,5*73
$GBGSV,2,2,06,33,23,198,43,23,05,250,24,5*77
$GNGGA,000151.000,4000.584202,N,10514.619042,W,2,45,0.47,1601.568,M,-20.635,M,,*72
$GPGSV,4,1,13,29,88,234,30,05,57,047,,18,42,293,21,15,37,148,46,1*61
$GPGSV,4,2,13,46,37,214,50,13,31,104,47,20,24,051,,23,21,227,49,1*6A
$GPGSV,4,3,13,26,19,301,19,25,17,204,49,11,08,084,,16,03,329,15,1*61
$GPGSV,4,4,13,12,02,180,27,1*5B
$GPGSV,1,1,03,23,21,227,44,25,17,204,49,11,08,084,17,8*53
$GLGSV,2,1,05,87,47,331,22,72,46,164,44,77,16,264,36,78,13,321,16,1*7F
$GLGSV,2,2,05,76,02,223,,1*4D
$GAGSV,3,1,10,34,59,048,15,15,50,301,,05,38,094,28,27,33,281,16,7*70
$GAGSV,3,2,10,30,29,219,49,03,25,153,48,09,14,041,17,36,14,082,24,7*70
$GAGSV,3,3,10,21,07,328,17,13,04,276,24,7*7A
$GAGSV,3,1,09,34,59,048,16,05,38,094,21,27,33,281,18,30,29,219,36,1*7E
$GAGSV,3,2,09,03,25,153,38,36,14,082,20,09,14,041,14,21,07,328,18,1*75
$GAGSV,3,3,09,13,04,276,26,1*4D
$GBGSV,3,1,12,43,74,334,27,11,72,072,30,42,66,141,47,34,50,107,42,1*72
$GBGSV,3,2,12,14,47,182,46,21,40,052,21,33,23,198,51,12,21,111,41,1*79
$GBGSV,3,3,12,28,15,303,,37,05,298,25,23,05,250,23,58,,,30,1*42
$GBGSV,2,1,06,43,74,334,18,42,66,141,46,34,50,107,44,21,40,052,18,5*73
$GBGSV,2,2,06,33,23,198,43,23,05,250,23,5*70
$GNGGA,000156.000,4000.584346,N,10514.618970,W,2,43,0.48,1601.744,M,-20.635,M,,*78
$GPGSV,4,1,13,29,88,234,33,05,57,047,,18,42,293,,15,37,148,46,1*61
$GPGSV,4,2,13,46,37,214,50,13,31,104,47,20,24,051,,23,21,227,49,1*6A
$GPGSV,4,3,13,26,19,301,,25,17,204,49,11,08,084,,16,03,329,,1*6D
$GPGSV,4,4,13,12,02,180,26,1*5A
$GPGSV,1,1,04,18,42,293,19,23,21,227,44,25,17,204,49,11,08,084,18,8*64
$GLGSV,2,1,05,87,47,331,17,72,46,164,45,77,16,264,35,78,13,321,23,1*7D
$GLGSV,2,2,05,76,02,223,,1*4D
$GAGSV,3,1,10,34,59,048,19,15,50,301,23,05,38,094,28,27,33,281,20,7*78
$GAGSV,3,2,10,30,29,219,50,03,25,153,48,09,14,041,,36,14,082,26,7*7C
$GAGSV,3,3,10,21,07,328,17,13,04,276,20,7*7E
$GAGSV,3,1,09,34,59,048,16,05,38,094,21,27,33,281,19,30,29,219,37,1*7E
$GAGSV,3,2,09,03,25,153,38,09,14,041,13,36,14,082,23,21,07,328,19,1*70
$GAGSV,3,3,09,13,04,276,26,1*4D
$GBGSV,4,1,14,43,74,334,24,11,72,072,31,42,66,141,47,34,50,107,42,1*71
$GBGSV,4,2,14,14,47,182,47,21,40,052,,33,23,198,51,12,21,111,39,1*75
$GBGSV,4,3,14,28,15,303,,37,05,298,,23,05,250,21,58,,,30,1*46
$GBGSV,4,4,14,31,,,24,63,,,28,1*78
$GBGSV,2,1,06,43,74,334,18,42,66,141,46,34,50,107,44,21,40,052,17,5*7C
$GBGSV,2,2,06,33,23,198,42,23,05,250,23,5*71
$GNGGA,000201.000,4000.584514,N,10514.618928,W,2,46,0.45,1601.138,M,-20.635,M,,*70
$GPGSV,4,1,13,29,88,234,33,05,56,047,,18,42,293,24,46,37,214,50,1*6D
$GPGSV,4,2,13,15,37,148,46,13,31,104,47,20,24,051,,23,21,227,49,1*61
$GPGSV,4,3,13,26,19,301,20,25,17,204,49,11,08,084,,16,03,329,,1*6F
$GPGSV,4,4,13,12,02,180,21,1*5D
$GPGSV,1,1,04,18,42,293,18,23,21,227,44,25,17,204,49,11,08,084,19,8*64
$GLGSV,2,1,05,87,47,331,16,72,46,164,45,77,16,264,35,78,13,321,21,1*7E
$GLGSV,2,2,05,76,02,223,,1*4D
$GAGSV,3,1,10,34,59,048,23,15,50,301,19,05,38,094,24,27,33,281,20,7*74
$GAGSV,3,2,10,30,29,219,50,03,25,153,47,09,14,041,,36,14,082,27,7*72
$GAGSV,3,3,10,21,07,328,17,13,04,276,25,7*7B
$GAGSV,3,1,09,34,59,048,16,05,38,094,22,27,33,281,18,30,29,219,37,1*7C
$GAGSV,3,2,09,03,25,153,39,09,14,041,13,36,14,082,22,21,07,328,18,1*71
$GAGSV,3,3,09,13,04,276,25,1*4E
$GBGSV,4,1,14,43,74,334,19,11,72,072,29,42,66,141,47,34,50,107,43,1*77
$GBGSV,4,2,14,14,47,182,47,21,40,052,,33,23,198,51,12,21,111,39,1*75
$GBGSV,4,3,14,28,15,303,19,57,06,031,,23,05,250,22,37,05,298,,1*75
$GBGSV,4,4,14,63,,,30,58,,,30,1*7B
$GBGSV,2,1,06,43,74,334,18,42,66,141,46,34,50,107,44,21,40,052,17,5*7C
$GBGSV,2,2,06,33,23,198,42,23,05,250,24,5*76
$GNGGA,000206.000,4000.584544,N,10514.618844,W,2,47,0.45,1601.296,M,-20.635,M,,*7F
$GPGSV,4,1,13,29,88,234,32,05,56,047,,18,42,293,19,15,37,148,45,1*6A
$GPGSV,4,2,13,46,37,214,50,13,31,104,46,20,24,051,,23,21,227,49,1*6B
$GPGSV,4,3,13,26,19,301,18,25,17,204,49,11,07,084,,16,03,329,,1*6B
$GPGSV,4,4,13,12,02,180,16,1*59
$GPGSV,1,1,04,18,42,293,16,23,21,227,44,25,17,204,49,11,07,084,19,8*65
$GLGSV,2,1,05,87,47,331,19,72,46,164,45,77,16,264,35,78,13,321,14,1*77
$GLGSV,2,2,05,76,02,223,,1*4D
$GAGSV,3,1,10,34,59,048,24,15,50,301,19,05,38,094,27,27,33,281,18,7*7B
$GAGSV,3,2,10,30,29,219,50,03,25,153,47,09,14,041,,36,14,082,27,7*72
$GAGSV,3,3,10,21,07,328,17,13,04,276,26,7*78
$GAGSV,3,1,09,15,50,301,19,05,38,094,21,27,33,281,16,30,29,219,37,1*7A
$GAGSV,3,2,09,03,25,153,39,36,14,082,21,09,14,041,14,21,07,328,16,1*7B
$GAGSV,3,3,09,13,04,276,21,1*4A
$GBGSV,4,1,13,43,74,334,20,11,72,072,27,42,66,141,47,34,50,107,43,1*74
$GBGSV,4,2,13,14,47,182,47,21,40,052,23,33,23,198,51,12,21,111,40,1*7D
$GBGSV,4,3,13,28,15,303,23,57,06,031,,37,05,298,20,23,05,250,20,1*7B
$GBGSV,4,4,13,58,,,30,1*7A
$GBGSV,2,1,06,43,74,334,18,42,66,141,46,34,50,107,44,21,40,052,17,5*7C
$GBGSV,2,2,06,33,23,198,42,23,05,250,24,5*76
$GNGGA,000211.000,4000.584502,N,10514.618772,W,2,43,0.48,1601.920,M,-20.634,M,,*7F
$GPGSV,4,1,13,29,88,234,31,05,56,047,,18,42,293,,15,38,147,45,1*61
$GPGSV,4,2,13,46,37,214,50,13,32,103,46,20,24,051,,23,21,227,49,1*6F
$GPGSV,4,3,13,26,19,301,21,25,17,204,50,11,07,084,,16,04,328,,1*6F
$GPGSV,4,4,13,12,01,180,11,1*5D
$GPGSV,1,1,04,18,42,293,17,23,21,227,43,25,17,204,49,11,07,084,18,8*62
$GLGSV,2,1,05,87,47,331,18,72,46,164,44,77,16,264,36,78,13,321,26,1*75
$GLGSV,2,2,05,76,02,223,,1*4D
$GAGSV,3,1,10,34,59,048,25,15,50,301,17,05,38,094,29,27,33,281,17,7*75
$GAGSV,3,2,10,30,29,219,50,03,25,153,47,36,14,082,27,09,14,041,,7*72
$GAGSV,3,3,10,21,07,328,17,13,04,276,27,7*79
$GAGSV,2,1,06,15,50,301,15,05,38,094,22,30,29,219,37,03,25,153,39,1*7B
$GAGSV,2,2,06,36,14,082,22,13,04,276,20,1*7E
$GBGSV,4,1,14,43,74,334,27,11,72,072,29,42,66,141,47,34,50,107,44,1*7D
$GBGSV,4,2,14,14,47,182,47,21,40,052,23,33,23,198,51,12,21,111,40,1*7A
$GBGSV,4,3,14,28,15,303,20,57,06,031,,37,05,298,,23,05,250,22,1*7F
$GBGSV,4,4,14,58,,,30,63,,,28,1*72
$GBGSV,2,1,07,43,74,334,18,42,66,141,46,34,50,107,44,21,40,052,16,5*7C
$GBGSV,2,2,07,33,23,198,43,37,05,298,17,23,05,250,22,5*44
$GNGGA,000216.000,4000.584514,N,10514.618724,W,2,41,0.48,1602.559,M,-20.635,M,,*7E
$GPGSV,4,1,13,29,88,234,32,05,56,047,,18,43,294,,15,38,147,45,1*64
$GPGSV,4,2,13,46,37,214,50,13,32,103,46,20,23,051,,23,21,227,49,1*68
$GPGSV,4,3,13,26,19,301,17,25,17,204,50,11,07,084,,16,04,328,,1*6A
$GPGSV,4,4,13,12,01,180,,1*5D
$GPGSV,1,1,04,18,43,294,19,23,21,227,43,25,17,204,49,11,07,084,19,8*6B
$GLGSV,2,1,05,87,47,331,29,72,46,164,44,77,16,264,36,78,13,321,15,1*77
$GLGSV,2,2,05,76,02,223,,1*4D
$GAGSV,3,1,10,34,59,048,21,15,50,301,15,05,38,094,31,27,33,281,15,7*78
$GAGSV,3,2,10,30,29,219,50,03,25,153,47,09,14,041,,36,14,082,26,7*73
$GAGSV,3,3,10,21,07,328,17,13,04,276,28,7*76
$GAGSV,2,1,05,05,38,094,21,30,29,219,36,03,25,153,39,36,14,082,21,1*74
$GAGSV,2,2,05,13,04,276,20,1*47
$GBGSV,3,1,12,43,74,334,,11,72,072,28,42,66,141,48,34,50,107,44,1*77
$GBGSV,3,2,12,14,47,182,47,21,40,052,,33,23,198,51,12,21,111,39,1*74
$GBGSV,3,3,12,28,15,303,27,37,05,298,,23,05,250,19,58,,,30,1*49
$GBGSV,2,1,07,43,74,334,18,42,66,141,46,34,50,107,43,21,40,052,15,5*78
$GBGSV,2,2,07,33,23,198,43,37,05,298,18,23,05,250,21,5*48
$GNGGA,000221.000,4000.584460,N,10514.618724,W,2,42,0.49,1603.293,M,-20.635,M,,*7A
$GPGSV,4,1,13,29,88,234,33,05,56,047,,18,43,294,27,15,38,147,46,1*63
$GPGSV,4,2,13,46,37,214,50,13,32,103,46,20,23,051,,23,22,227,49,1*6B
$GPGSV,4,3,13,26,19,300,16,25,16,204,51,11,07,084,,16,04,328,23,1*6B
$GPGSV,4,4,13,12,01,180,,1*5D
$GPGSV,1,1,04,18,43,294,17,23,22,227,43,25,16,204,49,11,07,084,20,8*6D
$GLGSV,2,1,05,87,47,331,29,72,46,164,44,77,16,264,34,78,13,321,24,1*77
$GLGSV,2,2,05,76,02,223,,1*4D
$GAGSV,3,1,10,34,59,048,24,15,50,301,,05,38,094,29,27,33,281,21,7*77
$GAGSV,3,2,10,30,29,219,50,03,25,153,47,09,14,041,,36,14,082,26,7*73
$GAGSV,3,3,10,21,07,328,17,13,04,276,29,7*77
$GAGSV,2,1,06,05,38,094,21,27,33,281,20,30,29,219,37,03,25,153,40,1*7D
$GAGSV,2,2,06,36,14,082,21,13,04,276,19,1*77
$GBGSV,4,1,13,43,74,334,,11,72,072,26,42,66,141,48,34,50,107,44,1*7F
$GBGSV,4,2,13,14,47,182,47,21,40,052,23,33,23,198,51,12,21,111,39,1*73
$GBGSV,4,3,13,28,15,303,26,23,05,250,19,37,05,298,25,31,,,27,1*40
$GBGSV,4,4,13,58,,,30,1*7A
$GBGSV,2,1,06,43,74,334,18,42,66,141,46,34,50,107,43,33,23,198,43,5*7B
$GBGSV,2,2,06,37,05,298,18,23,05,250,22,5*7C
$GNGGA,000226.000,4000.584478,N,10514.619108,W,2,43,0.48,1604.103,M,-20.635,M,,*70
$GPGSV,4,1,13,29,87,206,33,05,56,047,,18,43,294,27,15,38,147,46,1*6D
$GPGSV,4,2,13,46,37,214,50,13,32,103,46,20,23,051,,23,22,227,48,1*6A
$GPGSV,4,3,13,26,19,300,21,25,16,204,51,11,07,084,,16,04,328,22,1*6E
$GPGSV,4,4,13,12,01,180,,1*5D
$GPGSV,1,1,04,23,22,227,43,26,19,300,14,25,16,204,49,11,07,084,20,8*60
$GLGSV,2,1,05,87,47,331,24,72,46,164,44,77,16,264,34,78,13,321,20,1*7E
$GLGSV,2,2,05,76,02,223,,1*4D
$GAGSV,3,1,10,34,59,048,,15,50,301,,05,38,094,27,27,33,281,17,7*7A
$GAGSV,3,2,10,30,29,219,50,03,25,153,46,09,14,041,18,36,14,082,26,7*7B
$GAGSV,3,3,10,21,07,328,19,13,04,276,28,7*78
$GAGSV,2,1,05,05,38,094,21,27,33,281,21,30,29,219,37,03,25,153,41,1*7E
$GAGSV,2,2,05,36,14,082,22,1*4A
$GBGSV,4,1,13,43,74,334,16,11,72,072,24,42,66,141,48,34,50,107,44,1*7A
$GBGSV,4,2,13,14,47,182,47,21,40,052,,33,23,198,51,12,21,111,39,1*72
$GBGSV,4,3,13,28,15,303,23,23,05,250,21,37,05,298,22,63,,,28,1*41
$GBGSV,4,4,13,58,,,29,1*72
$GBGSV,2,1,06,43,74,334,18,42,66,141,47,34,50,107,43,33,23,198,43,5*7A
$GBGSV,2,2,06,23,05,250,20,37,05,298,17,5*71
$GNGGA,000231.000,4000.584520,N,10514.619474,W,2,46,0.47,1604.815,M,-20.635,M,,*70
$GPGSV,4,1,13,29,87,206,33,05,56,047,25,18,43,294,20,15,38,147,46,1*6D
$GPGSV,4,2,13,46,37,214,50,13,32,103,46,20,23,051,27,23,22,227,48,1*6F
$GPGSV,4,3,13,26,19,300,14,25,16,204,51,11,07,084,21,16,04,328,13,1*69
$GPGSV,4,4,13,12,01,180,,1*5D
$GPGSV,1,1,04,23,22,227,42,26,19,300,14,25,16,204,49,11,07,084,20,8*61
$GLGSV,2,1,05,87,47,331,24,72,46,164,44,77,16,264,33,78,13,321,17,1*7D
$GLGSV,2,2,05,76,02,223,,1*4D
$GAGSV,3,1,10,34,59,048,18,15,50,301,,05,38,094,28,27,33,281,,7*7A
$GAGSV,3,2,10,30,29,219,49,03,25,153,46,09,14,041,19,36,14,082,25,7*71
$GAGSV,3,3,10,21,07,328,,13,04,276,28,7*70
$GAGSV,2,1,06,05,38,094,21,27,33,281,18,30,29,219,37,03,25,153,41,1*77
$GAGSV,2,2,06,09,14,041,17,36,14,082,20,1*74
$GBGSV,3,1,12,43,74,334,20,11,72,072,24,42,66,141,48,34,50,107,44,1*79
$GBGSV,3,2,12,14,47,182,47,21,40,052,25,33,23,198,51,12,21,111,38,1*72
$GBGSV,3,3,12,28,15,303,,37,05,298,25,23,05,250,19,58,,,29,1*43
$GBGSV,2,1,07,43,74,334,18,42,66,141,47,34,50,107,43,21,40,052,18,5*74
$GBGSV,2,2,07,33,23,198,42,23,05,250,19,37,05,298,15,5*4F
$GNGGA,000236.000,4000.584886,N,10514.619804,W,2,45,0.48,1605.218,M,-20.634,M,,*76
$GPGSV,4,1,13,29,87,206,32,05,56,047,21,18,43,294,18,15,38,147,46,1*63
$GPGSV,4,2,13,46,37,214,50,13,32,103,46,20,23,051,,23,22,227,48,1*6A
$GPGSV,4,3,13,26,19,300,24,25,16,204,51,11,07,084,18,16,04,328,21,1*61
$GPGSV,4,4,13,12,01,180,,1*5D
$GPGSV,1,1,04,23,22,227,42,26,19,300,17,25,16,204,49,11,07,084,21,8*63
$GLGSV,2,1,05,87,47,331,20,72,46,164,43,77,16,264,32,78,13,321,21,1*7A
$GLGSV,2,2,05,76,02,223,,1*4D
$GAGSV,3,1,10,34,59,048,18,15,50,301,,05,38,094,26,27,33,281,,7*74
$GAGSV,3,2,10,30,29,219,49,03,25,153,46,36,14,082,22,09,14,041,19,7*76
$GAGSV,3,3,10,21,07,328,20,13,04,276,27,7*7D
$GAGSV,2,1,07,34,59,048,17,05,38,094,22,30,29,219,37,03,25,153,41,1*73
$GAGSV,2,2,07,36,14,082,20,09,14,041,16,13,04,276,22,1*41
$GBGSV,3,1,11,43,74,334,22,11,72,072,23,42,66,141,48,34,50,107,44,1*7F
$GBGSV,3,2,11,14,47,182,47,21,40,052,,33,23,198,51,12,21,111,38,1*76
$GBGSV,3,3,11,28,15,303,,23,05,250,20,37,05,298,25,1*4C
$GBGSV,2,1,07,43,74,334,18,42,66,141,47,34,50,107,43,21,40,052,17,5*7B
$GBGSV,2,2,07,33,23,198,42,37,05,298,14,23,05,250,20,5*44
$GNGGA,000241.000,4000.584994,N,10514.620020,W,2,46,0.48,1605.811,M,-20.635,M,,*71
$GPGSV,4,1,13,29,87,206,33,05,56,047,29,18,43,294,21,15,38,147,46,1*60
$GPGSV,4,2,13,46,37,214,50,13,32,103,46,20,23,051,,23,22,227,48,1*6A
$GPGSV,4,3,13,26,19,300,21,25,16,204,51,11,07,084,22,16,04,328,22,1*6E
$GPGSV,4,4,13,12,01,180,,1*5D
$GPGSV,1,1,04,23,22,227,42,26,19,300,14,25,16,204,49,11,07,084,21,8*60
$GLGSV,2,1,05,87,47,331,23,72,46,164,41,77,16,264,33,78,13,321,25,1*7E
$GLGSV,2,2,05,76,02,223,,1*4D
$GAGSV,3,1,10,34,59,048,25,15,50,301,,05,38,092,24,27,33,281,,7*7E
$GAGSV,3,2,10,30,29,219,49,03,26,153,46,36,14,082,24,09,14,041,19,7*73
$GAGSV,3,3,10,21,07,328,,13,04,276,24,7*7C
$GAGSV,2,1,08,34,59,048,17,05,38,092,23,30,29,219,37,03,26,153,41,1*78
$GAGSV,2,2,08,36,14,082,20,09,14,041,16,21,07,328,20,13,04,276,22,1*71
$GBGSV,3,1,11,43,74,334,18,11,72,072,25,42,66,141,48,34,50,107,44,1*70
$GBGSV,3,2,11,14,47,182,47,21,40,052,22,33,23,198,51,12,21,111,37,1*79
$GBGSV,3,3,11,28,15,303,21,23,05,250,19,37,05,298,28,1*48
$GBGSV,2,1,06,43,74,334,19,42,66,141,47,34,50,107,43,33,23,198,42,5*7A
$GBGSV,2,2,06,37,05,298,13,23,05,250,20,5*75
$GNGGA,000246.000,4000.585012,N,10514.620110,W,2,43,0.48,1605.911,M,-20.635,M,,*76
$GPGSV,4,1,13,29,87,206,36,05,56,047,13,18,43,294,18,15,38,147,46,1*66
$GPGSV,4,2,13,46,37,214,50,13,32,103,46,20,23,051,,23,22,227,48,1*6A
$GPGSV,4,3,13,26,19,300,20,25,16,204,51,11,07,084,23,16,04,328,15,1*6A
$GPGSV,4,4,13,12,01,180,,1*5D
$GPGSV,1,1,03,23,22,227,42,25,16,204,49,11,07,084,21,8*5D
$GLGSV,2,1,05,87,47,331,19,72,46,164,41,77,16,264,34,78,13,321,22,1*77
$GLGSV,2,2,05,76,02,223,,1*4D
$GAGSV,3,1,10,34,59,048,22,15,50,301,20,05,38,092,21,27,33,281,,7*7E
$GAGSV,3,2,10,30,29,219,49,03,26,153,46,09,14,040,17,36,14,082,20,7*78
$GAGSV,3,3,10,21,07,328,20,13,04,276,21,7*7B
$GAGSV,2,1,08,34,59,048,18,05,38,092,24,30,29,219,36,03,26,153,41,1*71
$GAGSV,2,2,08,36,14,082,20,09,14,040,16,21,07,328,18,13,04,276,24,1*7D
$GBGSV,3,1,12,43,74,334,25,11,72,072,,42,66,141,48,34,50,107,41,1*7F
$GBGSV,3,2,12,14,47,182,47,21,40,052,24,33,23,198,51,12,21,111,37,1*7C
$GBGSV,3,3,12,28,15,303,,37,05,298,26,23,05,250,19,58,,,28,1*41
$GBGSV,2,1,05,43,74,334,19,42,66,141,47,34,50,107,43,33,23,198,42,5*79
$GBGSV,2,2,05,23,05,250,18,5*4D
$GNGGA,000251.000,4000.584754,N,10514.619954,W,2,48,0.46,1606.214,M,-20.635,M,,*7E
$GPGSV,4,1,13,29,87,206,35,05,56,047,,18,43,294,28,15,38,147,46,1*64
$GPGSV,4,2,13,46,37,214,50,13,32,103,46,20,23,051,,23,22,227,48,1*6A
$GPGSV,4,3,13,26,19,300,20,25,16,204,51,11,07,084,27,16,04,328,19,1*62
$GPGSV,4,4,13,12,01,180,,1*5D
$GPGSV,1,1,03,23,22,227,42,25,16,204,49,11,07,084,20,8*5C
$GLGSV,2,1,05,87,47,331,20,72,46,164,41,77,16,264,35,78,13,321,26,1*78
$GLGSV,2,2,05,76,02,223,,1*4D
$GAGSV,3,1,10,34,59,048,17,15,51,303,20,05,38,092,26,27,33,281,17,7*7A
$GAGSV,3,2,10,30,29,219,49,03,26,153,46,36,14,082,16,09,14,040,14,7*7E
$GAGSV,3,3,10,21,07,328,18,13,05,277,16,7*74
$GAGSV,3,1,09,34,59,048,18,15,51,303,17,05,38,092,25,30,29,219,36,1*73
$GAGSV,3,2,09,03,26,153,41,36,14,082,21,09,14,040,16,21,07,328,13,1*71
$GAGSV,3,3,09,13,05,277,24,1*4F
$GBGSV,3,1,11,43,74,334,23,11,72,072,15,42,66,141,48,34,50,107,41,1*7E
$GBGSV,3,2,11,14,47,182,47,21,40,052,20,33,23,198,51,12,21,111,36,1*7A
$GBGSV,3,3,11,28,15,303,,37,05,298,22,23,05,250,18,1*40
$GBGSV,2,1,05,43,74,334,19,42,66,141,47,34,50,107,43,33,23,198,42,5*79
$GBGSV,2,2,05,23,05,250,17,5*42
$GNGGA,000256.000,4000.584742,N,10514.619930,W,2,50,0.47,1606.175,M,-20.635,M,,*70
$GPGSV,4,1,13,29,87,206,34,05,56,047,,18,43,294,26,15,38,147,47,1*6A
$GPGSV,4,2,13,46,37,214,50,13,32,103,46,20,23,051,,23,22,227,48,1*6A
$GPGSV,4,3,13,26,19,300,16,25,16,204,51,11,07,084,28,16,04,328,19,1*68
$GPGSV,4,4,13,12,01,180,,1*5D
$GPGSV,1,1,04,23,22,227,42,26,19,300,17,25,16,204,49,11,07,084,20,8*62
$GLGSV,2,1,05,87,47,331,17,72,46,164,39,77,16,264,35,78,13,321,23,1*76
$GLGSV,2,2,05,76,02,223,,1*4D
$GAGSV,3,1,10,34,59,048,14,15,51,303,22,05,38,092,31,27,33,281,17,7*7D
$GAGSV,3,2,10,30,29,219,49,03,26,153,46,36,14,082,18,09,14,040,17,7*73
$GAGSV,3,3,10,21,07,327,17,13,05,277,25,7*74
$GAGSV,3,1,09,34,59,048,18,15,51,303,18,05,38,092,25,27,33,281,19,1*7D
$GAGSV,3,2,09,30,29,219,34,03,26,153,41,09,14,040,17,36,14,082,21,1*7A
$GAGSV,3,3,09,13,05,277,24,1*4F
$GBGSV,3,1,11,43,74,334,22,11,72,072,19,42,66,141,48,34,50,107,42,1*70
$GBGSV,3,2,11,14,47,182,48,21,40,052,,33,23,198,51,12,21,111,36,1*77
$GBGSV,3,3,11,28,15,303,,37,05,298,24,23,05,250,16,1*48
$GBGSV,2,1,06,43,74,334,20,42,66,141,47,34,50,107,43,33,23,198,42,5*70
$GBGSV,2,2,06,37,05,298,19,23,05,250,15,5*79
$GNGGA,000301.000,4000.584478,N,10514.619864,W,2,53,0.45,1606.479,M,-20.634,M,,*70
$GPGSV,4,1,13,29,87,206,35,05,56,047,29,18,43,294,21,15,38,147,47,1*67
$GPGSV,4,2,13,46,37,214,50,13,32,103,46,20,23,051,,23,22,227,48,1*6A
$GPGSV,4,3,13,26,19,300,22,25,16,204,51,11,07,084,29,16,04,328,15,1*62
$GPGSV,4,4,13,12,01,180,,1*5D
$GPGSV,2,1,05,18,43,294,20,23,22,227,42,26,19,300,16,25,16,204,48,8*6A
$GPGSV,2,2,05,11,07,084,19,8*5B
$GLGSV,2,1,05,87,47,331,21,72,46,164,42,77,16,264,35,78,13,321,24,1*78
$GLGSV,2,2,05,76,02,223,,1*4D
$GAGSV,3,1,10,34,59,048,25,15,51,303,22,05,38,092,32,27,33,280,19,7*73
$GAGSV,3,2,10,30,29,219,49,03,26,153,46,36,14,082,19,09,14,040,14,7*71
$GAGSV,3,3,10,21,07,327,17,13,05,277,23,7*72
$GAGSV,3,1,09,34,59,048,18,15,51,303,15,05,38,092,25,27,33,280,18,1*70
$GAGSV,3,2,09,30,29,219,33,03,26,153,41,09,14,040,18,36,14,082,22,1*71
$GAGSV,3,3,09,13,05,277,23,1*48
$GBGSV,3,1,12,43,74,334,18,11,72,072,23,42,66,141,48,34,50,107,43,1*72
$GBGSV,3,2,12,14,47,182,48,21,40,052,,33,23,198,51,12,21,111,36,1*74
$GBGSV,3,3,12,28,15,303,23,57,06,031,,37,05,298,17,23,05,250,17,1*7D
$GBGSV,2,1,06,43,74,334,20,42,66,141,47,34,50,107,43,33,23,198,42,5*70
$GBGSV,2,2,06,37,05,298,17,23,05,250,16,5*74
$GNGGA,000306.000,4000.584382,N,10514.619732,W,2,50,0.46,1606.522,M,-20.635,M,,*77
$GPGSV,4,1,13,29,87,206,36,05,56,047,,18,43,294,24,15,38,147,47,1*6A
$GPGSV,4,2,13,46,37,214,50,13,32,103,46,20,23,051,,23,22,227,48,1*6A
$GPGSV,4,3,13,26,19,300,25,25,16,204,51,11,07,084,,16,04,328,,1*6A
$GPGSV,4,4,13,12,01,180,,1*5D
$GPGSV,1,1,04,18,43,294,17,23,22,227,41,25,16,204,48,11,07,084,20,8*6E
$GLGSV,2,1,05,87,47,331,22,72,46,164,42,77,16,264,33,78,13,321,18,1*72
$GLGSV,2,2,05,76,02,223,,1*4D
$GAGSV,3,1,10,34,59,048,22,15,51,303,20,05,38,092,32,27,33,280,16,7*79
$GAGSV,3,2,10,30,28,219,49,03,26,153,46,36,14,082,18,09,14,040,12,7*77
$GAGSV,3,3,10,21,07,327,19,13,05,277,28,7*77
$GAGSV,3,1,09,34,59,048,18,05,38,092,23,27,33,280,17,30,28,219,31,1*7C
$GAGSV,3,2,09,03,26,153,41,36,14,082,23,09,14,040,17,21,07,327,18,1*76
$GAGSV,3,3,09,13,05,277,24,1*4F
$GBGSV,3,1,11,43,74,334,14,11,72,072,23,42,66,141,48,34,50,107,43,1*7D
$GBGSV,3,2,11,14,47,182,48,21,40,052,25,33,23,198,51,12,21,111,35,1*73
$GBGSV,3,3,11,28,15,303,22,37,05,298,18,23,05,250,16,1*47
$GBGSV,2,1,06,43,74,334,20,42,66,141,47,34,50,107,43,33,23,198,43,5*71
$GBGSV,2,2,06,23,05,250,15,37,05,298,17,5*77
$GNGGA,000311.000,4000.584304,N,10514.619774,W,2,47,0.46,1607.169,M,-20.635,M,,*71
$GPGSV,4,1,13,29,87,206,34,05,56,047,29,18,43,294,17,15,38,147,47,1*63
$GPGSV,4,2,13,46,37,214,50,13,32,103,46,20,23,051,,23,22,227,48,1*6A
$GPGSV,4,3,13,26,19,300,23,25,16,204,51,11,07,084,28,16,04,328,,1*66
$GPGSV,4,4,13,12,01,180,,1*5D
$GPGSV,1,1,04,23,22,227,41,26,19,300,13,25,16,204,48,11,07,084,21,8*65
$GLGSV,2,1,05,87,47,331,18,72,46,164,43,77,16,264,33,78,13,321,20,1*71
$GLGSV,2,2,05,76,02,223,,1*4D
$GAGSV,3,1,10,34,59,050,22,15,51,303,22,05,38,092,32,27,33,280,17,7*73
$GAGSV,3,2,10,30,28,219,49,03,26,153,46,09,14,040,13,36,13,083,16,7*7E
$GAGSV,3,3,10,21,07,327,20,13,05,277,23,7*76
$GAGSV,2,1,08,34,59,050,17,05,38,092,21,27,33,280,16,03,26,153,41,1*7D
$GAGSV,2,2,08,09,14,040,17,36,13,083,24,21,07,327,18,13,05,277,24,1*71
$GBGSV,3,1,11,43,74,334,,11,72,072,19,42,66,141,48,34,50,107,42,1*70
$GBGSV,3,2,11,14,47,182,48,21,40,052,,33,23,198,51,12,21,111,35,1*74
$GBGSV,3,3,11,28,15,303,,37,05,298,,23,05,250,17,1*4F
$GBGSV,2,1,06,43,74,334,20,42,66,141,47,34,50,107,43,33,23,198,42,5*70
$GBGSV,2,2,06,37,05,298,15,23,05,250,13,5*73
$GNGGA,000316.000,4000.584376,N,10514.620008,W,2,47,0.47,1607.805,M,-20.634,M,,*76
$GPGSV,4,1,13,29,87,206,33,05,56,047,,18,43,294,,15,38,147,48,1*66
$GPGSV,4,2,13,46,37,214,50,13,32,103,46,20,23,051,,23,22,227,48,1*6A
$GPGSV,4,3,13,26,19,300,22,25,16,204,51,11,07,084,29,16,04,328,,1*66
$GPGSV,4,4,13,12,01,180,,1*5D
$GPGSV,1,1,03,23,22,227,40,25,16,204,48,11,07,084,21,8*5E
$GLGSV,2,1,05,87,47,331,20,72,46,164,44,77,16,264,33,78,13,321,21,1*7C
$GLGSV,2,2,05,76,02,223,,1*4D
$GAGSV,3,1,10,34,59,050,27,15,51,303,18,05,38,092,32,27,33,280,24,7*7F
$GAGSV,3,2,10,30,28,219,49,03,26,153,46,09,14,040,15,36,13,083,20,7*7D
$GAGSV,3,3,10,21,07,327,20,13,05,277,27,7*72
$GAGSV,3,1,09,34,59,050,17,05,38,092,19,27,33,280,15,30,28,219,29,1*78
$GAGSV,3,2,09,03,26,153,41,09,14,040,17,36,13,083,26,21,07,327,17,1*7A
$GAGSV,3,3,09,13,05,277,23,1*48
$GBGSV,3,1,12,43,74,334,27,11,72,072,16,42,66,141,48,34,50,107,42,1*79
$GBGSV,3,2,12,14,47,182,48,21,40,052,23,33,23,198,51,12,21,111,35,1*76
$GBGSV,3,3,12,28,15,303,23,57,06,031,,37,05,298,,23,05,250,18,1*74
$GBGSV,2,1,05,43,74,334,20,42,66,141,47,34,50,107,43,33,23,198,42,5*73
$GBGSV,2,2,05,37,05,298,15,5*41
$GNGGA,000321.000,4000.584562,N,10514.620218,W,2,45,0.47,1608.245,M,-20.635,M,,*70
$GPGSV,4,1,13,29,87,206,34,05,56,047,,18,43,294,,15,38,147,48,1*61
$GPGSV,4,2,13,46,37,214,50,13,32,103,46,20,23,051,,23,22,227,48,1*6A
$GPGSV,4,3,13,26,19,300,18,25,16,204,51,11,07,084,25,16,04,328,,1*63
$GPGSV,4,4,13,12,01,180,,1*5D
$GPGSV,1,1,03,23,22,227,39,25,16,204,48,11,07,084,21,8*50
$GLGSV,2,1,05,72,48,164,44,87,47,331,17,77,16,264,32,78,13,321,27,1*71
$GLGSV,2,2,05,76,02,223,,1*4D
$GAGSV,3,1,10,34,59,050,21,15,51,303,18,05,38,092,33,27,33,280,27,7*7B
$GAGSV,3,2,10,30,28,219,49,03,26,153,46,09,14,040,15,36,13,083,23,7*7E
$GAGSV,3,3,10,21,07,327,19,13,05,277,27,7*78
$GAGSV,2,1,08,34,59,050,17,05,38,092,17,30,28,219,29,03,26,153,41,1*78
$GAGSV,2,2,08,09,14,040,16,36,13,083,26,21,07,327,13,13,05,277,20,1*7D
$GBGSV,3,1,11,43,74,334,25,11,72,072,16,42,66,141,48,34,50,107,38,1*75
$GBGSV,3,2,11,14,47,182,48,21,40,052,21,33,23,198,51,12,21,111,36,1*74
$GBGSV,3,3,11,28,15,303,,37,05,298,,23,05,250,14,1*4C
$GBGSV,2,1,05,43,74,334,20,42,66,141,47,34,50,107,42,21,40,052,17,5*73
$GBGSV,2,2,05,33,23,198,42,5*40
$GNGGA,000326.000,4000.584682,N,10514.620608,W,2,44,0.45,1609.150,M,-20.635,M,,*7A
$GPGSV,4,1,13,29,87,206,34,05,56,047,,18,43,294,,15,38,147,48,1*61
$GPGSV,4,2,13,46,37,214,50,13,32,103,46,20,23,051,,23,22,227,48,1*6A
$GPGSV,4,3,13,26,19,300,15,25,16,204,51,11,07,084,,16,04,328,,1*69
$GPGSV,4,4,13,12,01,180,,1*5D
$GPGSV,1,1,03,23,22,227,39,25,16,204,48,11,07,084,21,8*50
$GLGSV,2,1,05,72,48,164,45,87,47,331,17,77,15,262,33,78,13,320,29,1*7B
$GLGSV,2,2,05,76,01,222,,1*4F
$GAGSV,3,1,10,34,59,050,21,15,51,303,13,05,38,092,30,27,33,280,29,7*7D
$GAGSV,3,2,10,30,28,219,49,03,26,153,46,09,14,040,19,36,13,083,19,7*7B
$GAGSV,3,3,10,21,07,327,19,13,05,277,28,7*77
$GAGSV,2,1,07,34,59,050,18,05,38,092,16,30,28,219,29,03,26,153,41,1*79
$GAGSV,2,2,07,09,14,040,17,36,13,083,26,13,05,277,20,1*43
$GBGSV,3,1,12,43,74,334,,11,72,072,20,42,66,141,48,34,50,107,40,1*7B
$GBGSV,3,2,12,14,47,182,48,21,40,052,24,33,23,198,51,12,21,111,36,1*72
$GBGSV,3,3,12,28,15,303,26,57,06,031,,37,05,298,18,23,05,250,16,1*76
$GBGSV,2,1,05,43,74,334,20,42,66,141,47,34,50,107,42,21,40,052,20,5*77
$GBGSV,2,2,05,33,23,198,42,5*40
$GNGGA,000331.000,4000.584856,N,10514.620824,W,2,44,0.46,1609.563,M,-20.635,M,,*7C
$GPGSV,4,1,13,29,87,206,33,05,56,047,,18,43,294,,15,38,147,48,1*66
$GPGSV,4,2,13,46,37,214,50,13,32,103,46,20,23,051,,23,22,227,47,1*65
$GPGSV,4,3,13,26,19,300,26,25,16,204,51,11,07,084,30,16,04,328,,1*6A
$GPGSV,4,4,13,12,01,180,,1*5D
$GPGSV,1,1,03,23,22,227,38,25,16,204,48,11,07,084,20,8*50
$GLGSV,2,1,05,72,48,164,45,87,47,331,17,77,15,262,33,78,13,320,30,1*73
$GLGSV,2,2,05,76,01,222,,1*4F
$GAGSV,3,1,10,34,59,050,,15,51,303,15,05,38,092,,27,33,280,27,7*75
$GAGSV,3,2,10,30,28,219,49,03,26,153,46,09,14,040,23,36,13,083,16,7*7D
$GAGSV,3,3,10,21,07,327,,13,05,277,29,7*7E
$GAGSV,2,1,08,34,59,050,18,15,51,303,20,30,28,219,29,03,26,153,42,1*75
$GAGSV,2,2,08,09,14,040,17,36,13,083,26,21,07,327,17,13,05,277,20,1*78
$GBGSV,3,1,12,43,74,334,22,11,72,072,25,42,66,141,48,34,50,107,41,1*7F
$GBGSV,3,2,12,14,47,182,48,21,40,052,24,33,23,198,51,12,21,111,32,1*76
$GBGSV,3,3,12,28,15,303,15,37,05,298,,23,05,250,17,63,,,27,1*48
$GBGSV,2,1,06,43,74,334,19,42,66,141,47,34,50,107,42,21,40,052,21,5*7F
$GBGSV,2,2,06,33,23,198,42,37,05,298,18,5*78
$GNGGA,000336.000,4000.584748,N,10514.621088,W,2,43,0.46,1610.307,M,-20.635,M,,*7F
$GPGSV,4,1,13,29,87,206,35,05,56,047,,18,43,294,,15,38,147,48,1*60
$GPGSV,4,2,13,46,37,214,50,13,32,103,45,20,23,051,,23,22,227,47,1*66
$GPGSV,4,3,13,26,19,300,20,25,16,204,51,11,07,084,29,16,04,328,17,1*62
$GPGSV,4,4,13,12,01,180,,1*5D
$GPGSV,1,1,03,23,22,227,38,25,16,204,46,11,07,084,20,8*5E
$GLGSV,2,1,05,87,48,333,20,72,48,164,45,77,15,262,33,78,13,320,18,1*70
$GLGSV,2,2,05,76,01,222,,1*4F
$GAGSV,3,1,10,34,59,050,,15,51,303,15,05,38,092,26,27,33,280,15,7*70
$GAGSV,3,2,10,30,28,219,48,03,26,153,46,09,14,040,24,36,13,083,18,7*75
$GAGSV,3,3,10,21,07,327,16,13,05,277,30,7*71
$GAGSV,2,1,07,34,59,050,17,15,51,303,18,03,26,153,42,09,14,040,17,1*78
$GAGSV,2,2,07,36,13,083,26,21,07,327,19,13,05,277,20,1*47
$GBGSV,3,1,12,43,74,334,,11,72,072,23,42,66,141,48,34,50,107,41,1*79
$GBGSV,3,2,12,14,47,182,48,21,40,052,22,33,23,198,51,12,21,111,33,1*71
$GBGSV,3,3,12,28,15,303,,57,06,031,,37,05,298,,23,05,250,16,1*7B
$GBGSV,2,1,06,43,74,334,19,42,66,141,47,34,50,107,42,21,40,052,20,5*7E
$GBGSV,2,2,06,33,23,198,42,37,05,298,16,5*76
$GNGGA,000341.000,4000.584718,N,10514.621220,W,2,48,0.45,1610.608,M,-20.635,M,,*78
$GPGSV,4,1,13,29,87,206,36,05,56,047,,18,43,294,,15,38,147,48,1*63
$GPGSV,4,2,13,46,37,214,50,13,32,103,45,20,23,051,,23,22,227,47,1*66
$GPGSV,4,3,13,26,19,300,26,25,16,204,51,11,07,084,29,16,04,328,12,1*61
$GPGSV,4,4,13,12,01,180,,1*5D
$GPGSV,1,1,04,23,22,227,38,26,19,300,18,25,16,204,46,11,07,084,21,8*6E
$GLGSV,2,1,05,72,48,164,45,87,48,333,15,77,15,262,33,78,13,320,27,1*7A
$GLGSV,2,2,05,76,01,222,,1*4F
$GAGSV,3,1,10,34,59,050,17,15,51,303,19,05,38,092,28,27,33,280,15,7*74
$GAGSV,3,2,10,30,28,219,48,03,26,153,46,09,14,040,24,36,13,083,19,7*74
$GAGSV,3,3,10,21,07,327,16,13,05,277,29,7*79
$GAGSV,2,1,08,34,59,050,16,15,51,303,18,27,33,280,19,03,26,153,42,1*7F
$GAGSV,2,2,08,09,14,040,17,36,13,083,26,21,07,327,18,13,05,277,19,1*7D
$GBGSV,3,1,12,43,74,334,24,11,72,072,20,42,66,141,48,34,50,107,42,1*7F
$GBGSV,3,2,12,14,47,182,48,21,40,052,22,33,23,198,51,12,21,111,35,1*77
$GBGSV,3,3,12,28,15,303,28,37,05,298,,23,05,250,17,58,,,27,1*4E
$GBGSV,2,1,06,43,74,334,19,42,66,141,47,34,50,107,42,21,40,052,19,5*74
$GBGSV,2,2,06,33,23,198,42,37,05,298,17,5*77
$GNGGA,000346.000,4000.584754,N,10514.621082,W,2,50,0.45,1610.358,M,-20.634,M,,*75
$GPGSV,4,1,13,29,87,206,36,05,56,047,,18,43,294,28,15,38,147,48,1*69
$GPGSV,4,2,13,46,37,214,50,13,32,103,45,20,23,051,,23,22,227,47,1*66
$GPGSV,4,3,13,26,19,300,21,25,16,204,51,11,07,084,24,16,04,328,15,1*6C
$GPGSV,4,4,13,12,01,180,,1*5D
$GPGSV,1,1,04,23,22,227,38,26,19,300,15,25,16,204,46,11,07,084,21,8*63
$GLGSV,2,1,05,72,48,164,45,87,48,333,15,77,15,262,32,78,13,320,26,1*7A
$GLGSV,2,2,05,76,01,222,,1*4F
$GAGSV,3,1,10,34,59,050,,15,51,303,18,05,38,092,26,27,33,280,22,7*79
$GAGSV,3,2,10,30,28,219,47,03,26,153,46,09,14,040,21,36,13,083,20,7*74
$GAGSV,3,3,10,21,07,327,18,13,05,277,27,7*79
$GAGSV,3,1,10,34,59,050,16,15,51,303,18,05,38,092,20,27,33,280,18,1*77
$GAGSV,3,2,10,30,28,219,30,03,26,153,42,09,14,040,16,36,13,083,25,1*77
$GAGSV,3,3,10,21,07,327,15,13,05,277,19,1*7F
$GBGSV,4,1,13,43,74,334,25,11,71,076,,42,66,141,48,34,50,107,43,1*7C
$GBGSV,4,2,13,14,47,182,48,21,40,052,27,33,23,198,51,12,20,112,37,1*74
$GBGSV,4,3,13,28,15,303,31,57,06,031,,37,05,298,,23,05,250,15,1*7C
$GBGSV,4,4,13,58,,,26,1*7D
$GBGSV,2,1,06,43,74,334,20,42,66,141,47,34,50,107,42,21,40,052,18,5*7F
$GBGSV,2,2,06,33,23,198,42,37,05,298,17,5*77
$GNGGA,000351.000,4000.584886,N,10514.620980,W,2,46,0.45,1610.188,M,-20.634,M,,*71
$GPGSV,4,1,13,29,87,206,36,05,56,047,,18,43,294,24,15,38,147,49,1*64
$GPGSV,4,2,13,46,37,214,50,13,32,103,44,20,23,051,,23,22,227,47,1*67
$GPGSV,4,3,13,26,19,300,18,25,16,204,51,11,07,084,23,16,04,328,18,1*6C
$GPGSV,4,4,13,12,01,180,,1*5D
$GPGSV,1,1,04,23,22,227,39,26,19,300,16,25,16,204,45,11,07,084,20,8*63
$GLGSV,2,1,05,72,48,164,45,87,48,333,16,77,15,262,32,78,13,320,17,1*7B
$GLGSV,2,2,05,76,01,222,,1*4F
$GAGSV,3,1,10,34,59,050,25,15,51,303,17,05,38,092,29,27,33,280,23,7*7F
$GAGSV,3,2,10,30,28,219,47,03,26,153,46,09,14,040,15,36,13,083,16,7*76
$GAGSV,3,3,10,21,07,327,17,13,05,277,28,7*79
$GAGSV,2,1,06,05,38,092,21,27,33,280,13,03,26,153,42,09,14,040,16,1*72
$GAGSV,2,2,06,36,13,083,25,13,05,277,18,1*74
$GBGSV,4,1,13,43,74,334,21,11,71,076,,42,66,141,48,34,50,107,43,1*78
$GBGSV,4,2,13,14,48,182,48,21,40,052,,33,23,198,51,12,20,112,36,1*7F
$GBGSV,4,3,13,28,15,303,30,57,06,031,,37,05,298,,23,05,250,12,1*7A
$GBGSV,4,4,13,58,,,26,1*7D
$GBGSV,2,1,06,43,74,334,19,42,66,141,47,34,50,107,42,21,40,052,19,5*74
$GBGSV,2,2,06,33,23,198,42,37,05,298,16,5*76
$GNGGA,000356.000,4000.585000,N,10514.620998,W,2,45,0.45,1610.449,M,-20.634,M,,*73
$GPGSV,4,1,13,29,87,206,33,05,56,047,,18,43,294,19,15,38,147,49,1*6F
$GPGSV,4,2,13,46,37,214,50,13,32,103,44,20,23,051,,23,22,227,46,1*66
$GPGSV,4,3,13,26,19,300,18,25,16,204,51,11,07,084,33,16,04,328,22,1*64
$GPGSV,4,4,13,12,01,180,,1*5D
$GPGSV,1,1,04,23,22,227,39,26,19,300,15,25,16,204,44,11,07,084,20,8*61
$GLGSV,2,1,05,72,48,164,45,87,48,333,17,77,15,262,32,78,13,320,18,1*75
$GLGSV,2,2,05,76,01,222,,1*4F
$GAGSV,3,1,10,34,59,050,22,15,51,303,16,05,38,092,29,27,33,280,20,7*7A
$GAGSV,3,2,10,30,28,219,47,03,26,153,46,09,14,040,17,36,13,083,15,7*77
$GAGSV,3,3,10,21,07,327,18,13,05,277,28,7*76
$GAGSV,2,1,05,15,51,303,14,05,38,092,20,03,26,153,42,09,14,040,16,1*78
$GAGSV,2,2,05,36,13,083,24,1*4A
$GBGSV,3,1,12,43,74,334,,11,71,076,,42,66,141,48,34,50,107,43,1*7D
$GBGSV,3,2,12,14,48,182,48,21,39,051,27,33,23,198,51,12,20,112,35,1*72
$GBGSV,3,3,12,28,15,303,17,37,05,298,28,23,05,250,11,58,,,26,1*4F
$GBGSV,2,1,06,43,74,334,19,42,66,141,47,34,50,107,42,21,39,051,19,5*79
$GBGSV,2,2,06,33,23,198,42,37,05,298,16,5*76
$GNGGA,000401.000,4000.585078,N,10514.621052,W,2,47,0.46,1610.666,M,-20.634,M,,*79
$GPGSV,4,1,13,29,87,206,35,05,56,047,,18,43,294,24,15,38,147,49,1*67
$GPGSV,4,2,13,46,37,214,50,13,32,103,44,20,23,051,,23,22,227,46,1*66
$GPGSV,4,3,13,26,19,300,16,25,16,204,51,11,07,084,33,16,04,328,18,1*63
$GPGSV,4,4,13,12,01,180,,1*5D
$GPGSV,1,1,04,23,22,227,39,26,19,300,15,25,16,204,44,11,07,084,20,8*61
$GLGSV,2,1,05,72,48,164,45,87,48,333,16,77,15,262,30,78,13,320,20,1*7D
$GLGSV,2,2,05,76,01,222,,1*4F
$GAGSV,3,1,10,34,59,050,,15,51,303,14,05,38,092,28,27,33,280,16,7*7C
$GAGSV,3,2,10,30,28,219,47,03,26,153,46,09,14,040,21,36,13,083,17,7*70
$GAGSV,3,3,10,21,07,327,13,13,05,277,24,7*71
$GAGSV,2,1,08,34,59,050,17,05,38,092,18,27,33,280,18,30,28,219,30,1*7C
$GAGSV,2,2,08,03,26,153,42,09,14,040,16,36,13,083,23,13,05,277,23,1*7D
$GBGSV,3,1,12,43,74,334,24,11,71,076,,42,66,141,48,34,50,107,43,1*7B
$GBGSV,3,2,12,14,48,182,48,21,39,051,,33,23,198,51,12,20,112,32,1*70
$GBGSV,3,3,12,28,15,303,24,37,05,298,24,23,04,249,16,58,,,26,1*4D
$GBGSV,2,1,06,43,74,334,19,42,66,141,47,34,50,107,42,21,39,051,21,5*72
$GBGSV,2,2,06,33,23,198,42,37,05,298,16,5*76
$GNGGA,000406.000,4000.585270,N,10514.621208,W,2,46,0.46,1610.815,M,-20.634,M,,*72
$GPGSV,4,1,13,29,87,206,35,05,56,047,,18,43,294,23,15,38,147,49,1*60
$GPGSV,4,2,13,46,37,214,50,13,32,103,44,20,23,051,,23,22,227,46,1*66
$GPGSV,4,3,13,26,19,300,16,25,16,204,51,11,07,084,32,16,04,328,,1*6B
$GPGSV,4,4,13,12,01,180,,1*5D
$GPGSV,1,1,03,23,22,227,38,25,16,204,43,11,07,084,20,8*5B
$GLGSV,2,1,05,72,48,164,45,87,48,333,19,77,15,262,30,78,13,320,20,1*72
$GLGSV,2,2,05,76,01,222,,1*4F
$GAGSV,3,1,10,34,59,050,20,15,51,303,25,05,38,092,25,27,33,280,17,7*70
$GAGSV,3,2,10,30,28,219,47,03,26,153,46,09,14,040,22,36,13,083,16,7*72
$GAGSV,3,3,10,21,07,327,12,13,05,277,24,7*70
$GAGSV,2,1,07,34,59,050,17,27,33,280,18,30,28,219,33,03,26,153,42,1*7A
$GAGSV,2,2,07,09,14,040,16,36,13,083,23,13,05,277,22,1*45
$GBGSV,4,1,13,43,74,334,,11,71,076,27,42,66,141,48,34,50,107,43,1*7E
$GBGSV,4,2,13,14,48,182,48,21,39,051,20,33,23,198,51,12,20,112,35,1*73
$GBGSV,4,3,13,28,16,303,20,57,06,031,,37,05,298,19,23,04,249,17,1*7C
$GBGSV,4,4,13,58,,,26,1*7D
$GBGSV,2,1,06,43,74,334,20,42,66,141,47,34,50,107,42,21,39,051,21,5*78
$GBGSV,2,2,06,33,23,198,42,37,05,298,15,5*75
$GNGGA,000411.000,4000.585348,N,10514.621238,W,2,46,0.46,1610.610,M,-20.635,M,,*77
$GPGSV,4,1,13,29,87,206,34,05,56,047,,18,43,294,25,15,38,147,49,1*67
$GPGSV,4,2,13,46,37,214,50,13,32,103,44,20,23,051,,23,22,227,46,1*66
$GPGSV,4,3,13,26,19,300,,25,16,204,51,11,07,084,30,16,04,328,22,1*6E
$GPGSV,4,4,13,12,01,180,,1*5D
$GPGSV,1,1,04,23,22,227,36,26,19,300,17,25,16,204,43,11,07,084,20,8*6B
$GLGSV,2,1,05,87,48,333,21,72,48,164,45,77,15,262,30,78,13,320,15,1*7F
$GLGSV,2,2,05,76,01,222,,1*4F
$GAGSV,3,1,10,34,59,050,17,15,51,303,25,05,38,092,22,27,33,280,23,7*74
$GAGSV,3,2,10,30,28,219,47,03,26,153,46,09,14,040,24,36,13,083,11,7*73
$GAGSV,3,3,10,21,07,327,12,13,05,277,24,7*70
$GAGSV,2,1,07,34,59,050,18,27,33,280,19,30,28,219,33,03,26,153,42,1*74
$GAGSV,2,2,07,09,14,040,16,36,13,083,23,13,05,277,23,1*44
$GBGSV,3,1,12,43,74,334,,11,71,076,26,42,66,141,48,34,49,109,44,1*78
$GBGSV,3,2,12,14,48,182,48,21,39,051,17,33,24,198,51,12,20,112,35,1*76
$GBGSV,3,3,12,28,16,303,,57,06,031,,37,05,297,19,23,04,249,17,1*77
$GBGSV,2,1,07,43,74,334,21,42,66,141,47,34,49,109,42,21,39,051,21,5*7E
$GBGSV,2,2,07,33,24,198,43,28,16,303,22,37,05,297,14,5*41
$GNGGA,000416.000,4000.585360,N,10514.621088,W,2,50,0.46,1610.347,M,-20.635,M,,*73
$GPGSV,4,1,13,29,87,206,34,05,56,047,,18,43,294,20,15,38,147,49,1*62
$GPGSV,4,2,13,46,37,214,50,13,32,103,44,20,23,051,,23,22,227,45,1*65
$GPGSV,4,3,13,26,19,300,,25,16,204,51,11,07,084,24,16,04,328,,1*6B
$GPGSV,4,4,13,12,01,180,,1*5D
$GPGSV,2,1,05,18,43,294,19,23,22,227,35,26,19,300,17,25,16,204,43,8*6A
$GPGSV,2,2,05,11,07,084,19,8*5B
$GLGSV,2,1,05,87,48,333,23,72,48,164,45,77,15,262,30,78,13,320,17,1*7F
$GLGSV,2,2,05,76,01,222,,1*4F
$GAGSV,3,1,10,34,59,050,18,15,51,303,23,05,38,092,28,27,33,280,22,7*76
$GAGSV,3,2,10,30,28,219,47,03,26,153,46,09,14,040,21,36,13,083,15,7*72
$GAGSV,3,3,10,21,07,327,17,13,05,277,21,7*70
$GAGSV,2,1,08,34,59,050,16,05,38,092,20,27,33,280,18,30,28,219,33,1*75
$GAGSV,2,2,08,03,26,153,42,09,14,040,16,36,13,083,23,13,05,277,22,1*7C
$GBGSV,3,1,12,43,74,334,20,11,71,076,19,42,67,139,48,34,49,109,44,1*78
$GBGSV,3,2,12,14,48,182,48,21,39,051,25,33,24,198,51,12,20,112,36,1*74
$GBGSV,3,3,12,28,16,303,20,57,06,031,,37,05,297,15,23,04,249,12,1*7C
$GBGSV,2,1,06,43,74,334,20,42,67,139,47,34,49,109,42,21,39,051,20,5*71
$GBGSV,2,2,06,33,24,198,43,28,16,303,18,5*71
$GNGGA,000421.000,4000.585318,N,10514.620986,W,2,51,0.46,1610.079,M,-20.635,M,,*71
