$PAIR001,062,0*3F
$PAIR001,062,0*3F
$PAIR001,062,0*3F
$PAIR001,062,0*3F
$PAIR001,062,0*3F
$PAIR001,062,0*3F
$PAIR001,062,0*3F
$PAIR001,062,0*3F
$PAIR001,062,0*3F
$GNGGA,065637.000,4005.098950,N,10513.207734,W,2,61,0.41,1585.551,M,-20.669,M,,*71
$GPGSV,3,1,11,28,69,152,43,32,57,045,34,21,47,271,44,10,43,112,47,1*64
$GPGSV,3,2,11,31,42,190,48,02,40,292,40,46,37,214,45,25,18,082,23,1*6B
$GPGSV,3,3,11,03,10,306,30,12,09,053,32,23,08,121,40,1*52
$GPGSV,2,1,06,28,69,152,45,32,57,045,31,10,43,112,46,25,18,082,39,8*62
$GPGSV,2,2,06,03,10,306,38,23,08,121,37,8*68
$GLGSV,3,1,09,68,54,335,33,67,41,056,40,83,39,242,33,77,36,059,33,1*76
$GLGSV,3,2,09,78,33,135,47,84,27,320,26,69,18,288,44,82,14,203,48,1*71
$GLGSV,3,3,09,76,08,022,39,1*42
$GAGSV,3,1,10,07,54,048,39,33,52,283,41,26,45,201,46,30,18,089,32,7*75
$GAGSV,3,2,10,19,18,259,41,12,11,326,29,27,09,139,39,02,08,040,36,7*70
$GAGSV,3,3,10,08,06,067,35,13,04,166,48,7*70
$GAGSV,3,1,10,07,54,048,31,33,52,283,38,26,45,201,44,30,18,089,38,1*7D
$GAGSV,3,2,10,19,18,259,28,12,11,326,28,27,09,139,37,02,08,040,32,1*72
$GAGSV,3,3,10,08,06,067,32,13,04,166,42,1*7B
$GBGSV,4,1,13,41,58,066,42,32,52,309,26,25,42,079,40,31,38,149,21,1*7A
$GBGSV,4,2,13,23,38,150,48,30,24,270,45,27,17,219,51,33,12,094,24,1*74
$GBGSV,4,3,13,29,08,322,37,24,07,035,40,37,03,189,51,20,03,285,,1*79
$GBGSV,4,4,13,63,,,29,1*7A
$GBGSV,3,1,10,41,58,066,35,32,52,309,23,25,42,079,42,23,38,150,46,5*77
$GBGSV,3,2,10,30,24,270,31,27,17,219,38,33,12,094,35,29,08,322,31,5*78
$GBGSV,3,3,10,24,07,035,35,37,03,189,41,5*70
$GNGGA,065642.000,4005.099004,N,10513.207758,W,2,61,0.41,1585.514,M,-20.670,M,,*79
$GPGSV,3,1,11,28,69,152,43,32,57,045,35,21,47,271,44,10,43,112,46,1*64
$GPGSV,3,2,11,31,42,190,48,02,40,291,39,46,37,214,45,25,18,082,22,1*67
$GPGSV,3,3,11,03,11,306,30,12,09,053,31,23,08,121,41,1*51
$GPGSV,2,1,06,28,69,152,43,32,57,045,28,10,43,112,44,25,18,082,37,8*60
$GPGSV,2,2,06,03,11,306,34,23,08,121,34,8*66
$GLGSV,3,1,09,68,54,335,33,67,41,056,40,83,39,242,33,77,36,059,33,1*76
$GLGSV,3,2,09,78,33,135,47,84,27,320,26,69,18,288,43,82,14,203,48,1*76
$GLGSV,3,3,09,76,08,022,39,1*42
$GAGSV,3,1,10,07,54,048,39,33,52,283,41,26,45,201,46,19,18,259,41,7*75
$GAGSV,3,2,10,30,18,089,33,12,11,326,29,27,09,139,39,02,08,040,35,7*72
$GAGSV,3,3,10,08,06,067,35,13,04,166,48,7*70
$GAGSV,3,1,10,07,54,048,29,33,52,283,36,26,45,201,41,30,18,089,36,1*71
$GAGSV,3,2,10,19,18,259,25,12,11,326,26,27,09,139,35,02,08,040,30,1*71
$GAGSV,3,3,10,08,06,067,30,13,04,166,40,1*7B
$GBGSV,3,1,12,41,58,066,42,32,52,309,27,25,42,079,40,23,38,150,48,1*79
$GBGSV,3,2,12,31,38,149,21,30,24,270,45,27,17,219,51,33,12,094,24,1*76
$GBGSV,3,3,12,29,08,322,38,24,07,035,40,20,03,285,,37,03,189,51,1*70
$GBGSV,3,1,10,41,58,066,33,32,52,309,23,25,42,079,40,23,38,150,44,5*71
$GBGSV,3,2,10,30,24,270,29,27,17,219,36,33,12,094,32,29,08,322,30,5*79
$GBGSV,3,3,10,24,07,035,34,37,03,189,40,5*70
$GNGGA,065647.000,4005.099046,N,10513.207824,W,2,61,0.41,1585.441,M,-20.669,M,,*77
$GPGSV,3,1,11,28,69,152,43,32,57,045,35,21,47,271,44,31,42,190,48,1*62
$GPGSV,3,2,11,10,42,113,46,02,40,291,38,46,37,214,45,25,18,082,20,1*62
$GPGSV,3,3,11,03,11,306,30,12,09,053,32,23,08,121,41,1*52
$GPGSV,2,1,06,28,69,152,44,32,57,045,30,10,42,113,46,25,18,082,39,8*62
$GPGSV,2,2,06,03,11,306,34,23,08,121,37,8*65
$GLGSV,3,1,09,68,54,335,34,67,41,056,40,83,39,242,33,77,36,059,33,1*71
$GLGSV,3,2,09,78,33,135,47,84,27,320,27,69,18,288,43,82,14,203,48,1*77
$GLGSV,3,3,09,76,08,022,39,1*42
$GAGSV,3,1,10,07,54,048,39,33,52,283,41,26,45,201,46,19,18,259,41,7*75
$GAGSV,3,2,10,30,18,089,34,12,11,326,29,27,09,139,38,02,08,040,35,7*74
$GAGSV,3,3,10,08,06,067,35,13,04,166,48,7*70
$GAGSV,3,1,10,07,54,048,31,33,52,283,37,26,45,201,43,30,18,089,38,1*75
$GAGSV,3,2,10,19,18,259,28,12,11,326,29,27,09,139,37,02,08,040,32,1*73
$GAGSV,3,3,10,08,06,067,31,13,04,166,42,1*78
$GBGSV,3,1,11,41,58,066,42,32,52,309,28,25,42,079,39,31,38,149,21,1*7F
$GBGSV,3,2,11,23,38,150,48,30,24,270,45,27,17,219,51,33,12,094,24,1*71
$GBGSV,3,3,11,29,08,322,38,24,07,035,40,37,03,189,51,1*4D
$GBGSV,3,1,10,41,58,066,36,32,52,309,25,25,42,079,42,23,38,150,46,5*72
$GBGSV,3,2,10,30,24,270,31,27,17,219,39,33,12,094,35,29,08,322,33,5*7B
$GBGSV,3,3,10,24,07,035,36,37,03,189,42,5*70
$GNGGA,065652.000,4005.099046,N,10513.207896,W,2,61,0.41,1585.295,M,-20.670,M,,*7D
$GPGSV,3,1,11,28,69,152,43,32,57,045,35,21,47,271,44,31,42,190,48,1*62
$GPGSV,3,2,11,10,42,113,46,02,40,291,38,46,37,214,45,25,18,082,18,1*69
$GPGSV,3,3,11,03,11,306,30,12,09,052,31,23,08,121,41,1*50
$GPGSV,2,1,06,28,69,152,45,32,57,045,31,10,42,113,47,25,18,082,40,8*6D
$GPGSV,2,2,06,03,11,306,33,23,08,121,37,8*62
$GLGSV,3,1,09,68,54,335,33,67,41,056,40,83,39,242,33,77,36,059,34,1*71
$GLGSV,3,2,09,78,33,135,47,84,27,320,26,69,18,288,43,82,14,203,48,1*76
$GLGSV,3,3,09,76,08,022,39,1*42
$GAGSV,3,1,10,07,54,048,39,33,52,283,41,26,45,201,46,19,18,259,41,7*75
$GAGSV,3,2,10,30,18,089,34,12,11,326,29,27,09,139,39,02,08,040,35,7*75
$GAGSV,3,3,10,08,06,067,35,13,04,166,48,7*70
$GAGSV,3,1,10,07,54,048,32,33,52,283,38,26,45,201,44,30,18,089,38,1*7E
$GAGSV,3,2,10,19,18,259,28,12,11,326,30,27,09,139,37,02,08,040,32,1*7B
$GAGSV,3,3,10,08,06,067,31,13,04,166,42,1*78
$GBGSV,3,1,12,41,58,066,42,32,52,309,30,25,42,079,39,23,38,150,48,1*71
$GBGSV,3,2,12,31,38,149,21,30,24,270,45,27,17,219,51,33,12,094,27,1*75
$GBGSV,3,3,12,29,08,322,39,24,07,035,39,20,03,285,,37,03,189,51,1*7F
$GBGSV,3,1,10,41,58,066,36,32,52,309,27,25,42,079,43,23,38,150,46,5*71
$GBGSV,3,2,10,30,24,270,32,27,17,219,39,33,12,094,35,29,08,322,33,5*78
$GBGSV,3,3,10,24,07,035,36,37,03,189,42,5*70
$GNGGA,065657.000,4005.099112,N,10513.207836,W,2,61,0.41,1585.141,M,-20.670,M,,*78
$GPGSV,3,1,11,28,69,152,43,32,57,045,35,21,47,269,44,31,42,190,48,1*6B
$GPGSV,3,2,11,10,42,113,46,02,40,291,38,46,37,214,45,25,18,082,18,1*69
$GPGSV,3,3,11,03,11,306,30,12,09,052,31,23,08,121,43,1*52
$GPGSV,2,1,06,28,69,152,45,32,57,045,31,10,42,113,47,25,18,082,39,8*63
$GPGSV,2,2,06,03,11,306,31,23,08,121,36,8*61
$GLGSV,3,1,09,68,54,335,31,67,41,056,40,83,39,242,33,77,36,059,33,1*74
$GLGSV,3,2,09,78,33,135,47,84,27,320,27,69,18,288,42,82,14,203,48,1*76
$GLGSV,3,3,09,76,08,022,39,1*42
$GAGSV,3,1,10,07,54,048,39,33,52,283,41,26,45,201,46,19,18,259,41,7*75
$GAGSV,3,2,10,30,18,089,34,12,11,326,28,27,09,139,39,02,08,040,35,7*74
$GAGSV,3,3,10,08,06,067,34,13,04,166,48,7*71
$GAGSV,3,1,10,07,54,048,32,33,52,283,38,26,45,201,44,30,18,089,38,1*7E
$GAGSV,3,2,10,19,18,259,28,12,11,326,30,27,09,139,37,02,08,040,31,1*78
$GAGSV,3,3,10,08,06,067,31,13,04,166,41,1*7B
$GBGSV,3,1,12,41,58,066,42,32,52,309,30,25,42,079,40,23,38,150,48,1*7F
$GBGSV,3,2,12,31,38,149,21,30,24,270,45,27,17,219,51,33,12,094,27,1*75
$GBGSV,3,3,12,29,08,322,40,24,07,035,39,20,03,285,,37,03,189,51,1*71
$GBGSV,3,1,10,41,58,066,36,32,52,309,27,25,42,079,43,23,38,150,46,5*71
$GBGSV,3,2,10,30,24,270,32,27,17,219,39,33,12,094,34,29,08,322,33,5*79
$GBGSV,3,3,10,24,07,035,36,37,03,189,42,5*70
$GNGGA,065702.000,4005.099124,N,10513.207734,W,2,61,0.41,1585.029,M,-20.670,M,,*7E
$GPGSV,3,1,11,28,69,152,43,32,57,045,35,21,47,269,44,31,42,190,49,1*6A
$GPGSV,3,2,11,10,42,113,46,02,40,291,39,46,37,214,45,25,18,080,17,1*65
$GPGSV,3,3,11,03,11,306,30,12,09,052,34,23,07,121,43,1*58
$GPGSV,2,1,06,28,69,152,45,32,57,045,30,10,42,113,47,25,18,080,39,8*60
$GPGSV,2,2,06,03,11,306,30,23,07,121,35,8*6C
$GLGSV,3,1,09,68,54,335,31,67,41,056,40,83,39,242,33,77,36,059,32,1*75
$GLGSV,3,2,09,78,33,135,47,84,27,320,27,69,18,288,43,82,14,203,47,1*78
$GLGSV,3,3,09,76,08,022,39,1*42
$GAGSV,3,1,10,07,54,048,39,33,52,283,41,26,45,201,46,30,18,089,34,7*73
$GAGSV,3,2,10,19,18,259,41,12,11,326,27,27,09,139,39,02,08,040,35,7*7D
$GAGSV,3,3,10,08,06,067,34,13,04,166,48,7*71
$GAGSV,3,1,10,07,54,048,31,33,52,283,38,26,45,201,44,30,18,089,38,1*7D
$GAGSV,3,2,10,19,18,259,27,12,11,326,30,27,09,139,36,02,08,040,31,1*76
$GAGSV,3,3,10,08,06,067,30,13,04,166,41,1*7A
$GBGSV,3,1,12,41,58,066,42,32,52,309,31,25,42,079,40,31,38,149,22,1*79
$GBGSV,3,2,12,23,38,150,48,30,24,270,45,27,17,219,51,33,12,094,26,1*70
$GBGSV,3,3,12,29,08,322,40,24,07,035,38,20,03,285,,37,03,189,51,1*70
$GBGSV,3,1,10,41,58,066,36,32,52,309,27,25,42,079,43,23,38,150,46,5*71
$GBGSV,3,2,10,30,24,270,32,27,17,219,39,33,12,094,35,29,08,322,33,5*78
$GBGSV,3,3,10,24,07,035,36,37,03,189,43,5*71
$GNGGA,065707.000,4005.099100,N,10513.207620,W,2,60,0.41,1584.948,M,-20.670,M,,*77
$GPGSV,3,1,12,28,70,150,43,32,57,045,33,21,47,269,44,31,44,190,49,1*63
$GPGSV,3,2,12,10,42,113,46,02,40,291,40,46,37,214,45,25,18,080,20,1*6C
$GPGSV,3,3,12,03,11,306,30,12,09,052,34,23,07,121,43,26,01,167,52,1*69
$GPGSV,2,1,07,28,70,150,45,32,57,045,30,10,42,113,47,25,18,080,39,8*6B
$GPGSV,2,2,07,03,11,306,32,23,07,121,35,26,01,167,48,8*56
$GLGSV,3,1,09,68,54,335,28,67,41,056,40,83,39,242,31,77,36,059,33,1*7E
$GLGSV,3,2,09,78,33,135,47,84,27,320,27,69,18,288,43,82,14,203,46,1*79
$GLGSV,3,3,09,76,08,022,38,1*43
$GAGSV,3,1,10,07,54,048,39,33,52,283,40,26,45,201,46,19,18,259,41,7*74
$GAGSV,3,2,10,30,18,089,36,12,11,326,26,27,09,139,38,02,08,040,35,7*79
$GAGSV,3,3,10,08,06,067,33,13,04,166,48,7*76
$GAGSV,3,1,10,07,54,048,31,33,52,283,38,26,45,201,44,30,18,089,38,1*7D
$GAGSV,3,2,10,19,18,259,27,12,11,326,31,27,09,139,36,02,08,040,31,1*77
$GAGSV,3,3,10,08,06,067,29,13,04,166,41,1*72
$GBGSV,4,1,13,41,58,066,41,32,52,309,31,25,42,079,40,31,38,149,22,1*7C
$GBGSV,4,2,13,23,38,150,48,30,24,270,45,27,17,219,51,33,12,094,28,1*78
$GBGSV,4,3,13,29,08,322,40,24,07,035,37,37,03,189,51,20,03,285,,1*79
$GBGSV,4,4,13,63,,,30,1*72
$GBGSV,3,1,10,41,58,066,37,32,52,309,28,25,42,079,43,23,38,150,46,5*7F
$GBGSV,3,2,10,30,24,270,32,27,17,219,39,33,12,094,36,29,08,322,33,5*7B
$GBGSV,3,3,10,24,07,035,36,37,03,189,44,5*76
$GNGGA,065712.000,4005.099094,N,10513.207590,W,2,60,0.41,1584.998,M,-20.670,M,,*7A
$GPGSV,3,1,12,28,70,150,43,32,56,047,32,21,47,269,44,31,44,190,49,1*61
$GPGSV,3,2,12,10,42,113,45,02,40,291,40,46,37,214,45,25,18,080,17,1*6B
$GPGSV,3,3,12,03,11,306,31,12,09,052,34,23,07,121,43,26,01,167,52,1*68
$GPGSV,2,1,07,28,70,150,45,32,56,047,31,10,42,113,47,25,18,080,39,8*69
$GPGSV,2,2,07,03,11,306,35,23,07,121,35,26,01,167,48,8*51
$GLGSV,3,1,09,68,54,335,28,67,41,056,41,83,39,242,31,77,36,059,33,1*7F
$GLGSV,3,2,09,78,33,135,47,84,27,320,26,69,18,288,43,82,14,203,47,1*79
$GLGSV,3,3,09,76,08,022,36,1*4D
$GAGSV,3,1,10,07,54,048,39,33,52,283,40,26,45,201,46,19,18,259,41,7*74
$GAGSV,3,2,10,30,18,089,37,12,11,326,26,27,09,139,38,02,08,040,35,7*78
$GAGSV,3,3,10,08,06,067,33,13,04,166,48,7*76
$GAGSV,3,1,10,07,54,048,32,33,52,283,39,26,45,201,44,30,18,089,38,1*7F
$GAGSV,3,2,10,19,18,259,27,12,11,326,32,27,09,139,36,02,08,040,32,1*77
$GAGSV,3,3,10,08,06,067,28,13,04,166,41,1*73
$GBGSV,4,1,13,41,58,066,39,32,52,309,31,25,42,079,40,31,38,149,22,1*73
$GBGSV,4,2,13,23,38,150,48,30,24,270,45,27,17,219,51,33,12,094,29,1*79
$GBGSV,4,3,13,29,08,322,41,24,07,035,36,37,03,189,51,20,03,285,,1*79
$GBGSV,4,4,13,63,,,29,1*7A
$GBGSV,3,1,10,41,58,066,37,32,52,309,29,25,42,079,43,23,38,150,47,5*7F
$GBGSV,3,2,10,30,24,270,33,27,17,219,40,33,12,094,37,29,08,322,34,5*72
$GBGSV,3,3,10,24,07,035,37,37,03,189,45,5*76
$GNGGA,065717.000,4005.099118,N,10513.207626,W,2,60,0.41,1585.066,M,-20.670,M,,*7D
$GPGSV,3,1,12,28,70,150,43,32,56,047,32,21,47,269,44,31,44,190,49,1*61
$GPGSV,3,2,12,10,42,113,45,02,40,291,39,46,37,214,45,25,18,080,16,1*64
$GPGSV,3,3,12,03,11,306,33,12,09,052,34,23,07,121,44,26,01,167,52,1*6D
$GPGSV,2,1,07,28,70,150,45,32,56,047,31,10,42,113,47,25,18,080,40,8*67
$GPGSV,2,2,07,03,11,306,36,23,07,121,35,26,01,167,48,8*52
$GLGSV,3,1,09,68,54,335,26,67,41,056,41,83,39,242,31,77,36,059,34,1*76
$GLGSV,3,2,09,78,33,135,47,84,27,320,26,69,18,288,43,82,14,203,47,1*79
$GLGSV,3,3,09,76,08,022,34,1*4F
$GAGSV,3,1,10,07,54,048,39,33,52,283,40,26,45,201,46,30,18,089,37,7*71
$GAGSV,3,2,10,19,18,259,41,12,11,326,26,27,09,139,38,02,07,039,35,7*7C
$GAGSV,3,3,10,08,06,067,34,13,04,166,48,7*71
$GAGSV,3,1,10,07,54,048,32,33,52,283,39,26,45,201,44,30,18,089,38,1*7F
$GAGSV,3,2,10,19,18,259,27,12,11,326,32,27,09,139,36,02,07,039,32,1*76
$GAGSV,3,3,10,08,06,067,28,13,04,166,40,1*72
$GBGSV,4,1,13,41,58,066,39,32,52,309,32,25,42,079,40,31,38,149,22,1*70
$GBGSV,4,2,13,23,38,150,48,30,24,270,45,27,17,219,51,33,12,094,29,1*79
$GBGSV,4,3,13,29,08,322,41,24,07,035,34,37,03,189,51,20,03,285,21,1*78
$GBGSV,4,4,13,63,,,29,1*7A
$GBGSV,3,1,10,41,58,066,37,32,52,309,29,25,42,079,43,23,38,150,47,5*7F
$GBGSV,3,2,10,30,24,270,33,27,17,219,40,33,12,094,37,29,08,322,34,5*72
$GBGSV,3,3,10,24,07,035,37,37,03,189,45,5*76
$GNGGA,065722.000,4005.099166,N,10513.207668,W,2,60,0.41,1585.164,M,-20.670,M,,*7B
$GPGSV,3,1,12,28,70,150,43,32,56,047,32,21,47,269,44,31,44,190,49,1*61
$GPGSV,3,2,12,10,42,113,45,02,40,291,38,46,37,214,45,25,18,080,17,1*64
$GPGSV,3,3,12,03,11,306,33,12,09,052,33,23,07,121,44,26,01,167,51,1*69
$GPGSV,2,1,07,28,70,150,45,32,56,047,31,10,42,113,47,25,18,080,40,8*67
$GPGSV,2,2,07,03,11,306,37,23,07,121,34,26,01,167,48,8*52
$GLGSV,3,1,09,68,54,335,25,67,41,056,41,83,39,242,31,77,36,059,34,1*75
$GLGSV,3,2,09,78,33,135,47,84,27,320,28,69,18,288,43,82,14,203,46,1*76
$GLGSV,3,3,09,76,08,022,34,1*4F
$GAGSV,3,1,10,07,53,049,38,33,52,283,40,26,45,201,46,30,18,089,37,7*76
$GAGSV,3,2,10,19,18,259,41,12,11,326,26,27,09,139,38,02,07,039,35,7*7C
$GAGSV,3,3,10,08,06,067,34,13,04,166,48,7*71
$GAGSV,3,1,10,07,53,049,31,33,52,283,38,26,45,201,44,30,18,089,38,1*7B
$GAGSV,3,2,10,19,18,259,27,12,11,326,32,27,09,139,36,02,07,039,32,1*76
$GAGSV,3,3,10,08,06,067,28,13,04,166,40,1*72
$GBGSV,4,1,13,41,58,066,39,32,52,309,32,25,42,079,40,31,38,149,22,1*70
$GBGSV,4,2,13,23,38,150,48,30,24,270,45,27,17,219,51,33,12,094,29,1*79
$GBGSV,4,3,13,29,08,322,41,24,07,035,34,37,03,189,51,20,03,285,18,1*72
$GBGSV,4,4,13,63,,,30,1*72
$GBGSV,3,1,10,41,58,066,36,32,52,309,29,25,42,079,43,23,38,150,47,5*7E
$GBGSV,3,2,10,30,24,270,32,27,17,219,40,33,12,094,37,29,08,322,34,5*73
$GBGSV,3,3,10,24,07,035,37,37,03,189,45,5*76
$GNGGA,065727.000,4005.099172,N,10513.207668,W,2,60,0.41,1585.190,M,-20.670,M,,*70
$GPGSV,3,1,12,28,70,150,43,32,56,047,32,21,47,269,44,31,44,190,49,1*61
$GPGSV,3,2,12,10,42,113,45,02,40,291,38,46,37,214,45,25,18,080,22,1*62
$GPGSV,3,3,12,03,11,306,32,12,09,052,33,23,07,121,44,26,01,167,51,1*68
$GPGSV,2,1,07,28,70,150,45,32,56,047,31,10,42,113,47,25,18,080,40,8*67
$GPGSV,2,2,07,03,11,306,38,23,07,121,34,26,01,167,48,8*5D
$GLGSV,3,1,09,68,54,335,28,67,41,056,41,83,39,242,30,77,36,059,34,1*79
$GLGSV,3,2,09,78,33,135,47,84,27,320,28,69,18,288,44,82,14,203,45,1*72
$GLGSV,3,3,09,76,08,022,33,1*48
$GAGSV,3,1,10,07,53,049,38,33,52,283,40,26,45,201,46,19,18,259,41,7*73
$GAGSV,3,2,10,30,18,089,37,12,12,325,26,27,09,139,38,02,07,039,35,7*79
$GAGSV,3,3,10,08,05,068,36,13,04,166,48,7*7F
$GAGSV,3,1,10,07,53,049,31,33,52,283,38,26,45,201,44,30,18,089,38,1*7B
$GAGSV,3,2,10,19,18,259,27,12,12,325,33,27,09,139,36,02,07,039,33,1*76
$GAGSV,3,3,10,08,05,068,28,13,04,166,40,1*7E
$GBGSV,4,1,13,41,58,066,39,32,52,309,33,25,42,079,40,31,38,149,22,1*71
$GBGSV,4,2,13,23,38,150,48,30,24,270,45,27,17,219,51,33,12,094,32,1*73
$GBGSV,4,3,13,29,08,322,41,24,07,035,33,37,03,189,51,20,03,285,16,1*7B
$GBGSV,4,4,13,63,,,30,1*72
$GBGSV,3,1,10,41,58,066,36,32,52,309,30,25,42,079,43,23,38,150,47,5*76
$GBGSV,3,2,10,30,24,270,32,27,17,219,40,33,12,094,37,29,08,322,34,5*73
$GBGSV,3,3,10,24,07,035,37,37,03,189,45,5*76
$GNGGA,065732.000,4005.099196,N,10513.207572,W,2,60,0.41,1585.374,M,-20.670,M,,*7E
$GPGSV,3,1,12,28,70,150,43,32,56,047,32,21,47,269,44,31,44,190,49,1*61
$GPGSV,3,2,12,10,42,113,44,02,40,291,39,46,37,214,45,25,18,080,25,1*65
$GPGSV,3,3,12,03,11,306,30,12,09,052,33,23,07,121,44,26,01,167,51,1*6A
$GPGSV,2,1,07,28,70,150,45,32,56,047,31,10,42,113,47,25,18,080,40,8*67
$GPGSV,2,2,07,03,11,306,38,23,07,121,34,26,01,167,48,8*5D
$GLGSV,3,1,09,68,54,335,24,67,41,056,41,83,39,242,29,77,36,059,32,1*7B
$GLGSV,3,2,09,78,33,135,47,84,27,320,26,69,18,288,44,82,14,203,45,1*7C
$GLGSV,3,3,09,76,08,022,31,1*4A
$GAGSV,3,1,10,07,53,049,38,33,52,283,40,26,45,201,46,19,18,259,41,7*73
$GAGSV,3,2,10,30,18,089,37,12,12,325,26,27,09,139,38,02,07,039,35,7*79
$GAGSV,3,3,10,08,05,068,36,13,03,166,48,7*78
$GAGSV,3,1,10,07,53,049,31,33,52,283,38,26,45,201,44,30,18,089,38,1*7B
$GAGSV,3,2,10,19,18,259,26,12,12,325,32,27,09,139,35,02,07,039,33,1*75
$GAGSV,3,3,10,08,05,068,27,13,03,166,38,1*79
$GBGSV,4,1,13,41,58,066,39,32,52,309,33,25,42,079,40,31,38,149,22,1*71
$GBGSV,4,2,13,23,38,150,48,30,24,270,45,27,17,219,51,33,12,094,32,1*73
$GBGSV,4,3,13,29,08,322,41,24,07,035,33,37,03,189,51,20,03,285,17,1*7A
$GBGSV,4,4,13,63,,,30,1*72
$GBGSV,3,1,10,41,58,066,36,32,52,309,30,25,42,079,43,23,38,150,47,5*76
$GBGSV,3,2,10,30,24,270,32,27,17,219,40,33,12,094,37,29,08,322,33,5*74
$GBGSV,3,3,10,24,07,035,36,37,03,189,45,5*77
$GNGGA,065737.000,4005.099214,N,10513.207416,W,2,60,0.41,1585.600,M,-20.670,M,,*77
$GPGSV,3,1,12,28,70,150,43,32,56,047,34,21,47,269,44,31,44,190,49,1*67
$GPGSV,3,2,12,10,42,113,43,02,40,291,39,46,37,214,45,25,18,080,29,1*6E
$GPGSV,3,3,12,03,11,306,30,12,09,052,33,23,07,121,44,26,01,167,51,1*6A
$GPGSV,2,1,07,28,70,150,45,32,56,047,31,10,42,113,47,25,18,080,40,8*67
$GPGSV,2,2,07,03,11,306,38,23,07,121,34,26,01,167,48,8*5D
$GLGSV,3,1,09,68,54,335,26,67,41,056,40,83,39,242,29,77,36,059,32,1*78
$GLGSV,3,2,09,78,33,135,46,84,27,320,22,69,18,288,44,82,14,203,45,1*79
$GLGSV,3,3,09,76,08,022,28,1*42
$GAGSV,3,1,10,07,53,049,38,33,52,283,40,26,45,201,46,19,19,260,41,7*78
$GAGSV,3,2,10,30,18,089,37,12,12,325,26,27,09,139,38,02,07,039,35,7*79
$GAGSV,3,3,10,08,05,068,35,13,03,166,48,7*7B
$GAGSV,3,1,10,07,53,049,31,33,52,283,38,26,45,201,44,19,19,260,26,1*7B
$GAGSV,3,2,10,30,18,089,38,12,12,325,32,27,09,139,35,02,07,039,33,1*7E
$GAGSV,3,3,10,08,05,068,27,13,03,166,38,1*79
$GBGSV,4,1,13,41,58,066,39,32,52,309,33,25,42,079,40,31,38,149,21,1*72
$GBGSV,4,2,13,23,38,150,48,30,24,270,45,27,17,219,51,33,12,094,32,1*73
$GBGSV,4,3,13,29,08,322,41,24,07,035,34,37,03,189,51,20,03,285,17,1*7D
$GBGSV,4,4,13,63,,,30,1*72
$GBGSV,3,1,10,41,58,066,36,32,52,309,31,25,42,079,43,23,38,150,47,5*77
$GBGSV,3,2,10,30,24,270,31,27,17,219,41,33,12,094,37,29,08,322,33,5*76
$GBGSV,3,3,10,24,07,035,36,37,03,189,46,5*74
$GNGGA,065742.000,4005.099280,N,10513.207314,W,2,60,0.41,1585.892,M,-20.670,M,,*78
$GPGSV,3,1,12,28,70,150,43,32,56,047,35,21,47,269,44,31,44,190,49,1*66
$GPGSV,3,2,12,10,42,113,43,02,40,291,39,46,37,214,45,25,18,080,28,1*6F
$GPGSV,3,3,12,03,11,306,18,12,09,052,33,23,07,121,44,26,01,167,51,1*60
$GPGSV,2,1,07,28,70,150,45,32,56,047,31,10,42,113,47,25,18,080,40,8*67
$GPGSV,2,2,07,03,11,306,39,23,07,121,34,26,01,167,47,8*53
$GLGSV,3,1,09,68,54,335,23,67,41,056,40,83,39,242,29,77,36,059,33,1*7C
$GLGSV,3,2,09,78,33,135,46,84,27,320,23,69,18,288,44,82,14,203,45,1*78
$GLGSV,3,3,09,76,08,022,23,1*49
$GAGSV,3,1,10,07,53,049,38,33,52,283,41,26,44,200,46,19,19,260,41,7*79
$GAGSV,3,2,10,30,18,089,37,12,12,325,25,27,10,139,38,02,07,039,35,7*72
$GAGSV,3,3,10,08,05,068,35,13,03,166,48,7*7B
$GAGSV,3,1,10,07,53,049,31,33,52,283,38,26,44,200,44,19,19,260,25,1*78
$GAGSV,3,2,10,30,18,089,38,12,12,325,31,27,10,139,34,02,07,039,33,1*74
$GAGSV,3,3,10,08,05,068,27,13,03,166,38,1*79
$GBGSV,4,1,13,41,58,066,39,32,52,309,33,25,42,079,41,31,38,149,21,1*73
$GBGSV,4,2,13,23,38,150,48,30,24,270,45,27,17,219,51,33,12,094,32,1*73
$GBGSV,4,3,13,29,08,322,41,24,07,035,35,37,03,189,51,20,03,285,18,1*73
$GBGSV,4,4,13,63,,,30,1*72
$GBGSV,3,1,10,41,58,066,36,32,52,309,31,25,42,079,43,23,38,150,47,5*77
$GBGSV,3,2,10,30,24,270,31,27,17,219,41,33,12,094,37,29,08,322,32,5*77
$GBGSV,3,3,10,24,07,035,36,37,03,189,46,5*74
$GNGGA,065747.000,4005.099322,N,10513.207284,W,2,60,0.41,1586.094,M,-20.670,M,,*71
$GPGSV,3,1,12,28,70,150,43,32,56,047,35,21,47,269,44,31,44,190,49,1*66
$GPGSV,3,2,12,10,42,113,43,02,40,291,39,46,37,214,45,25,18,080,25,1*62
$GPGSV,3,3,12,03,11,306,24,12,09,052,34,23,07,121,44,26,01,167,50,1*69
$GPGSV,2,1,07,28,70,150,45,32,56,047,31,10,42,113,47,25,18,080,40,8*67
$GPGSV,2,2,07,03,11,306,39,23,07,121,33,26,01,167,47,8*54
$GLGSV,3,1,09,68,54,335,25,67,41,056,40,83,39,242,29,77,36,059,34,1*7D
$GLGSV,3,2,09,78,33,135,46,84,27,320,26,69,18,288,44,82,14,203,44,1*7C
$GLGSV,3,3,09,76,08,022,24,1*4E
$GAGSV,3,1,10,07,53,049,38,33,52,283,41,26,44,200,46,19,19,260,41,7*79
$GAGSV,3,2,10,30,19,088,37,12,12,325,24,27,10,139,38,02,07,039,35,7*73
$GAGSV,3,3,10,08,05,068,35,13,03,166,48,7*7B
$GAGSV,3,1,10,07,53,049,31,33,52,283,38,26,44,200,44,30,19,088,38,1*7B
$GAGSV,3,2,10,19,19,260,26,12,12,325,31,27,10,139,34,02,07,039,33,1*74
$GAGSV,3,3,10,08,05,068,26,13,03,166,38,1*78
$GBGSV,4,1,13,41,58,066,39,32,52,309,33,25,42,079,41,31,38,149,21,1*73
$GBGSV,4,2,13,23,38,150,48,30,24,270,44,27,17,219,51,33,12,094,30,1*70
$GBGSV,4,3,13,29,08,322,40,24,07,035,36,37,03,189,51,20,03,285,21,1*7B
$GBGSV,4,4,13,63,,,30,1*72
$GBGSV,3,1,10,41,58,066,36,32,52,309,32,25,42,079,43,23,38,150,47,5*74
$GBGSV,3,2,10,30,24,270,31,27,17,219,41,33,12,094,37,29,08,322,32,5*77
$GBGSV,3,3,10,24,07,035,35,37,03,189,46,5*77
$GNGGA,065752.000,4005.099364,N,10513.207350,W,2,60,0.41,1586.284,M,-20.670,M,,*7C
$GPGSV,3,1,12,28,70,150,42,32,56,047,36,21,47,269,44,31,44,190,49,1*64
$GPGSV,3,2,12,10,42,113,43,02,40,291,39,46,37,214,45,25,18,080,26,1*61
$GPGSV,3,3,12,03,11,306,24,12,09,052,33,23,07,121,45,26,01,167,50,1*6F
$GPGSV,2,1,07,28,70,150,45,32,56,047,31,10,42,113,48,25,18,080,41,8*69
$GPGSV,2,2,07,03,11,306,38,23,07,121,34,26,01,167,48,8*5D
$GLGSV,3,1,09,68,54,335,25,67,41,056,40,83,39,242,29,77,36,059,34,1*7D
$GLGSV,3,2,09,78,33,135,47,84,27,320,28,69,18,288,44,82,14,203,43,1*74
$GLGSV,3,3,09,76,08,022,29,1*43
$GAGSV,3,1,10,07,53,049,38,33,52,281,41,26,44,200,46,19,19,260,41,7*7B
$GAGSV,3,2,10,30,19,088,37,12,12,325,24,27,10,139,39,02,07,039,35,7*72
$GAGSV,3,3,10,08,05,068,34,13,03,166,48,7*7A
$GAGSV,3,1,10,07,53,049,32,33,52,281,38,26,44,200,45,30,19,088,38,1*7B
$GAGSV,3,2,10,19,19,260,25,12,12,325,31,27,10,139,34,02,07,039,33,1*77
$GAGSV,3,3,10,08,05,068,26,13,03,166,36,1*76
$GBGSV,3,1,12,41,58,066,39,32,52,309,33,25,42,079,41,23,38,150,48,1*71
$GBGSV,3,2,12,31,38,149,21,30,24,270,44,27,17,219,51,33,12,094,31,1*73
$GBGSV,3,3,12,29,08,322,40,24,07,035,36,37,03,189,51,20,03,285,22,1*7E
$GBGSV,3,1,10,41,58,066,36,32,52,309,32,25,42,079,43,23,38,150,47,5*74
$GBGSV,3,2,10,30,24,270,31,27,17,219,41,33,12,094,37,29,08,322,32,5*77
$GBGSV,3,3,10,24,07,035,35,37,03,189,47,5*76
$GNGGA,065757.000,4005.099430,N,10513.207470,W,2,60,0.41,1586.508,M,-20.670,M,,*79
$GPGSV,3,1,12,28,70,150,42,32,56,047,36,21,47,269,44,31,44,190,49,1*64
$GPGSV,3,2,12,10,42,113,43,02,40,291,39,46,37,214,45,25,18,080,24,1*63
$GPGSV,3,3,12,03,11,306,21,12,09,052,31,23,07,121,46,26,01,167,50,1*6B
$GPGSV,2,1,07,28,70,150,45,32,56,047,31,10,42,113,48,25,18,080,41,8*69
$GPGSV,2,2,07,03,11,306,38,23,07,121,34,26,01,167,48,8*5D
$GLGSV,3,1,09,68,54,337,27,67,40,058,41,83,39,242,29,77,36,059,34,1*73
$GLGSV,3,2,09,78,33,135,47,84,27,320,27,69,19,289,44,82,14,203,42,1*7A
$GLGSV,3,3,09,76,08,022,33,1*48
$GAGSV,3,1,10,07,53,049,38,33,52,281,41,26,44,200,46,19,19,260,41,7*7B
$GAGSV,3,2,10,30,19,088,37,12,12,325,25,27,10,139,39,02,07,039,35,7*73
$GAGSV,3,3,10,08,05,068,34,13,03,166,48,7*7A
$GAGSV,3,1,10,07,53,049,32,33,52,281,38,26,44,200,45,30,19,088,38,1*7B
$GAGSV,3,2,10,19,19,260,25,12,12,325,30,27,10,139,34,02,07,039,34,1*71
$GAGSV,3,3,10,08,05,068,26,13,03,166,36,1*76
$GBGSV,3,1,12,41,58,066,39,32,52,309,34,25,42,079,41,23,38,150,48,1*76
$GBGSV,3,2,12,31,38,149,21,30,24,270,44,27,17,219,51,33,12,094,31,1*73
$GBGSV,3,3,12,29,08,322,40,24,07,035,36,37,03,189,51,20,03,285,21,1*7D
$GBGSV,3,1,10,41,58,066,36,32,52,309,33,25,42,079,43,23,38,150,48,5*7A
$GBGSV,3,2,10,30,24,270,31,27,17,219,41,33,12,094,37,29,08,322,32,5*77
$GBGSV,3,3,10,24,07,035,35,37,03,189,47,5*76
$GNGGA,065802.000,4005.099496,N,10513.207494,W,2,60,0.41,1586.702,M,-20.669,M,,*70
$GPGSV,3,1,12,28,70,150,42,32,56,047,37,21,47,269,44,31,44,190,49,1*65
$GPGSV,3,2,12,10,42,113,43,02,40,291,39,46,37,214,45,25,18,080,22,1*65
$GPGSV,3,3,12,03,11,306,22,12,09,052,31,23,07,121,46,26,01,167,50,1*68
$GPGSV,2,1,07,28,70,150,45,32,56,047,31,10,42,113,48,25,18,080,41,8*69
$GPGSV,2,2,07,03,11,306,37,23,07,121,34,26,01,167,47,8*5D
$GLGSV,3,1,09,68,54,337,24,67,40,058,42,83,39,242,29,77,36,059,33,1*74
$GLGSV,3,2,09,78,33,135,46,84,27,320,26,69,19,289,44,82,14,203,43,1*7B
$GLGSV,3,3,09,76,08,022,35,1*4E
$GAGSV,3,1,10,07,53,049,38,33,52,281,41,26,44,200,46,19,19,260,41,7*7B
$GAGSV,3,2,10,30,19,088,37,12,12,325,25,27,10,139,39,02,07,039,35,7*73
$GAGSV,3,3,10,08,05,068,33,13,03,166,48,7*7D
$GAGSV,3,1,10,07,53,049,32,33,52,281,38,26,44,200,45,30,19,088,38,1*7B
$GAGSV,3,2,10,19,19,260,25,12,12,325,30,27,10,139,33,02,07,039,33,1*71
$GAGSV,3,3,10,08,05,068,26,13,03,166,36,1*76
$GBGSV,3,1,12,41,58,066,39,32,52,309,34,25,42,079,41,23,38,150,48,1*76
$GBGSV,3,2,12,31,38,149,22,30,24,270,44,27,17,219,51,33,12,094,34,1*75
$GBGSV,3,3,12,29,08,322,40,24,07,035,36,37,03,189,51,20,03,285,20,1*7C
$GBGSV,3,1,10,41,58,066,36,32,52,309,33,25,42,079,43,23,38,150,48,5*7A
$GBGSV,3,2,10,30,24,270,30,27,17,219,41,33,12,094,37,29,08,322,32,5*76
$GBGSV,3,3,10,24,07,035,35,37,03,189,47,5*76
$GNGGA,065807.000,4005.099478,N,10513.207416,W,2,60,0.41,1586.738,M,-20.670,M,,*7E
$GPGSV,3,1,12,28,70,150,42,32,56,047,37,21,47,269,44,31,44,190,49,1*65
$GPGSV,3,2,12,10,42,113,43,02,40,291,40,46,37,214,45,25,18,080,22,1*6B
$GPGSV,3,3,12,03,11,306,21,12,09,052,32,23,07,121,46,26,01,167,50,1*68
$GPGSV,2,1,07,28,70,150,45,32,56,047,31,10,42,113,48,25,18,080,41,8*69
$GPGSV,2,2,07,03,11,306,35,23,07,121,34,26,01,167,47,8*5F
$GLGSV,3,1,10,68,54,337,19,67,40,058,42,83,39,242,30,77,36,058,33,1*7B
$GLGSV,3,2,10,78,35,134,46,84,27,320,25,69,19,289,43,82,14,203,43,1*70
$GLGSV,3,3,10,76,07,021,36,79,01,173,52,1*74
$GAGSV,3,1,10,07,53,049,38,33,52,281,41,26,44,200,46,19,19,260,41,7*7B
$GAGSV,3,2,10,30,19,088,37,12,12,325,26,27,10,139,39,02,07,039,35,7*70
$GAGSV,3,3,10,08,05,068,33,13,03,166,48,7*7D
$GAGSV,3,1,10,07,53,049,32,33,52,281,38,26,44,200,45,30,19,088,38,1*7B
$GAGSV,3,2,10,19,19,260,24,12,12,325,29,27,10,139,33,02,07,039,33,1*78
$GAGSV,3,3,10,08,05,068,27,13,03,166,35,1*74
$GBGSV,3,1,12,41,58,066,39,32,52,309,34,25,42,079,41,23,38,150,48,1*76
$GBGSV,3,2,12,31,38,149,22,30,24,270,44,27,17,219,51,33,12,094,33,1*72
$GBGSV,3,3,12,29,08,322,40,24,07,035,35,37,03,189,51,20,03,285,18,1*74
$GBGSV,3,1,10,41,58,066,36,32,52,309,33,25,42,079,43,23,38,150,48,5*7A
$GBGSV,3,2,10,30,24,270,30,27,17,219,41,33,12,094,37,29,08,322,32,5*76
$GBGSV,3,3,10,24,07,035,35,37,03,189,47,5*76
$GNGGA,065812.000,4005.099448,N,10513.207398,W,2,61,0.41,1586.823,M,-20.670,M,,*7C
$GPGSV,3,1,12,28,70,150,42,32,56,047,37,21,47,269,44,31,44,190,49,1*65
$GPGSV,3,2,12,10,42,113,43,02,40,291,40,46,37,214,45,25,18,080,24,1*6D
$GPGSV,3,3,12,03,11,306,22,12,09,052,34,23,07,121,46,26,01,167,50,1*6D
$GPGSV,2,1,07,28,70,150,45,32,56,047,32,10,42,113,48,25,18,080,41,8*6A
$GPGSV,2,2,07,03,11,306,34,23,07,121,33,26,01,167,47,8*59
$GLGSV,3,1,10,68,54,337,25,67,40,058,42,83,38,241,30,77,36,058,34,1*71
$GLGSV,3,2,10,78,35,134,46,84,27,318,23,69,19,289,43,82,12,203,42,1*7A
$GLGSV,3,3,10,76,07,021,36,79,01,173,51,1*77
$GAGSV,3,1,10,07,53,049,38,33,52,281,41,26,44,200,46,19,19,260,40,7*7A
$GAGSV,3,2,10,30,19,088,37,12,12,325,26,27,10,139,40,02,07,039,35,7*7E
$GAGSV,3,3,10,08,05,068,34,13,03,166,48,7*7A
$GAGSV,3,1,10,07,53,049,32,33,52,281,38,26,44,200,45,30,19,088,38,1*7B
$GAGSV,3,2,10,19,19,260,24,12,12,325,28,27,10,139,33,02,07,039,33,1*79
$GAGSV,3,3,10,08,05,068,27,13,03,166,34,1*75
$GBGSV,3,1,12,41,58,066,39,32,52,309,34,25,42,079,41,23,38,150,48,1*76
$GBGSV,3,2,12,31,38,149,22,30,24,270,44,27,17,219,51,33,12,094,35,1*74
$GBGSV,3,3,12,29,08,322,39,24,07,035,35,37,03,189,51,20,03,285,22,1*73
$GBGSV,3,1,10,41,58,066,36,32,52,309,33,25,42,079,43,23,38,150,48,5*7A
$GBGSV,3,2,10,30,24,270,30,27,17,219,41,33,12,094,37,29,08,322,32,5*76
$GBGSV,3,3,10,24,07,035,35,37,03,189,47,5*76
$GNGGA,065817.000,4005.099472,N,10513.207476,W,2,61,0.41,1586.939,M,-20.670,M,,*7D
$GPGSV,3,1,12,28,70,150,42,32,56,047,38,21,47,269,44,31,44,190,49,1*6A
$GPGSV,3,2,12,10,42,113,43,02,40,291,38,46,37,214,45,25,18,080,25,1*63
$GPGSV,3,3,12,03,11,306,22,12,09,052,34,23,07,121,46,26,01,167,50,1*6D
$GPGSV,2,1,07,28,70,150,45,32,56,047,32,10,42,113,48,25,18,080,41,8*6A
$GPGSV,2,2,07,03,11,306,33,23,07,121,33,26,01,167,47,8*5E
$GLGSV,3,1,10,68,54,337,26,67,40,058,41,83,38,241,30,77,36,058,34,1*71
$GLGSV,3,2,10,78,35,134,46,84,27,318,26,69,19,289,43,82,12,203,43,1*7E
$GLGSV,3,3,10,76,07,021,36,79,01,173,51,1*77
$GAGSV,3,1,10,07,53,049,38,33,52,281,41,26,44,200,46,19,19,260,40,7*7A
$GAGSV,3,2,10,30,19,088,38,12,12,325,27,27,10,139,40,02,07,039,35,7*70
$GAGSV,3,3,10,08,05,068,35,13,03,166,48,7*7B
$GAGSV,3,1,10,07,53,049,32,33,52,281,38,26,44,200,45,30,19,088,38,1*7B
$GAGSV,3,2,10,19,19,260,23,12,12,325,27,27,10,139,32,02,07,039,33,1*70
$GAGSV,3,3,10,08,05,068,27,13,03,166,34,1*75
$GBGSV,3,1,12,41,58,066,39,32,52,309,34,25,42,079,41,23,38,150,48,1*76
$GBGSV,3,2,12,31,38,149,22,30,24,270,43,27,17,219,51,33,12,094,35,1*73
$GBGSV,3,3,12,29,08,322,39,24,07,035,35,37,03,189,51,20,03,285,25,1*74
$GBGSV,3,1,10,41,58,066,36,32,52,309,34,25,42,079,43,23,38,150,48,5*7D
$GBGSV,3,2,10,30,24,270,30,27,17,219,42,33,12,094,37,29,08,322,32,5*75
$GBGSV,3,3,10,24,07,035,35,37,03,189,47,5*76
$GNGGA,065822.000,4005.099544,N,10513.207590,W,2,61,0.41,1587.027,M,-20.670,M,,*71
$GPGSV,3,1,12,28,70,150,42,32,56,047,38,21,47,269,43,31,44,190,49,1*6D
$GPGSV,3,2,12,10,42,113,42,02,40,291,38,46,37,214,44,25,18,080,25,1*63
$GPGSV,3,3,12,03,11,306,24,12,09,052,34,23,07,121,46,26,01,167,51,1*6A
$GPGSV,2,1,07,28,70,150,45,32,56,047,32,10,42,113,48,25,18,080,41,8*6A
$GPGSV,2,2,07,03,11,306,32,23,07,121,35,26,01,167,47,8*59
$GLGSV,3,1,10,68,54,337,26,67,40,058,41,83,38,241,30,77,36,058,34,1*71
$GLGSV,3,2,10,78,35,134,46,84,27,318,25,69,19,289,43,82,12,203,43,1*7D
$GLGSV,3,3,10,76,07,021,38,79,01,173,50,1*78
$GAGSV,3,1,10,07,53,049,38,33,52,281,41,26,44,200,46,19,19,260,40,7*7A
$GAGSV,3,2,10,30,19,088,38,12,12,325,28,27,10,139,40,02,07,039,35,7*7F
$GAGSV,3,3,10,08,05,068,35,13,03,166,48,7*7B
$GAGSV,3,1,10,07,53,049,32,33,52,281,38,26,44,200,45,30,19,088,38,1*7B
$GAGSV,3,2,10,19,19,260,23,12,12,325,27,27,10,139,32,02,07,039,33,1*70
$GAGSV,3,3,10,08,05,068,28,13,03,166,34,1*7A
$GBGSV,3,1,12,41,58,066,38,32,52,309,35,25,42,079,41,23,38,150,48,1*76
$GBGSV,3,2,12,31,38,149,21,30,24,270,43,27,17,219,50,33,12,094,36,1*72
$GBGSV,3,3,12,29,08,322,39,24,07,035,34,37,03,189,51,20,03,285,30,1*71
$GBGSV,3,1,10,41,58,066,36,32,52,309,34,25,42,079,43,23,38,150,48,5*7D
$GBGSV,3,2,10,30,24,270,30,27,17,219,42,33,12,094,37,29,08,322,33,5*74
$GBGSV,3,3,10,24,07,035,35,37,03,189,48,5*79
$GNGGA,065827.000,4005.099586,N,10513.207632,W,2,61,0.41,1587.045,M,-20.670,M,,*75
$GPGSV,3,1,12,28,70,150,42,32,56,047,38,21,47,269,43,31,44,190,49,1*6D
$GPGSV,3,2,12,10,42,113,42,02,40,291,39,46,37,214,45,25,18,080,26,1*60
$GPGSV,3,3,12,03,11,306,27,12,09,052,34,23,07,121,47,26,01,167,51,1*68
$GPGSV,2,1,07,28,70,150,44,32,56,047,32,10,42,113,47,25,18,080,41,8*64
$GPGSV,2,2,07,03,11,306,32,23,07,121,34,26,01,167,47,8*58
$GLGSV,3,1,10,68,54,337,29,67,40,058,41,83,38,241,31,77,36,058,32,1*79
$GLGSV,3,2,10,78,35,134,45,84,27,318,25,69,19,289,43,82,12,203,43,1*7E
$GLGSV,3,3,10,76,07,021,38,79,01,173,50,1*78
$GAGSV,3,1,10,07,53,049,38,33,52,281,41,26,44,200,46,19,19,260,40,7*7A
$GAGSV,3,2,10,30,19,088,38,12,12,325,28,27,10,139,40,02,07,039,35,7*7F
$GAGSV,3,3,10,08,05,068,35,13,03,166,48,7*7B
$GAGSV,3,1,10,07,53,049,31,33,52,281,38,26,44,200,44,30,19,088,37,1*76
$GAGSV,3,2,10,19,19,260,23,12,12,325,27,27,10,139,31,02,07,039,33,1*73
$GAGSV,3,3,10,08,05,068,29,13,03,166,33,1*7C
$GBGSV,3,1,12,41,58,066,38,32,52,309,35,25,42,079,41,23,38,150,48,1*76
$GBGSV,3,2,12,31,38,149,21,30,24,270,43,27,17,219,50,33,12,094,38,1*7C
$GBGSV,3,3,12,29,08,322,40,24,07,035,34,37,03,189,51,20,03,285,31,1*7E
$GBGSV,3,1,10,41,58,066,36,32,52,309,34,25,42,079,42,23,38,150,47,5*73
$GBGSV,3,2,10,30,24,270,29,27,17,219,41,33,12,094,37,29,08,322,32,5*7E
$GBGSV,3,3,10,24,07,035,34,37,03,189,48,5*78
$GNGGA,065832.000,4005.099508,N,10513.207482,W,2,61,0.41,1587.044,M,-20.670,M,,*7F
$GPGSV,3,1,12,28,70,150,41,32,56,047,38,21,47,269,43,31,44,190,49,1*6E
$GPGSV,3,2,12,10,42,113,42,02,40,291,40,46,37,214,45,25,18,080,27,1*6F
$GPGSV,3,3,12,03,11,306,27,12,09,052,34,23,07,121,47,26,01,167,51,1*68
$GPGSV,2,1,07,28,70,150,44,32,56,047,32,10,42,113,47,25,18,080,41,8*64
$GPGSV,2,2,07,03,11,306,32,23,07,121,35,26,01,167,48,8*56
$GLGSV,3,1,10,68,54,337,30,67,40,058,42,83,38,241,31,77,36,058,32,1*72
$GLGSV,3,2,10,78,35,134,44,84,27,318,25,69,19,289,43,82,12,203,44,1*78
$GLGSV,3,3,10,76,07,021,38,79,01,173,50,1*78
$GAGSV,3,1,10,07,53,049,38,33,52,281,41,26,44,200,46,19,19,260,40,7*7A
$GAGSV,3,2,10,30,19,088,38,12,12,325,28,27,10,139,40,02,07,039,34,7*7E
$GAGSV,3,3,10,08,05,068,35,13,03,166,48,7*7B
$GAGSV,3,1,10,07,53,049,31,33,52,281,38,26,44,200,44,30,19,088,37,1*76
$GAGSV,3,2,10,19,19,260,22,12,12,325,27,27,10,139,31,02,07,039,33,1*72
$GAGSV,3,3,10,08,05,068,31,13,03,166,33,1*75
$GBGSV,3,1,12,41,58,066,38,32,52,309,35,25,42,079,42,23,38,150,48,1*75
$GBGSV,3,2,12,31,38,149,22,30,24,270,43,27,17,219,50,33,12,094,38,1*7F
$GBGSV,3,3,12,29,08,322,40,24,07,035,34,37,03,189,50,20,03,285,34,1*7A
$GBGSV,3,1,10,41,58,066,36,32,52,309,34,25,42,079,42,23,38,150,47,5*73
$GBGSV,3,2,10,30,24,270,29,27,17,219,42,33,12,094,37,29,08,322,32,5*7D
$GBGSV,3,3,10,24,07,035,34,37,03,189,48,5*78
$GNGGA,065837.000,4005.099388,N,10513.207278,W,2,61,0.41,1587.018,M,-20.670,M,,*7E
$GPGSV,3,1,12,28,70,150,41,32,56,047,38,21,47,269,43,31,44,190,49,1*6E
$GPGSV,3,2,12,10,42,113,42,02,40,291,40,46,37,214,45,25,18,080,26,1*6E
$GPGSV,3,3,12,03,11,306,24,12,09,052,34,23,07,121,47,26,01,167,51,1*6B
$GPGSV,2,1,07,28,70,150,44,32,56,047,32,10,42,113,48,25,18,080,41,8*6B
$GPGSV,2,2,07,03,11,306,33,23,07,121,35,26,01,167,48,8*57
$GLGSV,3,1,10,68,54,337,27,67,40,058,42,83,38,241,31,77,36,058,33,1*75
$GLGSV,3,2,10,78,35,134,44,84,27,318,26,69,19,289,43,82,12,203,45,1*7A
$GLGSV,3,3,10,76,07,021,40,79,01,173,50,1*77
$GAGSV,3,1,10,07,53,049,38,33,52,281,41,26,44,200,46,19,19,260,40,7*7A
$GAGSV,3,2,10,30,19,088,37,12,12,325,27,27,10,139,42,02,07,039,33,7*7B
$GAGSV,3,3,10,08,05,068,35,13,03,166,48,7*7B
$GAGSV,3,1,10,07,53,049,32,33,52,281,38,26,44,200,44,30,19,088,37,1*75
$GAGSV,3,2,10,19,19,260,22,12,12,325,27,27,10,139,31,02,07,039,33,1*72
$GAGSV,3,3,10,08,05,068,31,13,03,166,32,1*74
$GBGSV,3,1,12,41,58,066,38,32,52,309,35,25,42,079,42,23,38,150,48,1*75
$GBGSV,3,2,12,31,38,149,21,30,24,270,43,27,17,219,49,33,12,094,38,1*74
$GBGSV,3,3,12,29,08,322,40,24,07,035,35,37,03,189,50,20,03,286,37,1*7B
$GBGSV,3,1,10,41,58,066,36,32,52,309,35,25,42,079,43,23,38,150,47,5*73
$GBGSV,3,2,10,30,24,270,29,27,17,219,42,33,12,094,38,29,08,322,32,5*72
$GBGSV,3,3,10,24,07,035,34,37,03,189,48,5*78
$GNGGA,065842.000,4005.099334,N,10513.207176,W,2,61,0.41,1587.017,M,-20.670,M,,*79
$GPGSV,3,1,12,28,70,150,41,32,56,047,38,21,47,269,43,31,44,190,49,1*6E
$GPGSV,3,2,12,10,42,113,42,02,40,291,40,46,37,214,45,25,18,080,23,1*6B
$GPGSV,3,3,12,03,11,306,27,12,09,052,31,23,07,121,47,26,01,167,51,1*6D
$GPGSV,2,1,07,28,70,150,44,32,56,047,32,10,42,113,48,25,18,080,41,8*6B
$GPGSV,2,2,07,03,11,306,33,23,07,121,35,26,01,167,48,8*57
$GLGSV,3,1,10,68,54,337,23,67,40,058,41,83,38,241,31,77,36,058,33,1*72
$GLGSV,3,2,10,78,35,134,44,84,27,318,27,69,19,289,43,82,12,203,45,1*7B
$GLGSV,3,3,10,76,07,021,40,79,01,173,51,1*76
$GAGSV,3,1,10,07,53,049,38,33,52,281,41,26,44,200,46,19,19,260,40,7*7A
$GAGSV,3,2,10,30,19,088,37,12,12,325,26,27,10,139,41,02,07,039,33,7*79
$GAGSV,3,3,10,08,05,068,35,13,03,166,48,7*7B
$GAGSV,3,1,10,07,53,049,32,33,52,281,38,26,44,200,44,30,19,088,37,1*75
$GAGSV,3,2,10,19,19,260,22,12,12,325,27,27,10,139,31,02,07,039,33,1*72
$GAGSV,3,3,10,08,05,068,32,13,03,166,32,1*77
$GBGSV,3,1,12,41,58,066,38,32,52,309,36,25,42,078,42,23,39,149,48,1*7E
$GBGSV,3,2,12,31,38,149,21,30,24,270,43,27,16,218,49,33,12,094,38,1*74
$GBGSV,3,3,12,29,08,322,40,24,06,035,35,37,03,189,50,20,03,286,38,1*75
$GBGSV,3,1,10,41,58,066,36,32,52,309,35,25,42,078,43,23,39,149,47,5*7B
$GBGSV,3,2,10,30,24,270,29,27,16,218,42,33,12,094,38,29,08,322,32,5*72
$GBGSV,3,3,10,24,06,035,34,37,03,189,48,5*79
$GNGGA,065847.000,4005.099358,N,10513.207212,W,2,60,0.41,1587.095,M,-20.669,M,,*74
$GPGSV,3,1,12,28,70,150,41,32,56,047,38,21,47,269,43,31,44,190,49,1*6E
$GPGSV,3,2,12,10,42,113,42,02,40,291,40,46,37,214,45,25,18,080,18,1*63
$GPGSV,3,3,12,03,11,306,27,12,09,052,31,23,07,121,47,26,01,167,51,1*6D
$GPGSV,2,1,07,28,70,150,44,32,56,047,32,10,42,113,48,25,18,080,40,8*6A
$GPGSV,2,2,07,03,11,306,33,23,07,121,35,26,01,167,48,8*57
$GLGSV,3,1,10,68,54,337,13,67,40,058,41,83,38,241,31,77,36,058,33,1*71
$GLGSV,3,2,10,78,35,134,44,84,27,318,27,69,19,289,43,82,12,203,45,1*7B
$GLGSV,3,3,10,76,07,021,40,79,01,173,51,1*76
$GAGSV,3,1,10,07,53,049,38,33,52,281,41,26,44,200,46,19,19,260,40,7*7A
$GAGSV,3,2,10,30,19,088,36,12,12,325,26,27,10,139,42,02,07,039,33,7*7B
$GAGSV,3,3,10,08,05,068,35,13,03,166,48,7*7B
$GAGSV,3,1,10,07,53,049,31,33,52,281,38,26,44,200,44,30,19,088,37,1*76
$GAGSV,3,2,10,19,19,260,22,12,12,325,27,27,10,139,31,02,07,039,32,1*73
$GAGSV,3,3,10,08,05,068,32,13,03,166,34,1*71
$GBGSV,3,1,12,41,58,066,37,32,53,310,36,25,42,078,41,23,39,149,48,1*7B
$GBGSV,3,2,12,31,39,149,21,30,24,269,43,27,16,218,49,33,12,094,38,1*7D
$GBGSV,3,3,12,29,08,321,40,24,06,035,36,37,03,189,49,20,03,286,40,1*72
$GBGSV,3,1,10,41,58,066,36,32,53,310,34,25,42,078,43,23,39,149,47,5*73
$GBGSV,3,2,10,30,24,269,28,27,16,218,42,33,12,094,38,29,08,321,31,5*7B
$GBGSV,3,3,10,24,06,035,35,37,03,189,48,5*78
$GNGGA,065852.000,4005.099430,N,10513.207314,W,2,61,0.41,1587.136,M,-20.670,M,,*7F
$GPGSV,3,1,12,28,70,150,41,32,56,047,39,21,47,269,43,31,44,190,49,1*6F
$GPGSV,3,2,12,10,42,113,42,02,40,291,40,46,37,214,46,25,18,080,19,1*61
$GPGSV,3,3,12,03,11,306,28,12,09,052,30,23,07,121,47,26,01,167,51,1*63
$GPGSV,2,1,07,28,70,150,44,32,56,047,32,10,42,113,48,25,18,080,41,8*6B
$GPGSV,2,2,07,03,11,306,33,23,07,121,36,26,01,167,49,8*55
$GLGSV,3,1,10,68,54,337,20,67,40,058,41,83,38,241,31,77,36,058,33,1*71
$GLGSV,3,2,10,78,35,134,44,84,27,318,27,69,19,289,43,82,12,203,45,1*7B
$GLGSV,3,3,10,76,07,021,40,79,01,173,50,1*77
$GAGSV,3,1,10,07,53,049,38,33,52,281,41,26,44,200,46,30,19,088,36,7*74
$GAGSV,3,2,10,19,19,260,40,12,12,325,26,27,10,139,42,02,07,039,33,7*75
$GAGSV,3,3,10,08,05,068,35,13,03,166,47,7*74
$GAGSV,3,1,10,07,53,049,31,33,52,281,38,26,44,200,44,30,19,088,38,1*79
$GAGSV,3,2,10,19,19,260,21,12,12,325,27,27,10,139,31,02,07,039,32,1*70
$GAGSV,3,3,10,08,05,068,32,13,03,166,35,1*70
$GBGSV,3,1,12,41,58,066,37,32,53,310,36,25,42,078,41,23,39,149,48,1*7B
$GBGSV,3,2,12,31,39,149,21,30,24,269,43,27,16,218,49,33,11,094,38,1*7E
$GBGSV,3,3,12,29,08,321,40,24,06,035,36,37,04,189,49,20,03,286,40,1*75
$GBGSV,3,1,10,41,58,066,36,32,53,310,35,25,42,078,43,23,39,149,47,5*72
$GBGSV,3,2,10,30,24,269,29,27,16,218,42,33,11,094,38,29,08,321,31,5*79
$GBGSV,3,3,10,24,06,035,35,37,04,189,48,5*7F
$GNGGA,065857.000,4005.099490,N,10513.207362,W,2,61,0.41,1587.021,M,-20.670,M,,*76
$GPGSV,3,1,12,28,70,150,41,32,56,047,39,21,47,269,43,31,44,190,49,1*6F
$GPGSV,3,2,12,10,42,113,42,02,40,291,41,46,37,214,46,25,18,080,21,1*6B
$GPGSV,3,3,12,03,11,306,25,12,09,052,30,23,07,121,47,26,01,167,51,1*6E
$GPGSV,2,1,07,28,70,150,44,32,56,047,31,10,42,113,48,25,18,080,41,8*68
$GPGSV,2,2,07,03,11,306,33,23,07,121,36,26,01,167,49,8*55
$GLGSV,3,1,10,68,54,337,19,67,40,058,42,83,38,241,32,77,36,058,33,1*7B
$GLGSV,3,2,10,78,35,134,43,84,27,318,25,69,19,289,42,82,12,203,46,1*7C
$GLGSV,3,3,10,76,07,021,40,79,01,173,50,1*77
$GAGSV,3,1,10,07,53,049,38,33,52,281,41,26,44,200,46,30,19,088,36,7*74
$GAGSV,3,2,10,19,19,260,40,12,12,325,26,27,10,139,42,02,07,039,33,7*75
$GAGSV,3,3,10,08,05,068,35,13,03,166,47,7*74
$GAGSV,3,1,10,07,53,049,31,33,52,281,38,26,44,200,44,30,19,088,38,1*79
$GAGSV,3,2,10,19,19,260,21,12,12,325,27,27,10,139,31,02,07,039,31,1*73
$GAGSV,3,3,10,08,05,068,32,13,03,166,35,1*70
$GBGSV,3,1,12,41,57,068,37,32,53,310,37,25,42,078,41,23,39,149,48,1*7B
$GBGSV,3,2,12,31,39,149,21,30,24,269,43,27,16,218,48,33,11,094,38,1*7F
$GBGSV,3,3,12,29,08,321,40,24,06,035,36,37,04,189,48,20,03,286,42,1*76
$GBGSV,3,1,11,41,57,068,36,32,53,310,35,25,42,078,43,23,39,149,47,5*72
$GBGSV,3,2,11,30,24,269,28,27,16,218,42,33,11,094,38,29,08,321,31,5*79
$GBGSV,3,3,11,24,06,035,35,37,04,189,48,20,03,286,20,5*41
$GNGGA,065902.000,4005.099514,N,10513.207362,W,2,61,0.41,1586.948,M,-20.669,M,,*75
$GPGSV,3,1,12,28,70,150,41,32,56,047,39,21,47,269,43,31,44,190,50,1*67
$GPGSV,3,2,12,10,42,113,42,02,40,291,41,46,37,214,45,25,18,080,22,1*6B
$GPGSV,3,3,12,03,11,306,25,12,09,052,31,23,07,121,47,26,01,167,51,1*6F
$GPGSV,2,1,07,28,70,150,44,32,56,047,31,10,42,113,48,25,18,080,41,8*68
$GPGSV,2,2,07,03,11,306,33,23,07,121,36,26,01,167,49,8*55
$GLGSV,3,1,10,68,54,337,21,67,40,058,42,83,38,241,32,77,36,058,34,1*77
$GLGSV,3,2,10,78,35,134,41,84,27,318,25,69,19,289,41,82,12,203,46,1*7D
$GLGSV,3,3,10,76,07,021,40,79,01,173,50,1*77
$GAGSV,3,1,10,07,53,049,38,33,52,281,41,26,44,200,46,30,19,088,37,7*75
$GAGSV,3,2,10,19,19,260,40,12,12,325,25,27,10,139,42,02,07,039,33,7*76
$GAGSV,3,3,10,08,05,068,35,13,03,166,47,7*74
$GAGSV,3,1,10,07,53,049,31,33,52,281,38,26,44,200,44,30,19,088,38,1*79
$GAGSV,3,2,10,19,19,260,21,12,12,325,27,27,10,139,32,02,07,039,31,1*70
$GAGSV,3,3,10,08,05,068,32,13,03,166,34,1*71
$GBGSV,3,1,12,41,57,068,37,32,53,310,38,25,42,078,41,23,39,149,48,1*74
$GBGSV,3,2,12,31,39,149,21,30,24,269,43,27,16,218,48,33,11,094,38,1*7F
$GBGSV,3,3,12,29,08,321,41,24,06,035,36,37,04,189,48,20,03,286,42,1*77
$GBGSV,3,1,11,41,57,068,36,32,53,310,35,25,42,078,43,23,39,149,47,5*72
$GBGSV,3,2,11,30,24,269,28,27,16,218,42,33,11,094,38,29,08,321,31,5*79
$GBGSV,3,3,11,24,06,035,36,37,04,189,48,20,03,286,23,5*41
$GNGGA,065907.000,4005.099496,N,10513.207386,W,2,61,0.41,1586.894,M,-20.670,M,,*79
$GPGSV,3,1,12,28,70,150,40,32,56,047,39,21,47,269,43,31,44,190,50,1*66
$GPGSV,3,2,12,10,42,113,41,02,40,291,40,46,37,214,45,25,18,080,22,1*69
$GPGSV,3,3,12,03,11,306,20,12,09,052,32,23,07,121,47,26,01,167,51,1*69
$GPGSV,2,1,07,28,70,150,44,32,56,047,31,10,42,113,48,25,18,080,41,8*68
$GPGSV,2,2,07,03,11,306,32,23,07,121,36,26,01,167,49,8*54
$GLGSV,3,1,10,68,54,337,18,67,40,058,42,83,38,241,31,77,36,058,33,1*79
$GLGSV,3,2,10,78,35,134,42,84,27,318,26,69,19,289,42,82,12,203,46,1*7E
$GLGSV,3,3,10,76,07,021,41,79,01,173,49,1*7E
$GAGSV,3,1,10,07,53,049,38,33,52,281,41,26,44,200,46,30,19,088,38,7*7A
$GAGSV,3,2,10,19,19,260,40,12,12,325,25,27,10,139,43,02,07,039,33,7*77
$GAGSV,3,3,10,08,05,068,35,13,03,166,47,7*74
$GAGSV,3,1,10,07,53,049,30,33,52,281,38,26,44,200,44,30,19,088,38,1*78
$GAGSV,3,2,10,19,19,260,20,12,12,325,27,27,10,139,31,02,07,039,30,1*73
$GAGSV,3,3,10,08,05,068,32,13,03,166,34,1*71
$GBGSV,3,1,12,41,57,068,37,32,53,310,38,25,42,078,41,23,39,149,48,1*74
$GBGSV,3,2,12,31,39,149,21,30,24,269,43,27,16,218,48,33,11,094,38,1*7F
$GBGSV,3,3,12,29,08,321,41,24,06,035,36,37,04,189,48,20,03,286,42,1*77
$GBGSV,3,1,11,41,57,068,36,32,53,310,35,25,42,078,43,23,39,149,47,5*72
$GBGSV,3,2,11,30,24,269,28,27,16,218,42,33,11,094,38,29,08,321,31,5*79
$GBGSV,3,3,11,24,06,035,36,37,04,189,48,20,03,286,24,5*46
$GNGGA,065912.000,4005.099490,N,10513.207476,W,2,61,0.41,1586.893,M,-20.670,M,,*74
$GPGSV,3,1,12,28,70,150,40,32,56,047,39,21,47,269,43,31,44,190,50,1*66
$GPGSV,3,2,12,10,42,113,40,02,40,291,39,46,37,214,45,25,18,080,25,1*61
$GPGSV,3,3,12,03,11,306,22,12,09,052,35,23,07,121,47,26,01,167,51,1*6C
$GPGSV,2,1,07,28,70,150,44,32,56,047,31,10,42,113,48,25,18,080,41,8*68
$GPGSV,2,2,07,03,11,306,31,23,07,121,38,26,01,167,49,8*59
$GLGSV,3,1,10,68,54,337,19,67,40,058,42,83,38,241,31,77,36,058,33,1*78
$GLGSV,3,2,10,78,35,134,42,84,27,318,26,69,19,289,42,82,12,203,46,1*7E
$GLGSV,3,3,10,76,07,021,41,79,01,173,49,1*7E
$GAGSV,3,1,10,07,53,049,38,33,52,281,41,26,44,200,46,30,19,088,38,7*7A
$GAGSV,3,2,10,19,19,260,40,12,12,325,24,27,10,139,43,02,07,039,33,7*76
$GAGSV,3,3,10,08,05,068,35,13,03,166,47,7*74
$GAGSV,3,1,10,07,53,049,30,33,52,281,38,26,44,200,45,30,19,088,38,1*79
$GAGSV,3,2,10,19,19,260,21,12,12,325,27,27,10,139,33,02,07,039,30,1*70
$GAGSV,3,3,10,08,05,068,33,13,03,166,36,1*72
$GBGSV,3,1,12,41,57,068,37,32,53,310,38,25,42,078,41,23,39,149,48,1*74
$GBGSV,3,2,12,31,39,149,22,30,24,269,43,27,16,218,48,33,11,094,39,1*7D
$GBGSV,3,3,12,29,08,321,41,24,06,035,36,37,04,189,47,20,03,286,42,1*78
$GBGSV,3,1,11,41,57,068,36,32,53,310,36,25,42,078,43,23,39,149,48,5*7E
$GBGSV,3,2,11,30,24,269,28,27,16,218,43,33,11,094,39,29,08,321,31,5*79
$GBGSV,3,3,11,24,06,035,36,37,04,189,49,20,03,286,27,5*44
$GNGGA,065917.000,4005.099502,N,10513.207566,W,2,61,0.41,1586.964,M,-20.670,M,,*72
$GPGSV,3,1,12,28,70,150,40,32,56,047,40,21,47,269,43,31,44,190,50,1*68
$GPGSV,3,2,12,10,42,113,40,02,40,291,39,46,37,214,45,25,18,080,28,1*6C
$GPGSV,3,3,12,03,11,306,22,12,09,052,35,23,07,121,47,26,01,167,51,1*6C
$GPGSV,2,1,07,28,70,150,44,32,56,047,31,10,42,113,48,25,18,080,41,8*68
$GPGSV,2,2,07,03,11,306,31,23,07,121,38,26,01,167,49,8*59
$GLGSV,3,1,10,68,54,337,18,67,40,058,41,83,38,241,31,77,36,058,33,1*7A
$GLGSV,3,2,10,78,35,134,42,84,27,318,25,69,19,289,42,82,12,203,47,1*7C
$GLGSV,3,3,10,76,07,021,41,79,01,173,48,1*7F
$GAGSV,3,1,10,07,53,049,38,33,52,281,41,26,44,200,46,30,19,088,38,7*7A
$GAGSV,3,2,10,19,19,260,40,12,12,325,21,27,10,139,43,02,07,039,33,7*73
$GAGSV,3,3,10,08,05,068,35,13,03,166,47,7*74
$GAGSV,3,1,10,07,53,049,30,33,52,281,38,26,44,200,45,30,19,088,38,1*79
$GAGSV,3,2,10,19,19,260,21,12,12,325,26,27,10,139,33,02,07,039,30,1*71
$GAGSV,3,3,10,08,05,068,32,13,03,166,36,1*73
$GBGSV,3,1,12,41,57,068,37,32,53,310,38,25,42,078,41,23,39,149,48,1*74
$GBGSV,3,2,12,31,39,149,22,30,24,269,43,27,16,218,47,33,11,094,41,1*7D
$GBGSV,3,3,12,29,08,321,41,24,06,035,37,37,04,189,47,20,03,286,42,1*79
$GBGSV,3,1,11,41,57,068,36,32,53,310,36,25,42,078,43,23,39,149,48,5*7E
$GBGSV,3,2,11,30,24,269,27,27,16,218,43,33,11,094,39,29,08,321,31,5*76
$GBGSV,3,3,11,24,06,035,36,37,04,189,49,20,03,286,28,5*4B
$GNGGA,065922.000,4005.099484,N,10513.207608,W,2,61,0.41,1587.012,M,-20.670,M,,*79
$GPGSV,3,1,12,28,70,150,41,32,56,047,40,21,47,269,43,31,44,190,50,1*69
$GPGSV,3,2,12,10,42,113,40,02,40,289,39,46,37,214,45,25,18,080,26,1*6B
$GPGSV,3,3,12,03,12,307,21,12,09,052,33,23,07,121,47,26,01,167,51,1*6B
$GPGSV,2,1,07,28,70,150,44,32,56,047,31,10,42,113,48,25,18,080,41,8*68
$GPGSV,2,2,07,03,12,307,31,23,07,121,38,26,01,167,48,8*5A
$GLGSV,3,1,10,68,54,337,14,67,40,058,41,83,38,241,31,77,36,058,34,1*71
$GLGSV,3,2,10,78,35,134,41,84,27,318,26,69,19,289,41,82,12,203,47,1*7F
$GLGSV,3,3,10,76,07,021,41,79,01,173,48,1*7F
$GAGSV,3,1,10,07,53,049,38,33,52,281,41,26,44,200,46,30,19,088,39,7*7B
$GAGSV,3,2,10,19,19,260,40,12,12,325,20,27,10,139,43,02,07,039,33,7*72
$GAGSV,3,3,10,08,05,068,35,13,03,166,47,7*74
$GAGSV,3,1,10,07,53,049,30,33,52,281,38,26,44,200,45,30,19,088,38,1*79
$GAGSV,3,2,10,19,19,260,20,12,12,325,25,27,10,139,33,02,07,039,30,1*73
$GAGSV,3,3,10,08,05,068,32,13,03,166,37,1*72
$GBGSV,3,1,12,41,57,068,37,32,53,310,38,25,42,078,41,23,39,149,47,1*7B
$GBGSV,3,2,12,31,39,149,20,30,24,269,43,27,16,218,47,33,11,094,41,1*7F
$GBGSV,3,3,12,29,08,321,41,24,06,035,37,37,04,189,46,20,03,286,42,1*78
$GBGSV,3,1,11,41,57,068,36,32,53,310,36,25,42,078,43,23,39,149,48,5*7E
$GBGSV,3,2,11,30,24,269,26,27,16,218,43,33,11,094,39,29,08,321,31,5*77
$GBGSV,3,3,11,24,06,035,36,37,04,189,49,20,03,286,28,5*4B
$GNGGA,065927.000,4005.099394,N,10513.207530,W,2,61,0.41,1586.945,M,-20.669,M,,*70
$GPGSV,3,1,12,28,70,150,41,32,56,047,40,21,47,269,44,31,44,190,50,1*6E
$GPGSV,3,2,12,10,42,113,40,02,40,289,40,46,37,214,45,25,18,080,24,1*67
$GPGSV,3,3,12,03,12,307,26,12,09,052,32,23,07,121,47,26,01,167,50,1*6C
$GPGSV,2,1,07,28,70,150,44,32,56,047,30,10,42,113,48,25,18,080,40,8*68
$GPGSV,2,2,07,03,12,307,31,23,07,121,38,26,01,167,48,8*5A
$GLGSV,3,1,10,68,54,337,14,67,40,058,41,83,38,241,32,77,36,058,34,1*72
$GLGSV,3,2,10,78,35,134,40,84,27,318,26,69,19,289,40,82,12,203,48,1*70
$GLGSV,3,3,10,76,07,021,41,79,01,173,48,1*7F
$GAGSV,3,1,10,07,53,049,38,33,52,281,41,26,44,200,46,30,19,088,40,7*75
$GAGSV,3,2,10,19,19,260,40,12,12,325,19,27,10,139,43,02,07,039,33,7*78
$GAGSV,3,3,10,08,05,068,35,13,03,166,46,7*75
$GAGSV,3,1,10,07,53,049,29,33,52,281,38,26,44,200,45,30,19,088,38,1*71
$GAGSV,3,2,10,19,19,260,19,12,12,325,24,27,10,139,32,02,07,039,30,1*79
$GAGSV,3,3,10,08,05,068,31,13,03,166,37,1*71
$GBGSV,3,1,12,41,57,068,37,32,53,310,39,25,42,078,42,23,39,149,47,1*79
$GBGSV,3,2,12,31,39,149,20,30,24,269,43,27,16,218,47,33,11,094,41,1*7F
$GBGSV,3,3,12,29,08,321,41,24,06,035,37,37,04,189,46,20,03,286,43,1*79
$GBGSV,3,1,11,41,57,068,36,32,53,310,36,25,42,078,43,23,39,149,47,5*71
$GBGSV,3,2,11,30,24,269,25,27,16,218,43,33,11,094,39,29,08,321,31,5*74
$GBGSV,3,3,11,24,06,035,36,37,04,189,49,20,03,286,28,5*4B
$GNGGA,065932.000,4005.099262,N,10513.207398,W,2,61,0.41,1586.839,M,-20.670,M,,*7A
$GPGSV,3,1,12,28,70,150,41,32,56,047,40,21,47,269,44,31,44,190,50,1*6E
$GPGSV,3,2,12,10,41,114,40,02,40,289,41,46,37,214,45,25,18,080,23,1*65
$GPGSV,3,3,12,03,12,307,28,12,09,051,30,23,07,121,47,26,01,167,49,1*6B
$GPGSV,2,1,07,28,70,150,44,32,56,047,30,10,41,114,48,25,18,080,41,8*6D
$GPGSV,2,2,07,03,12,307,31,23,07,121,38,26,01,167,48,8*5A
$GLGSV,3,1,10,68,54,337,16,67,40,058,41,83,38,241,32,77,36,058,34,1*70
$GLGSV,3,2,10,78,35,134,41,84,27,318,26,69,19,289,40,82,12,203,48,1*71
$GLGSV,3,3,10,76,07,021,41,79,01,173,46,1*71
$GAGSV,3,1,10,07,53,049,38,33,52,281,41,26,44,200,46,30,19,088,40,7*75
$GAGSV,3,2,10,19,19,260,40,12,12,325,17,27,10,139,43,02,07,039,33,7*76
$GAGSV,3,3,10,08,05,068,35,13,03,166,46,7*75
$GAGSV,3,1,10,07,53,049,29,33,52,281,38,26,44,200,45,30,19,088,38,1*71
$GAGSV,3,2,10,19,19,260,20,12,12,325,24,27,10,139,34,02,07,039,31,1*74
$GAGSV,3,3,10,08,05,068,32,13,03,166,37,1*72
$GBGSV,3,1,12,41,57,068,37,32,53,310,39,25,42,078,42,23,39,149,47,1*79
$GBGSV,3,2,12,31,39,149,20,30,24,269,43,27,16,218,47,33,11,094,42,1*7C
$GBGSV,3,3,12,29,08,321,40,24,06,035,37,37,04,189,46,20,03,286,43,1*78
$GBGSV,3,1,11,41,57,068,36,32,53,310,36,25,42,078,43,23,39,149,47,5*71
$GBGSV,3,2,11,30,24,269,26,27,16,218,43,33,11,094,39,29,08,321,32,5*74
$GBGSV,3,3,11,24,06,035,36,37,04,189,49,20,03,286,29,5*4A
$GNGGA,065937.000,4005.099148,N,10513.207362,W,2,61,0.41,1586.691,M,-20.670,M,,*7D
$GPGSV,3,1,12,28,70,150,41,32,56,047,41,21,47,269,44,31,44,190,50,1*6F
$GPGSV,3,2,12,10,41,114,39,02,40,289,41,46,37,214,45,25,18,080,23,1*6B
$GPGSV,3,3,12,03,12,307,30,12,09,051,31,23,07,121,47,26,01,167,49,1*63
$GPGSV,2,1,07,28,70,150,44,32,56,047,30,10,41,114,48,25,18,080,41,8*6D
$GPGSV,2,2,07,03,12,307,29,23,07,121,38,26,01,167,48,8*53
$GLGSV,3,1,10,68,54,337,24,67,40,058,42,83,38,241,32,77,36,058,33,1*75
$GLGSV,3,2,10,78,35,134,42,84,27,318,24,69,19,289,40,82,12,203,48,1*70
$GLGSV,3,3,10,76,07,021,40,79,01,173,45,1*73
$GAGSV,3,1,10,07,53,049,38,33,52,281,41,26,44,200,46,30,19,088,40,7*75
$GAGSV,3,2,10,19,19,260,40,12,12,325,17,27,10,139,43,02,07,039,33,7*76
$GAGSV,3,3,10,08,05,068,35,13,03,166,45,7*76
$GAGSV,3,1,10,07,53,049,29,33,52,281,38,26,44,200,45,30,19,088,38,1*71
$GAGSV,3,2,10,19,19,260,20,12,12,325,24,27,10,139,34,02,07,039,32,1*77
$GAGSV,3,3,10,08,05,068,32,13,03,166,39,1*7C
$GBGSV,3,1,12,41,57,068,37,32,53,310,39,25,42,078,42,23,39,149,47,1*79
$GBGSV,3,2,12,31,39,149,20,30,24,269,43,27,16,218,47,33,11,094,42,1*7C
$GBGSV,3,3,12,29,08,321,38,24,06,035,37,37,04,189,43,20,03,286,44,1*75
$GBGSV,3,1,11,41,57,068,36,32,53,310,36,25,42,078,43,23,39,149,47,5*71
$GBGSV,3,2,11,30,24,269,25,27,16,218,43,33,11,094,39,29,08,321,32,5*77
$GBGSV,3,3,11,24,06,035,36,37,04,189,49,20,03,286,29,5*4A
$GNGGA,065942.000,4005.099118,N,10513.207458,W,2,61,0.41,1586.613,M,-20.669,M,,*76
$GPGSV,3,1,12,28,70,150,41,32,56,047,41,21,47,267,44,31,44,190,50,1*61
$GPGSV,3,2,12,10,41,114,39,02,40,289,41,46,37,214,45,25,18,080,25,1*6D
$GPGSV,3,3,12,03,12,307,31,12,09,051,33,23,06,122,47,26,01,167,49,1*62
$GPGSV,2,1,07,28,70,150,44,32,56,047,30,10,41,114,48,25,18,080,41,8*6D
$GPGSV,2,2,07,03,12,307,28,23,06,122,39,26,01,167,48,8*51
$GLGSV,3,1,10,68,54,337,30,67,40,058,42,83,38,241,32,77,36,058,33,1*70
$GLGSV,3,2,10,78,35,134,43,84,27,318,25,69,19,289,40,82,12,203,47,1*7F
$GLGSV,3,3,10,76,07,021,39,79,01,173,44,1*7C
$GAGSV,3,1,10,07,53,049,38,33,52,281,41,26,44,200,46,30,19,088,40,7*75
$GAGSV,3,2,10,19,19,260,40,12,12,325,18,27,10,139,43,02,07,039,33,7*79
$GAGSV,3,3,10,08,05,068,35,13,03,166,45,7*76
$GAGSV,3,1,10,07,53,049,28,33,52,281,38,26,44,200,45,30,19,088,38,1*70
$GAGSV,3,2,10,19,19,260,20,12,12,325,24,27,10,139,34,02,07,039,33,1*76
$GAGSV,3,3,10,08,05,068,32,13,03,166,39,1*7C
$GBGSV,3,1,12,41,57,068,37,32,53,310,40,25,42,078,42,23,39,149,47,1*77
$GBGSV,3,2,12,31,39,149,20,30,24,269,43,27,16,218,47,33,11,094,42,1*7C
$GBGSV,3,3,12,29,08,321,38,24,06,035,37,37,04,189,44,20,03,286,44,1*72
$GBGSV,3,1,11,41,57,068,36,32,53,310,36,25,42,078,43,23,39,149,47,5*71
$GBGSV,3,2,11,30,24,269,25,27,16,218,43,33,11,094,39,29,08,321,31,5*74
$GBGSV,3,3,11,24,06,035,36,37,04,189,49,20,03,286,29,5*4A
$GNGGA,065947.000,4005.099136,N,10513.207608,W,2,60,0.41,1586.584,M,-20.669,M,,*74
$GPGSV,3,1,12,28,71,147,41,32,56,047,41,21,47,267,44,31,44,190,50,1*66
$GPGSV,3,2,12,10,41,114,38,02,40,289,41,46,37,214,45,25,19,079,25,1*6B
$GPGSV,3,3,12,03,12,307,32,12,09,051,34,23,06,122,47,26,01,167,49,1*66
$GPGSV,2,1,07,28,71,147,44,32,56,047,30,10,41,114,48,25,19,079,41,8*6D
$GPGSV,2,2,07,03,12,307,26,23,06,122,39,26,01,167,48,8*5F
$GLGSV,3,1,10,68,54,337,32,67,40,058,42,83,38,241,32,77,36,058,34,1*75
$GLGSV,3,2,10,78,35,134,43,84,27,318,27,69,19,289,39,82,12,203,48,1*7C
$GLGSV,3,3,10,76,07,021,38,79,01,173,44,1*7D
$GAGSV,3,1,10,07,53,049,38,33,52,281,41,26,44,200,46,30,19,088,40,7*75
$GAGSV,3,2,10,19,19,260,40,12,12,325,20,27,10,139,44,02,07,039,34,7*72
$GAGSV,3,3,10,08,05,068,35,13,03,166,45,7*76
$GAGSV,3,1,10,07,53,049,27,33,52,281,38,26,44,200,45,30,19,088,38,1*7F
$GAGSV,3,2,10,19,19,260,20,12,12,325,24,27,10,139,35,02,07,039,33,1*77
$GAGSV,3,3,10,08,05,068,31,13,03,166,39,1*7F
$GBGSV,3,1,12,41,57,068,37,32,53,310,41,25,42,078,42,23,39,149,47,1*76
$GBGSV,3,2,12,31,39,149,20,30,24,269,43,27,16,218,46,33,11,094,42,1*7D
$GBGSV,3,3,12,29,08,321,38,24,06,035,37,37,04,189,45,20,03,286,42,1*75
$GBGSV,3,1,11,41,57,068,36,32,53,310,36,25,42,078,43,23,39,149,47,5*71
$GBGSV,3,2,11,30,24,269,25,27,16,218,43,33,11,094,39,29,08,321,31,5*74
$GBGSV,3,3,11,24,06,035,36,37,04,189,49,20,03,286,29,5*4A
$GNGGA,065952.000,4005.099124,N,10513.207728,W,2,60,0.41,1586.473,M,-20.670,M,,*71
$GPGSV,3,1,12,28,71,147,41,32,55,048,41,21,47,267,44,31,45,190,50,1*6B
$GPGSV,3,2,12,10,41,114,38,02,40,289,41,46,37,214,45,25,19,079,28,1*66
$GPGSV,3,3,12,03,12,307,30,12,09,051,34,23,06,122,47,26,01,167,49,1*64
$GPGSV,2,1,07,28,71,147,44,32,55,048,30,10,41,114,48,25,19,079,41,8*61
$GPGSV,2,2,07,03,12,307,23,23,06,122,40,26,01,167,48,8*54
$GLGSV,3,1,10,68,54,337,33,67,40,058,42,83,38,241,32,77,36,058,34,1*74
$GLGSV,3,2,10,78,35,134,42,84,27,318,28,69,19,289,38,82,12,203,49,1*72
$GLGSV,3,3,10,76,07,021,36,79,01,173,43,1*74
$GAGSV,3,1,10,07,53,049,38,33,52,281,41,26,44,200,46,30,19,088,40,7*75
$GAGSV,3,2,10,19,19,260,40,12,12,325,21,27,10,139,44,02,07,039,34,7*73
$GAGSV,3,3,10,08,05,068,35,13,03,166,44,7*77
$GAGSV,3,1,10,07,53,049,26,33,52,281,38,26,44,200,45,30,19,088,38,1*7E
$GAGSV,3,2,10,19,19,260,19,12,12,325,25,27,10,139,35,02,07,039,33,1*7C
$GAGSV,3,3,10,08,05,068,31,13,03,166,39,1*7F
$GBGSV,3,1,12,41,57,068,37,32,53,310,41,25,42,078,42,23,39,149,47,1*76
$GBGSV,3,2,12,31,39,149,19,30,24,269,43,27,16,218,46,33,11,094,42,1*77
$GBGSV,3,3,12,29,08,321,38,24,06,035,37,37,04,189,44,20,03,286,42,1*74
$GBGSV,3,1,11,41,57,068,36,32,53,310,36,25,42,078,43,23,39,149,47,5*71
$GBGSV,3,2,11,30,24,269,24,27,16,218,43,33,11,094,39,29,08,321,31,5*75
$GBGSV,3,3,11,24,06,035,36,37,04,189,49,20,03,286,28,5*4B
$GNGGA,065957.000,4005.099094,N,10513.207740,W,2,60,0.41,1586.478,M,-20.669,M,,*73
$GPGSV,3,1,12,28,71,147,41,32,55,048,41,21,47,267,44,31,45,190,50,1*6B
$GPGSV,3,2,12,10,41,114,37,02,40,289,41,46,37,214,45,25,19,079,28,1*69
$GPGSV,3,3,12,03,12,307,30,12,09,051,35,23,06,122,47,26,01,167,49,1*65
$GPGSV,2,1,07,28,71,147,44,32,55,048,30,10,41,114,48,25,19,079,41,8*61
$GPGSV,2,2,07,03,12,307,21,23,06,122,40,26,01,167,48,8*56
$GLGSV,3,1,10,68,54,337,33,67,40,058,42,83,38,241,32,77,36,058,33,1*73
$GLGSV,3,2,10,78,35,134,42,84,27,318,28,69,19,289,39,82,12,203,49,1*73
$GLGSV,3,3,10,76,07,021,33,79,01,173,43,1*71
$GAGSV,3,1,10,07,53,049,38,33,52,281,41,26,44,200,46,30,19,088,40,7*75
$GAGSV,3,2,10,19,19,260,40,12,12,325,22,27,10,139,44,02,07,039,33,7*77
$GAGSV,3,3,10,08,05,068,35,13,03,166,42,7*71
$GAGSV,3,1,10,07,53,049,27,33,52,281,38,26,44,200,45,30,19,088,38,1*7F
$GAGSV,3,2,10,19,19,260,20,12,12,325,24,27,10,139,34,02,07,039,33,1*76
$GAGSV,3,3,10,08,05,068,31,13,03,166,39,1*7F
$GBGSV,3,1,12,41,57,068,37,32,53,310,41,25,42,078,42,23,39,149,46,1*77
$GBGSV,3,2,12,31,39,149,20,30,24,269,43,27,16,218,46,33,11,094,43,1*7C
$GBGSV,3,3,12,29,08,321,38,24,06,035,37,37,04,189,44,20,03,286,43,1*75
$GBGSV,3,1,11,41,57,068,36,32,53,310,37,25,42,078,43,23,39,149,47,5*70
$GBGSV,3,2,11,30,24,269,24,27,16,218,43,33,11,094,39,29,08,321,31,5*75
$GBGSV,3,3,11,24,06,035,35,37,04,189,49,20,03,286,28,5*48
$GNGGA,070002.000,4005.099016,N,10513.207614,W,2,60,0.41,1586.367,M,-20.669,M,,*7D
$GPGSV,3,1,12,28,71,147,41,32,55,048,40,21,47,267,44,31,45,190,50,1*6A
$GPGSV,3,2,12,10,41,114,37,02,40,289,41,46,37,214,45,25,19,079,29,1*68
$GPGSV,3,3,12,03,12,307,29,12,09,051,34,23,06,122,48,26,01,167,48,1*62
$GPGSV,2,1,07,28,71,147,44,32,55,048,30,10,41,114,48,25,19,079,41,8*61
$GPGSV,2,2,07,03,12,307,26,23,06,122,40,26,01,167,48,8*51
$GLGSV,3,1,10,68,54,337,35,67,40,058,42,83,38,241,32,77,36,058,33,1*75
$GLGSV,3,2,10,78,35,134,42,84,27,318,29,69,19,289,40,82,12,203,49,1*7C
$GLGSV,3,3,10,76,07,021,28,79,01,173,42,1*7A
$GAGSV,3,1,10,07,53,049,38,33,52,281,41,26,44,200,46,30,19,088,40,7*75
$GAGSV,3,2,10,19,19,260,40,12,12,325,22,27,10,139,44,02,07,038,32,7*77
$GAGSV,3,3,10,08,05,068,35,13,03,166,42,7*71
$GAGSV,3,1,10,07,53,049,26,33,52,281,38,26,44,200,45,30,19,088,38,1*7E
$GAGSV,3,2,10,19,19,260,21,12,12,325,24,27,10,139,35,02,07,038,33,1*77
$GAGSV,3,3,10,08,05,068,31,13,03,166,40,1*71
$GBGSV,4,1,14,41,57,068,37,32,53,310,41,25,42,078,42,31,39,149,20,1*75
$GBGSV,4,2,14,23,39,149,46,30,24,269,43,27,16,218,46,33,11,094,43,1*7E
$GBGSV,4,3,14,29,08,321,38,24,06,035,37,37,04,189,43,20,03,286,44,1*74
$GBGSV,4,4,14,63,,,29,58,,,49,1*7D
$GBGSV,3,1,11,41,57,068,36,32,53,310,37,25,42,078,43,23,39,149,47,5*70
$GBGSV,3,2,11,30,24,269,24,27,16,218,43,33,11,094,39,29,08,321,31,5*75
$GBGSV,3,3,11,24,06,035,35,37,04,189,49,20,03,286,28,5*48
$GNGGA,070007.000,4005.099010,N,10513.207524,W,2,59,0.41,1586.207,M,-20.670,M,,*7B
$GPGSV,3,1,12,28,71,147,41,32,55,048,40,21,47,267,44,31,45,190,50,1*6A
$GPGSV,3,2,12,10,41,114,38,02,40,289,41,46,37,214,45,25,19,079,28,1*66
$GPGSV,3,3,12,03,12,307,27,12,09,051,34,23,06,122,48,26,01,167,48,1*6C
$GPGSV,2,1,07,28,71,147,44,32,55,048,30,10,41,114,48,25,19,079,41,8*61
$GPGSV,2,2,07,03,12,307,30,23,06,122,40,26,01,167,48,8*56
$GLGSV,3,1,10,68,54,337,34,67,40,058,42,83,38,241,32,77,36,058,32,1*75
$GLGSV,3,2,10,78,35,134,42,84,27,318,29,69,19,289,40,82,12,203,49,1*7C
$GLGSV,3,3,10,76,07,021,23,79,01,173,40,1*73
