$PAIR001,062,0*3F
$PAIR001,062,0*3F
$PAIR001,062,0*3F
$PAIR001,062,0*3F
$PAIR001,062,0*3F
$PAIR001,062,0*3F
$PAIR001,062,0*3F
$PAIR001,062,0*3F
$PAIR001,062,0*3F
$GNGGA,095637.000,4005.098464,N,10513.208694,W,2,53,0.50,1582.618,M,-20.670,M,,*70
$GPGSV,3,1,10,03,67,235,46,26,56,090,45,04,54,314,38,16,46,151,47,1*67
$GPGSV,3,2,10,31,46,050,39,46,37,214,47,28,19,057,40,09,15,298,38,1*68
$GPGSV,3,3,10,06,08,317,36,29,01,047,,1*62
$GPGSV,2,1,06,03,67,235,43,26,56,090,34,04,54,314,40,28,19,057,33,8*67
$GPGSV,2,2,06,09,15,298,20,06,08,317,27,8*69
$GLGSV,2,1,08,69,71,075,38,79,71,047,40,80,49,204,45,70,30,323,21,1*7B
$GLGSV,2,2,08,68,25,122,43,78,18,033,39,86,05,328,29,85,01,282,,1*7E
$GAGSV,3,1,10,19,63,323,37,21,48,158,43,27,47,070,38,12,18,267,40,7*78
$GAGSV,3,2,10,10,17,291,30,11,10,317,27,04,09,294,36,07,09,105,41,7*74
$GAGSV,3,3,10,30,06,034,31,33,05,216,48,7*7E
$GAGSV,3,1,10,19,63,323,35,21,48,158,40,27,47,070,42,12,18,267,33,1*76
$GAGSV,3,2,10,10,17,291,37,11,10,317,33,04,09,294,35,07,09,105,39,1*7C
$GAGSV,3,3,10,30,06,034,35,33,05,216,46,1*72
$GBGSV,2,1,08,37,80,181,45,20,63,312,44,32,56,136,48,23,40,050,42,1*73
$GBGSV,2,2,08,46,25,219,49,19,14,314,29,41,04,134,51,58,,,21,1*41
$GBGSV,2,1,07,37,80,181,41,20,63,312,36,32,56,136,36,23,40,050,30,5*75
$GBGSV,2,2,07,46,25,219,37,19,14,314,38,41,04,134,24,5*4F
$GNGGA,095642.000,4005.098476,N,10513.208766,W,2,53,0.50,1582.596,M,-20.670,M,,*78
$GPGSV,3,1,10,03,67,235,46,26,56,090,45,04,54,314,38,16,46,151,46,1*66
$GPGSV,3,2,10,31,46,050,40,46,37,214,47,28,19,057,40,09,15,298,36,1*68
$GPGSV,3,3,10,06,08,317,36,29,01,047,,1*62
$GPGSV,2,1,06,03,67,235,44,26,56,090,35,04,54,314,40,28,19,057,33,8*61
$GPGSV,2,2,06,09,15,298,20,06,08,317,27,8*69
$GLGSV,2,1,08,69,71,075,38,79,71,047,40,80,49,204,45,70,30,323,21,1*7B
$GLGSV,2,2,08,68,25,122,43,78,18,033,40,86,05,328,30,85,01,282,,1*78
$GAGSV,3,1,10,19,63,323,37,21,48,158,44,27,47,070,38,12,18,267,40,7*7F
$GAGSV,3,2,10,10,17,291,30,11,10,317,28,04,09,294,36,07,09,105,41,7*7B
$GAGSV,3,3,10,30,06,034,30,33,05,216,47,7*70
$GAGSV,3,1,10,19,63,323,35,21,48,158,41,27,47,070,42,12,18,267,33,1*77
$GAGSV,3,2,10,10,17,291,37,11,10,317,33,04,09,294,35,07,09,105,40,1*72
$GAGSV,3,3,10,30,06,034,36,33,05,216,47,1*70
$GBGSV,2,1,08,37,80,181,45,20,63,312,44,32,56,136,48,23,40,050,42,1*73
$GBGSV,2,2,08,46,25,219,49,19,14,314,25,41,04,134,50,58,,,21,1*4C
$GBGSV,2,1,07,37,80,181,41,20,63,312,36,32,56,136,36,23,40,050,31,5*74
$GBGSV,2,2,07,46,25,219,37,19,14,314,38,41,04,134,22,5*49
$GNGGA,095647.000,4005.098500,N,10513.208856,W,2,53,0.50,1582.588,M,-20.670,M,,*7E
$GPGSV,3,1,10,03,67,235,46,26,56,090,45,04,54,314,38,16,46,151,46,1*66
$GPGSV,3,2,10,31,46,050,41,46,37,214,47,28,19,057,40,09,15,298,36,1*69
$GPGSV,3,3,10,06,08,317,36,29,01,047,,1*62
$GPGSV,2,1,06,03,67,235,44,26,56,090,35,04,54,314,40,28,19,057,32,8*60
$GPGSV,2,2,06,09,15,298,19,06,08,317,27,8*63
$GLGSV,2,1,08,69,71,075,38,79,71,047,40,80,49,204,44,70,30,323,24,1*7F
$GLGSV,2,2,08,68,25,122,44,78,18,033,40,86,05,328,28,85,01,282,,1*76
$GAGSV,3,1,10,19,63,323,37,21,48,158,44,27,47,070,38,12,18,267,40,7*7F
$GAGSV,3,2,10,10,17,291,30,11,10,317,28,04,09,294,37,07,09,105,41,7*7A
$GAGSV,3,3,10,30,06,034,30,33,05,216,47,7*70
$GAGSV,3,1,10,19,63,323,35,21,48,158,41,27,47,070,42,12,18,267,33,1*77
$GAGSV,3,2,10,10,17,291,37,11,10,317,33,04,09,294,35,07,09,105,40,1*72
$GAGSV,3,3,10,30,06,034,36,33,05,216,47,1*70
$GBGSV,2,1,08,37,80,181,45,20,64,311,44,32,56,136,48,23,40,050,42,1*77
$GBGSV,2,2,08,46,25,219,50,19,15,314,20,41,04,134,50,58,,,21,1*40
$GBGSV,2,1,07,37,80,181,41,20,64,311,36,32,56,136,36,23,40,050,31,5*70
$GBGSV,2,2,07,46,25,219,37,19,15,314,34,41,04,134,25,5*43
$GNGGA,095652.000,4005.098518,N,10513.208970,W,2,53,0.50,1582.541,M,-20.670,M,,*73
$GPGSV,3,1,10,03,67,235,46,26,56,090,45,04,54,314,38,16,46,151,46,1*66
$GPGSV,3,2,10,31,46,050,41,46,37,214,47,28,19,057,40,09,15,298,36,1*69
$GPGSV,3,3,10,06,08,317,35,29,01,047,,1*61
$GPGSV,2,1,06,03,67,235,44,26,56,090,35,04,54,314,40,28,19,057,32,8*60
$GPGSV,2,2,06,09,15,298,18,06,08,317,28,8*6D
$GLGSV,2,1,08,69,71,075,39,79,71,047,39,80,49,204,44,70,30,323,22,1*76
$GLGSV,2,2,08,68,25,122,44,78,18,033,40,86,05,328,27,85,01,282,,1*79
$GAGSV,3,1,10,19,63,323,36,21,48,158,44,27,47,070,38,12,18,267,40,7*7E
$GAGSV,3,2,10,10,17,291,30,11,10,317,28,04,09,294,38,07,09,105,41,7*75
$GAGSV,3,3,10,30,06,034,29,33,05,216,47,7*78
$GAGSV,3,1,10,19,63,323,35,21,48,158,41,27,47,070,42,12,18,267,33,1*77
$GAGSV,3,2,10,10,17,291,37,11,10,317,33,04,09,294,35,07,09,105,40,1*72
$GAGSV,3,3,10,30,06,034,36,33,05,216,47,1*70
$GBGSV,2,1,08,37,80,181,45,20,64,311,44,32,56,136,48,23,39,050,42,1*79
$GBGSV,2,2,08,46,25,219,50,19,15,314,17,41,04,134,50,58,,,21,1*44
$GBGSV,2,1,07,37,80,181,41,20,64,311,36,32,56,136,36,23,39,050,31,5*7E
$GBGSV,2,2,07,46,25,219,38,19,15,314,31,41,04,134,30,5*4D
$GNGGA,095657.000,4005.098578,N,10513.209066,W,2,52,0.50,1582.555,M,-20.670,M,,*7B
$GPGSV,3,1,10,03,67,235,46,26,56,090,45,04,54,314,38,16,46,151,46,1*66
$GPGSV,3,2,10,31,46,050,41,46,37,214,47,28,19,057,41,09,15,298,37,1*69
$GPGSV,3,3,10,06,08,317,35,29,01,047,,1*61
$GPGSV,2,1,05,03,67,235,44,26,56,090,35,04,54,314,40,28,19,057,32,8*63
$GPGSV,2,2,05,06,08,317,28,8*59
$GLGSV,2,1,08,69,71,075,38,79,71,047,39,80,49,204,44,70,30,323,18,1*7E
$GLGSV,2,2,08,68,25,122,44,78,18,033,40,86,05,328,25,85,01,282,,1*7B
$GAGSV,3,1,10,19,63,323,36,21,48,158,44,27,47,070,38,12,18,267,40,7*7E
$GAGSV,3,2,10,10,17,291,30,11,10,317,30,04,09,294,38,07,09,105,41,7*7C
$GAGSV,3,3,10,30,06,034,29,33,05,216,47,7*78
$GAGSV,3,1,10,19,63,323,35,21,48,158,41,27,47,070,42,12,18,267,33,1*77
$GAGSV,3,2,10,10,17,291,37,11,10,317,33,04,09,294,35,07,09,105,40,1*72
$GAGSV,3,3,10,30,06,034,36,33,05,216,47,1*70
$GBGSV,2,1,08,37,80,181,45,20,64,311,44,32,56,136,47,23,39,050,41,1*75
$GBGSV,2,2,08,46,25,219,50,19,15,314,19,41,04,134,50,58,,,21,1*4A
$GBGSV,2,1,07,37,80,181,42,20,64,311,36,32,56,136,36,23,39,050,30,5*7C
$GBGSV,2,2,07,46,25,219,38,19,15,314,29,41,04,134,33,5*47
$GNGGA,095702.000,4005.098632,N,10513.209090,W,2,52,0.50,1582.564,M,-20.670,M,,*7C
$GPGSV,3,1,10,03,67,235,46,26,56,090,45,04,54,314,38,16,46,151,46,1*66
$GPGSV,3,2,10,31,46,050,42,46,37,214,47,28,19,057,41,09,15,298,37,1*6A
$GPGSV,3,3,10,06,08,317,35,29,01,047,,1*61
$GPGSV,2,1,05,03,67,235,44,26,56,090,34,04,54,314,40,28,19,057,32,8*62
$GPGSV,2,2,05,06,08,317,30,8*50
$GLGSV,2,1,08,69,71,075,38,79,71,047,40,80,49,204,43,70,30,323,20,1*7C
$GLGSV,2,2,08,68,25,122,44,78,18,033,40,86,05,328,24,85,01,282,,1*7A
$GAGSV,3,1,10,19,63,323,36,21,48,158,44,27,47,070,38,12,18,267,40,7*7E
$GAGSV,3,2,10,10,17,291,31,11,10,317,31,04,09,294,38,07,09,105,41,7*7C
$GAGSV,3,3,10,30,06,034,29,33,05,216,47,7*78
$GAGSV,3,1,10,19,63,323,35,21,48,158,41,27,47,070,42,12,18,267,34,1*70
$GAGSV,3,2,10,10,17,291,36,11,10,317,32,04,09,294,34,07,09,105,39,1*7D
$GAGSV,3,3,10,30,06,034,36,33,05,216,47,1*70
$GBGSV,2,1,08,37,80,181,45,20,64,311,44,32,55,137,47,23,39,050,40,1*76
$GBGSV,2,2,08,46,25,219,50,19,15,314,26,41,04,134,50,58,,,21,1*46
$GBGSV,2,1,07,37,80,181,41,20,64,311,35,32,55,137,37,23,39,050,29,5*77
$GBGSV,2,2,07,46,25,219,38,19,15,314,30,41,04,134,34,5*48
$GNGGA,095707.000,4005.098686,N,10513.209108,W,2,52,0.50,1582.558,M,-20.669,M,,*71
$GPGSV,3,1,10,03,67,235,46,26,56,090,45,04,54,314,38,16,46,151,46,1*66
$GPGSV,3,2,10,31,46,050,42,46,37,214,47,28,19,057,40,09,15,298,37,1*6B
$GPGSV,3,3,10,06,08,317,35,29,01,047,,1*61
$GPGSV,2,1,05,03,67,235,44,26,56,090,35,04,54,314,40,28,19,057,33,8*62
$GPGSV,2,2,05,06,08,317,30,8*50
$GLGSV,2,1,08,69,71,075,38,79,71,047,41,80,49,204,43,70,30,323,23,1*7E
$GLGSV,2,2,08,68,25,122,43,78,18,033,41,86,05,328,26,85,01,282,,1*7E
$GAGSV,3,1,10,19,63,323,36,21,48,158,44,27,47,070,38,12,18,267,40,7*7E
$GAGSV,3,2,10,10,17,291,31,11,10,317,32,04,09,294,38,07,09,105,41,7*7F
$GAGSV,3,3,10,30,06,034,29,33,05,216,46,7*79
$GAGSV,3,1,10,19,63,323,35,21,48,158,41,27,47,070,43,12,18,267,34,1*71
$GAGSV,3,2,10,10,17,291,37,11,10,317,32,04,09,294,34,07,09,105,39,1*7C
$GAGSV,3,3,10,30,06,034,36,33,05,216,47,1*70
$GBGSV,2,1,08,37,81,178,45,20,64,311,44,32,55,137,47,23,39,050,40,1*71
$GBGSV,2,2,08,46,25,219,50,19,15,314,30,41,04,134,50,58,,,21,1*41
$GBGSV,2,1,07,37,81,178,41,20,64,311,35,32,55,137,37,23,39,050,27,5*7E
$GBGSV,2,2,07,46,25,219,38,19,15,314,33,41,04,134,35,5*4A
$GNGGA,095712.000,4005.098794,N,10513.209096,W,2,52,0.50,1582.489,M,-20.670,M,,*74
$GPGSV,3,1,10,03,67,235,46,26,56,090,45,04,54,314,38,16,46,151,45,1*65
$GPGSV,3,2,10,31,46,050,42,46,37,214,47,28,19,057,40,09,15,298,37,1*6B
$GPGSV,3,3,10,06,08,317,34,29,01,047,,1*60
$GPGSV,2,1,05,03,67,235,43,26,56,090,35,04,54,314,40,28,19,057,32,8*64
$GPGSV,2,2,05,06,08,317,30,8*50
$GLGSV,2,1,08,69,71,075,40,79,71,047,41,80,49,204,43,70,30,323,21,1*73
$GLGSV,2,2,08,68,25,122,43,78,18,033,42,86,05,328,26,85,01,282,,1*7D
$GAGSV,3,1,10,19,63,323,36,21,48,158,45,27,47,070,38,12,18,267,40,7*7F
$GAGSV,3,2,10,10,17,291,31,11,10,317,32,04,09,294,37,07,09,105,41,7*70
$GAGSV,3,3,10,30,06,034,29,33,05,216,45,7*7A
$GAGSV,3,1,10,19,63,323,34,21,48,158,42,27,47,070,42,12,18,267,34,1*72
$GAGSV,3,2,10,10,17,291,36,11,10,317,32,04,09,294,34,07,09,105,39,1*7D
$GAGSV,3,3,10,30,06,034,36,33,05,216,47,1*70
$GBGSV,2,1,08,37,81,178,45,20,64,311,45,32,55,137,47,23,39,050,40,1*70
$GBGSV,2,2,08,46,25,219,50,19,15,314,32,41,03,135,50,58,,,22,1*46
$GBGSV,2,1,07,37,81,178,41,20,64,311,36,32,55,137,37,23,39,050,25,5*7F
$GBGSV,2,2,07,46,25,219,38,19,15,314,36,41,03,135,34,5*48
$GNGGA,095717.000,4005.098914,N,10513.209060,W,2,52,0.50,1582.333,M,-20.670,M,,*78
$GPGSV,3,1,10,03,67,235,46,26,56,090,45,04,54,314,38,16,46,151,45,1*65
$GPGSV,3,2,10,31,46,050,42,46,37,214,47,28,19,057,40,09,15,298,36,1*6A
$GPGSV,3,3,10,06,08,317,34,29,01,047,,1*60
$GPGSV,2,1,05,03,67,235,44,26,56,090,35,04,54,314,40,28,19,057,31,8*60
$GPGSV,2,2,05,06,08,317,30,8*50
$GLGSV,2,1,08,69,71,075,41,79,71,047,40,80,49,204,43,70,30,323,19,1*78
$GLGSV,2,2,08,68,25,122,44,78,18,033,42,86,05,328,27,85,01,282,,1*7B
$GAGSV,3,1,10,19,63,323,36,21,48,158,45,27,47,070,38,12,18,267,40,7*7F
$GAGSV,3,2,10,10,17,291,32,11,10,317,32,04,09,294,37,07,09,105,40,7*72
$GAGSV,3,3,10,30,06,034,29,33,05,216,45,7*7A
$GAGSV,3,1,10,19,63,323,34,21,48,158,42,27,47,070,42,12,18,267,34,1*72
$GAGSV,3,2,10,10,17,291,36,11,10,317,32,04,09,294,35,07,09,105,39,1*7C
$GAGSV,3,3,10,30,06,034,36,33,05,216,47,1*70
$GBGSV,2,1,08,37,81,178,45,20,64,311,45,32,55,137,47,23,39,050,40,1*70
$GBGSV,2,2,08,46,26,220,50,19,15,314,33,41,03,135,49,58,,,22,1*46
$GBGSV,2,1,07,37,81,178,41,20,64,311,36,32,55,137,37,23,39,050,24,5*7E
$GBGSV,2,2,07,46,26,220,38,19,15,314,37,41,03,135,34,5*40
$GNGGA,095722.000,4005.098998,N,10513.208988,W,2,52,0.50,1582.289,M,-20.670,M,,*74
$GPGSV,3,1,10,03,67,235,46,26,56,090,44,04,54,314,36,16,46,151,45,1*6A
$GPGSV,3,2,10,31,46,050,42,46,37,214,47,28,19,057,40,09,15,298,38,1*64
$GPGSV,3,3,10,06,08,317,33,29,01,047,,1*67
$GPGSV,2,1,05,03,67,235,44,26,56,090,36,04,54,314,40,28,19,057,30,8*62
$GPGSV,2,2,05,06,08,317,29,8*58
$GLGSV,2,1,08,69,71,075,41,79,71,047,40,80,49,204,42,70,30,323,19,1*79
$GLGSV,2,2,08,68,25,122,45,78,18,033,42,86,05,328,31,85,01,282,,1*7D
$GAGSV,3,1,10,19,63,323,36,21,48,158,45,27,47,070,39,12,18,267,40,7*7E
$GAGSV,3,2,10,10,17,291,32,11,10,317,31,04,09,294,37,07,09,105,40,7*71
$GAGSV,3,3,10,30,06,034,29,33,05,216,44,7*7B
$GAGSV,3,1,10,19,63,323,34,21,48,158,42,27,47,070,42,12,18,267,34,1*72
$GAGSV,3,2,10,10,17,291,36,11,10,317,32,04,09,294,35,07,09,105,39,1*7C
$GAGSV,3,3,10,30,06,034,36,33,05,216,47,1*70
$GBGSV,2,1,08,37,81,178,45,20,64,311,45,32,55,137,47,23,39,050,40,1*70
$GBGSV,2,2,08,46,26,220,50,19,15,314,33,41,03,135,48,58,,,22,1*47
$GBGSV,2,1,07,37,81,178,41,20,64,311,36,32,55,137,37,23,39,050,22,5*78
$GBGSV,2,2,07,46,26,220,39,19,15,314,37,41,03,135,34,5*41
$GNGGA,095727.000,4005.099082,N,10513.208910,W,2,52,0.50,1582.262,M,-20.670,M,,*76
$GPGSV,3,1,10,03,67,235,46,26,56,090,44,04,54,314,36,16,46,151,45,1*6A
$GPGSV,3,2,10,31,46,050,42,46,37,214,47,28,19,057,41,09,15,298,38,1*65
$GPGSV,3,3,10,06,08,317,33,29,01,047,,1*67
$GPGSV,2,1,05,03,67,235,44,26,56,090,36,04,54,314,40,28,19,057,28,8*6B
$GPGSV,2,2,05,06,08,317,28,8*59
$GLGSV,2,1,08,69,71,075,40,79,71,047,40,80,49,204,41,70,30,323,19,1*7B
$GLGSV,2,2,08,68,25,122,45,78,18,033,42,86,05,328,32,85,01,282,,1*7E
$GAGSV,3,1,10,19,63,323,36,21,48,158,45,27,47,070,39,12,18,267,40,7*7E
$GAGSV,3,2,10,10,17,291,32,11,10,317,30,04,09,294,37,07,09,105,40,7*70
$GAGSV,3,3,10,30,06,034,29,33,05,216,44,7*7B
$GAGSV,3,1,10,19,63,323,35,21,48,158,42,27,47,070,42,12,18,267,34,1*73
$GAGSV,3,2,10,10,17,291,37,11,10,317,32,04,09,294,35,07,09,105,39,1*7D
$GAGSV,3,3,10,30,06,034,36,33,05,216,47,1*70
$GBGSV,2,1,08,37,81,178,46,20,64,311,45,32,55,137,47,23,39,050,41,1*72
$GBGSV,2,2,08,46,26,220,50,19,15,314,33,41,03,135,48,58,,,22,1*47
$GBGSV,2,1,07,37,81,178,41,20,64,311,36,32,55,137,38,23,39,050,20,5*75
$GBGSV,2,2,07,46,26,220,39,19,15,314,37,41,03,135,34,5*41
$GNGGA,095732.000,4005.099130,N,10513.208922,W,2,52,0.50,1582.266,M,-20.670,M,,*7F
$GPGSV,3,1,10,03,67,235,46,26,56,090,44,04,54,314,36,16,46,151,45,1*6A
$GPGSV,3,2,10,31,46,050,42,46,37,214,47,28,19,057,41,09,15,298,38,1*65
$GPGSV,3,3,10,06,08,317,32,29,01,047,,1*66
$GPGSV,2,1,05,03,67,235,44,26,56,090,37,04,54,314,40,28,19,057,27,8*65
$GPGSV,2,2,05,06,08,317,28,8*59
$GLGSV,2,1,08,69,71,075,41,79,71,047,39,80,49,204,41,70,30,323,20,1*7E
$GLGSV,2,2,08,68,25,122,45,78,18,033,42,86,05,328,34,85,01,282,,1*78
$GAGSV,3,1,10,19,63,323,36,21,48,158,45,27,47,070,39,12,18,267,40,7*7E
$GAGSV,3,2,10,10,17,291,32,11,10,317,29,04,09,294,37,07,09,105,40,7*78
$GAGSV,3,3,10,30,06,034,29,33,05,216,44,7*7B
$GAGSV,3,1,10,19,63,323,34,21,48,158,42,27,47,070,42,12,18,267,34,1*72
$GAGSV,3,2,10,10,17,291,36,11,10,317,33,04,09,294,36,07,09,105,39,1*7E
$GAGSV,3,3,10,30,06,034,36,33,05,216,47,1*70
$GBGSV,2,1,08,37,81,178,46,20,64,311,45,32,55,137,47,23,39,050,41,1*72
$GBGSV,2,2,08,46,26,220,50,19,15,314,33,41,03,135,48,58,,,22,1*47
$GBGSV,2,1,07,37,81,178,41,20,64,311,36,32,55,137,38,23,39,050,20,5*75
$GBGSV,2,2,07,46,26,220,39,19,15,314,37,41,03,135,36,5*43
$GNGGA,095737.000,4005.099118,N,10513.208916,W,2,52,0.50,1582.223,M,-20.670,M,,*76
$GPGSV,3,1,10,03,67,232,46,26,56,090,44,04,55,315,36,16,46,151,44,1*6C
$GPGSV,3,2,10,31,46,050,43,46,37,214,47,28,19,057,41,09,15,298,38,1*64
$GPGSV,3,3,10,06,08,316,30,29,01,047,,1*65
$GPGSV,2,1,05,03,67,232,44,26,56,090,37,04,55,315,40,28,19,057,28,8*6D
$GPGSV,2,2,05,06,08,316,27,8*57
$GLGSV,2,1,08,69,71,075,41,79,71,047,39,80,49,204,41,70,30,323,19,1*74
$GLGSV,2,2,08,68,25,122,45,78,18,033,42,86,05,328,33,85,01,282,,1*7F
$GAGSV,3,1,10,19,63,323,36,21,48,158,45,27,47,070,39,12,18,267,40,7*7E
$GAGSV,3,2,10,10,17,291,32,11,10,317,27,04,09,294,37,07,09,105,40,7*76
$GAGSV,3,3,10,30,06,034,30,33,05,216,44,7*73
$GAGSV,3,1,10,19,63,323,34,21,48,158,42,27,47,070,42,12,18,267,34,1*72
$GAGSV,3,2,10,10,17,291,36,11,10,317,33,04,09,294,36,07,09,105,39,1*7E
$GAGSV,3,3,10,30,06,034,36,33,05,216,47,1*70
$GBGSV,2,1,08,37,81,178,46,20,64,311,45,32,55,137,47,23,39,050,41,1*72
$GBGSV,2,2,08,46,26,220,50,19,15,314,33,41,03,135,48,58,,,21,1*44
$GBGSV,2,1,07,37,81,178,41,20,64,311,36,32,55,137,38,23,39,050,19,5*7F
$GBGSV,2,2,07,46,26,220,39,19,15,314,37,41,03,135,37,5*42
$GNGGA,095742.000,4005.099040,N,10513.208874,W,2,53,0.50,1582.238,M,-20.669,M,,*7E
$GPGSV,3,1,10,03,67,232,46,26,56,090,44,04,55,315,36,16,46,151,44,1*6C
$GPGSV,3,2,10,31,46,050,43,46,37,214,47,28,19,057,41,09,16,298,38,1*67
$GPGSV,3,3,10,06,08,316,31,29,01,047,,1*64
$GPGSV,2,1,06,03,67,232,44,26,56,090,37,04,55,315,40,28,19,057,29,8*6F
$GPGSV,2,2,06,09,16,298,23,06,08,316,23,8*6C
$GLGSV,2,1,08,69,71,075,40,79,71,047,39,80,49,204,41,70,30,323,16,1*7A
$GLGSV,2,2,08,68,25,122,45,78,18,033,42,86,05,328,30,85,01,282,,1*7C
$GAGSV,3,1,10,19,63,323,36,21,48,158,45,27,47,070,39,12,18,267,39,7*70
$GAGSV,3,2,10,10,17,291,32,11,10,317,27,04,09,294,38,07,09,105,40,7*79
$GAGSV,3,3,10,30,06,034,30,33,05,216,44,7*73
$GAGSV,3,1,10,19,63,323,35,21,48,158,43,27,47,070,43,12,18,267,34,1*73
$GAGSV,3,2,10,10,17,291,36,11,10,317,34,04,09,294,36,07,09,105,39,1*79
$GAGSV,3,3,10,30,06,034,36,33,05,216,47,1*70
$GBGSV,2,1,08,37,81,178,46,20,64,311,45,32,55,137,46,23,39,050,42,1*70
$GBGSV,2,2,08,46,26,220,50,19,15,314,33,41,03,135,48,58,,,22,1*47
$GBGSV,2,1,07,37,81,178,42,20,64,311,36,32,55,137,38,23,39,050,22,5*74
$GBGSV,2,2,07,46,26,220,40,19,15,314,34,41,03,135,39,5*41
$GNGGA,095747.000,4005.098974,N,10513.208844,W,2,53,0.50,1582.224,M,-20.670,M,,*72
$GPGSV,3,1,10,03,67,232,46,26,56,090,44,04,55,315,36,16,47,150,43,1*6B
$GPGSV,3,2,10,31,46,050,43,46,37,214,47,28,19,057,41,09,16,298,38,1*67
$GPGSV,3,3,10,06,08,316,34,29,01,047,,1*61
$GPGSV,2,1,06,03,67,232,44,26,56,090,36,04,55,315,40,28,19,057,29,8*6E
$GPGSV,2,2,06,09,16,298,25,06,08,316,20,8*69
$GLGSV,2,1,08,69,71,075,40,79,71,047,40,80,49,204,41,70,30,323,16,1*74
$GLGSV,2,2,08,68,25,122,45,78,18,033,42,86,05,328,28,85,01,282,,1*75
$GAGSV,3,1,10,19,63,323,36,21,48,158,45,27,47,070,39,12,18,267,39,7*70
$GAGSV,3,2,10,10,17,291,32,11,10,317,28,04,09,294,38,07,09,105,39,7*78
$GAGSV,3,3,10,30,06,034,31,33,05,216,43,7*75
$GAGSV,3,1,10,19,63,323,35,21,48,158,43,27,47,070,43,12,18,267,34,1*73
$GAGSV,3,2,10,10,17,291,36,11,10,317,34,04,09,294,36,07,09,105,38,1*78
$GAGSV,3,3,10,30,06,034,36,33,05,216,47,1*70
$GBGSV,2,1,08,37,81,178,46,20,64,311,45,32,55,137,46,23,39,050,42,1*70
$GBGSV,2,2,08,46,26,220,50,19,15,314,33,41,03,135,48,58,,,22,1*47
$GBGSV,2,1,07,37,81,178,42,20,64,311,35,32,55,137,38,23,39,050,22,5*77
$GBGSV,2,2,07,46,26,220,40,19,15,314,31,41,03,135,39,5*44
$GNGGA,095752.000,4005.098872,N,10513.208802,W,2,53,0.50,1582.068,M,-20.670,M,,*79
$GPGSV,3,1,10,03,67,232,46,26,56,090,44,04,55,315,36,16,47,150,43,1*6B
$GPGSV,3,2,10,31,46,050,43,46,37,214,47,28,19,057,41,09,16,298,38,1*67
$GPGSV,3,3,10,06,08,316,34,29,01,047,,1*61
$GPGSV,2,1,06,03,67,232,44,26,56,090,36,04,55,315,40,28,19,057,29,8*6E
$GPGSV,2,2,06,09,16,298,25,06,08,316,20,8*69
$GLGSV,2,1,08,69,71,075,42,79,71,047,40,80,49,204,40,70,30,323,16,1*77
$GLGSV,2,2,08,68,25,122,45,78,18,033,42,86,05,328,29,85,01,282,,1*74
$GAGSV,3,1,10,19,63,323,36,21,48,158,46,27,47,070,39,12,18,267,39,7*73
$GAGSV,3,2,10,10,17,291,32,11,10,317,28,04,09,294,38,07,09,105,39,7*78
$GAGSV,3,3,10,30,06,034,31,33,05,216,42,7*74
$GAGSV,3,1,10,19,63,323,34,21,48,158,43,27,47,070,43,12,18,267,34,1*72
$GAGSV,3,2,10,10,17,291,36,11,10,317,34,04,09,294,37,07,09,105,39,1*78
$GAGSV,3,3,10,30,06,034,36,33,05,216,47,1*70
$GBGSV,3,1,09,37,81,178,46,20,64,311,46,32,55,137,46,23,39,050,43,1*72
$GBGSV,3,2,09,46,26,220,50,19,15,314,35,41,03,135,46,58,,,22,1*4F
$GBGSV,3,3,09,63,,,28,1*70
$GBGSV,2,1,07,37,81,178,42,20,64,311,35,32,55,137,39,23,39,050,23,5*77
$GBGSV,2,2,07,46,26,220,40,19,15,314,26,41,03,135,40,5*4C
$GNGGA,095757.000,4005.098848,N,10513.208808,W,2,53,0.50,1582.024,M,-20.670,M,,*77
$GPGSV,3,1,10,03,67,232,46,26,56,088,44,04,55,315,36,16,47,150,43,1*62
$GPGSV,3,2,10,31,46,050,43,46,37,214,47,28,19,057,42,09,16,298,38,1*64
$GPGSV,3,3,10,06,08,316,31,29,01,047,,1*64
$GPGSV,2,1,06,03,67,232,44,26,56,088,36,04,55,315,40,28,19,057,28,8*66
$GPGSV,2,2,06,09,16,298,26,06,08,316,21,8*6B
$GLGSV,2,1,08,69,71,075,42,79,71,047,40,80,49,204,40,70,30,323,16,1*77
$GLGSV,2,2,08,68,25,122,45,78,18,033,42,86,05,328,30,85,01,282,,1*7C
$GAGSV,3,1,10,19,63,323,36,21,48,158,46,27,47,070,39,12,18,267,38,7*72
$GAGSV,3,2,10,10,17,291,32,11,10,317,28,04,09,294,38,07,09,105,39,7*78
$GAGSV,3,3,10,30,06,034,32,33,05,216,42,7*77
$GAGSV,3,1,10,19,63,323,34,21,48,158,43,27,47,070,43,12,18,267,35,1*73
$GAGSV,3,2,10,10,17,291,36,11,10,317,34,04,09,294,37,07,09,105,39,1*78
$GAGSV,3,3,10,30,06,034,36,33,05,216,48,1*7F
$GBGSV,3,1,09,37,81,178,46,20,64,311,46,32,55,137,46,23,39,050,43,1*72
$GBGSV,3,2,09,46,26,220,50,19,15,314,35,41,03,135,45,58,,,21,1*4F
$GBGSV,3,3,09,63,,,28,1*70
$GBGSV,2,1,07,37,81,178,42,20,64,311,35,32,55,137,39,23,39,050,25,5*71
$GBGSV,2,2,07,46,26,220,40,19,15,314,24,41,03,135,40,5*4E
$GNGGA,095802.000,4005.098878,N,10513.208856,W,2,53,0.50,1582.187,M,-20.670,M,,*78
$GPGSV,3,1,10,03,67,232,46,26,56,088,44,04,55,315,36,16,47,150,43,1*62
$GPGSV,3,2,10,31,45,050,43,46,37,214,47,28,18,058,42,09,16,298,38,1*69
$GPGSV,3,3,10,06,08,316,29,29,01,046,,1*6C
$GPGSV,2,1,06,03,67,232,44,26,56,088,36,04,55,315,40,28,18,058,27,8*67
$GPGSV,2,2,06,09,16,298,26,06,08,316,19,8*60
$GLGSV,2,1,08,69,71,075,42,79,71,047,38,80,49,204,40,70,30,323,16,1*78
$GLGSV,2,2,08,68,25,122,46,78,18,033,42,86,05,328,32,85,01,282,,1*7D
$GAGSV,3,1,10,19,63,323,36,21,48,158,46,27,47,070,39,12,18,267,38,7*72
$GAGSV,3,2,10,10,17,291,33,11,10,317,28,04,09,294,38,07,09,105,39,7*79
$GAGSV,3,3,10,30,06,034,32,33,05,216,42,7*77
$GAGSV,3,1,10,19,63,323,34,21,48,158,43,27,47,070,43,12,18,267,35,1*73
$GAGSV,3,2,10,10,17,291,36,11,10,317,33,04,09,294,37,07,09,105,39,1*7F
$GAGSV,3,3,10,30,06,034,36,33,05,216,48,1*7F
$GBGSV,2,1,08,37,81,178,46,20,64,311,46,32,55,137,46,23,39,050,43,1*72
$GBGSV,2,2,08,46,26,220,50,19,15,314,36,41,03,135,44,58,,,22,1*4E
$GBGSV,2,1,07,37,81,178,42,20,64,311,35,32,55,137,39,23,39,050,26,5*72
$GBGSV,2,2,07,46,26,220,41,19,15,314,25,41,03,135,40,5*4E
$GNGGA,095807.000,4005.098956,N,10513.208892,W,2,53,0.50,1582.379,M,-20.670,M,,*7B
$GPGSV,3,1,10,03,67,232,46,26,56,088,44,04,55,315,36,16,47,150,43,1*62
$GPGSV,3,2,10,31,45,050,43,46,37,214,47,28,18,058,42,09,16,298,38,1*69
$GPGSV,3,3,10,06,08,316,32,29,01,046,,1*66
$GPGSV,2,1,06,03,67,232,44,26,56,088,36,04,55,315,40,28,18,058,25,8*65
$GPGSV,2,2,06,09,16,298,27,06,08,316,14,8*6C
$GLGSV,2,1,08,69,71,075,42,79,71,047,38,80,49,204,41,70,30,323,13,1*7C
$GLGSV,2,2,08,68,25,122,46,78,18,033,43,86,05,328,33,85,01,282,,1*7D
$GAGSV,3,1,10,19,63,323,35,21,48,158,46,27,47,070,39,12,18,267,38,7*71
$GAGSV,3,2,10,10,17,291,33,11,10,317,27,04,09,294,38,07,09,105,38,7*77
$GAGSV,3,3,10,30,06,034,32,33,05,216,40,7*75
$GAGSV,3,1,10,19,63,323,34,21,48,158,43,27,47,070,43,12,18,267,35,1*73
$GAGSV,3,2,10,10,17,291,36,11,10,317,33,04,09,294,37,07,09,105,39,1*7F
$GAGSV,3,3,10,30,06,034,36,33,05,216,48,1*7F
$GBGSV,3,1,09,37,81,178,46,20,64,311,46,32,55,137,46,23,39,050,43,1*72
$GBGSV,3,2,09,46,26,220,50,19,15,314,36,41,03,135,44,58,,,22,1*4E
$GBGSV,3,3,09,63,,,28,1*70
$GBGSV,2,1,07,37,81,178,42,20,64,311,35,32,55,137,39,23,39,050,26,5*72
$GBGSV,2,2,07,46,26,220,41,19,15,314,28,41,03,135,40,5*43
$GNGGA,095812.000,4005.098974,N,10513.208904,W,2,53,0.50,1582.522,M,-20.670,M,,*79
$GPGSV,3,1,10,03,67,232,46,26,56,088,44,04,55,315,36,16,47,150,42,1*63
$GPGSV,3,2,10,31,45,050,43,46,37,214,47,28,18,058,42,09,16,298,38,1*69
$GPGSV,3,3,10,06,08,316,33,29,01,046,,1*67
$GPGSV,2,1,06,03,67,232,44,26,56,088,36,04,55,315,40,28,18,058,26,8*66
$GPGSV,2,2,06,09,16,298,28,06,08,316,18,8*6F
$GLGSV,2,1,08,69,71,075,41,79,71,047,40,80,49,204,41,70,30,323,14,1*77
$GLGSV,2,2,08,68,25,122,46,78,18,033,43,86,05,328,34,85,01,282,,1*7A
$GAGSV,3,1,10,19,63,323,35,21,48,158,46,27,47,070,38,12,18,267,38,7*70
$GAGSV,3,2,10,10,17,291,33,11,10,317,27,04,09,294,38,07,09,105,37,7*78
$GAGSV,3,3,10,30,06,034,32,33,05,216,40,7*75
$GAGSV,3,1,10,19,63,323,34,21,48,158,43,27,47,070,43,12,18,267,35,1*73
$GAGSV,3,2,10,10,17,291,36,11,10,317,33,04,09,294,37,07,09,105,39,1*7F
$GAGSV,3,3,10,30,06,034,36,33,05,216,48,1*7F
$GBGSV,3,1,09,37,81,178,46,20,64,311,46,32,55,137,46,23,39,050,43,1*72
$GBGSV,3,2,09,46,26,220,50,19,15,314,36,41,03,135,44,58,,,22,1*4E
$GBGSV,3,3,09,63,,,28,1*70
$GBGSV,2,1,07,37,81,178,42,20,64,311,35,32,55,137,39,23,39,050,28,5*7C
$GBGSV,2,2,07,46,26,220,41,19,15,314,31,41,03,135,40,5*4B
$GNGGA,095817.000,4005.098920,N,10513.208892,W,2,53,0.50,1582.559,M,-20.670,M,,*7F
$GPGSV,3,1,10,03,67,232,46,26,56,088,44,04,55,315,36,16,47,150,42,1*63
$GPGSV,3,2,10,31,45,050,43,46,37,214,47,28,18,058,42,09,16,298,38,1*69
$GPGSV,3,3,10,06,08,316,35,29,01,046,,1*61
$GPGSV,2,1,06,03,67,232,44,26,56,088,36,04,55,315,40,28,18,058,27,8*67
$GPGSV,2,2,06,09,16,298,28,06,08,316,20,8*64
$GLGSV,2,1,08,69,71,075,42,79,71,047,40,80,49,204,41,70,30,323,15,1*75
$GLGSV,2,2,08,68,25,122,46,78,18,033,43,86,05,328,31,85,01,282,,1*7F
$GAGSV,3,1,10,19,63,323,35,21,48,158,46,27,47,070,36,12,18,267,38,7*7E
$GAGSV,3,2,10,10,17,291,33,11,10,317,27,04,10,295,38,07,09,105,37,7*71
$GAGSV,3,3,10,30,06,034,32,33,05,216,40,7*75
$GAGSV,3,1,10,19,63,323,34,21,48,158,43,27,47,070,43,12,18,267,35,1*73
$GAGSV,3,2,10,10,17,291,36,11,10,317,33,04,10,295,37,07,09,105,39,1*76
$GAGSV,3,3,10,30,06,034,36,33,05,216,48,1*7F
$GBGSV,2,1,08,37,81,178,46,20,64,311,46,32,55,137,46,23,39,050,43,1*72
$GBGSV,2,2,08,46,26,220,50,19,15,314,33,41,03,135,44,58,,,22,1*4B
$GBGSV,2,1,07,37,81,178,42,20,64,311,35,32,55,137,40,23,39,050,29,5*73
$GBGSV,2,2,07,46,26,220,41,19,15,314,32,41,03,135,40,5*48
$GNGGA,095822.000,4005.098884,N,10513.208928,W,2,53,0.50,1582.630,M,-20.670,M,,*7A
$GPGSV,3,1,10,03,67,232,46,26,56,088,44,04,55,315,36,16,47,150,42,1*63
$GPGSV,3,2,10,31,45,050,44,46,37,214,47,28,18,058,42,09,16,298,38,1*6E
$GPGSV,3,3,10,06,08,316,35,29,01,046,,1*61
$GPGSV,2,1,06,03,67,232,44,26,56,088,36,04,55,315,40,28,18,058,29,8*69
$GPGSV,2,2,06,09,16,298,28,06,08,316,21,8*65
$GLGSV,2,1,08,69,71,075,42,79,71,047,38,80,49,204,40,70,30,323,17,1*79
$GLGSV,2,2,08,68,25,122,46,78,18,033,43,86,05,328,30,85,01,282,,1*7E
$GAGSV,3,1,10,19,63,323,35,21,48,158,46,27,47,070,36,12,18,266,38,7*7F
$GAGSV,3,2,10,10,17,290,33,11,10,316,28,04,10,295,38,07,09,105,37,7*7E
$GAGSV,3,3,10,30,06,034,32,33,05,216,38,7*7A
$GAGSV,3,1,10,19,63,323,34,21,48,158,44,27,47,070,42,12,18,266,35,1*74
$GAGSV,3,2,10,10,17,290,36,11,10,316,34,04,10,295,37,07,09,105,38,1*70
$GAGSV,3,3,10,30,06,034,36,33,05,216,48,1*7F
$GBGSV,2,1,08,37,81,178,46,20,64,311,46,32,55,137,46,23,39,050,43,1*72
$GBGSV,2,2,08,46,26,220,50,19,15,314,30,41,03,135,44,58,,,23,1*49
$GBGSV,2,1,07,37,81,178,42,20,64,311,35,32,55,137,40,23,39,050,29,5*73
$GBGSV,2,2,07,46,26,220,41,19,15,314,32,41,03,135,41,5*49
$GNGGA,095827.000,4005.098866,N,10513.208958,W,2,53,0.50,1582.737,M,-20.670,M,,*72
$GPGSV,3,1,10,03,67,232,46,26,56,088,44,04,55,315,36,16,47,150,42,1*63
$GPGSV,3,2,10,31,45,050,44,46,37,214,47,28,18,058,42,09,16,298,38,1*6E
$GPGSV,3,3,10,06,08,316,37,29,01,046,,1*63
$GPGSV,2,1,06,03,67,232,44,26,56,088,36,04,55,315,40,28,18,058,29,8*69
$GPGSV,2,2,06,09,16,298,28,06,08,316,20,8*64
$GLGSV,2,1,08,69,71,075,42,79,71,047,38,80,49,204,40,70,30,323,19,1*77
$GLGSV,2,2,08,68,25,122,46,78,18,033,43,86,05,328,28,85,01,282,,1*77
$GAGSV,3,1,10,19,63,323,35,21,48,158,46,27,47,070,36,12,18,266,38,7*7F
$GAGSV,3,2,10,10,17,290,33,11,10,316,29,04,10,295,38,07,09,105,36,7*7E
$GAGSV,3,3,10,30,06,034,32,33,05,216,36,7*74
$GAGSV,3,1,10,19,63,323,34,21,48,158,44,27,47,070,42,12,18,266,35,1*74
$GAGSV,3,2,10,10,17,290,36,11,10,316,34,04,10,295,37,07,09,105,38,1*70
$GAGSV,3,3,10,30,06,034,36,33,05,216,48,1*7F
$GBGSV,2,1,08,37,81,178,46,20,64,311,46,32,55,137,46,23,39,050,43,1*72
$GBGSV,2,2,08,46,26,220,50,19,15,314,30,41,03,135,43,58,,,23,1*4E
$GBGSV,2,1,07,37,81,178,42,20,64,311,35,32,55,137,40,23,39,050,29,5*73
$GBGSV,2,2,07,46,26,220,41,19,15,314,33,41,03,135,41,5*48
$GNGGA,095832.000,4005.098866,N,10513.208976,W,2,53,0.50,1582.858,M,-20.670,M,,*7C
$GPGSV,3,1,10,03,67,232,46,26,56,088,44,04,55,315,37,16,47,150,42,1*62
$GPGSV,3,2,10,31,45,050,44,46,37,214,47,28,18,058,42,09,16,298,37,1*61
$GPGSV,3,3,10,06,08,316,38,29,01,046,,1*6C
$GPGSV,2,1,06,03,67,232,44,26,56,088,36,04,55,315,40,28,18,058,31,8*60
$GPGSV,2,2,06,09,16,298,30,06,08,316,19,8*67
$GLGSV,2,1,08,69,71,075,42,79,71,047,38,80,49,204,42,70,30,323,18,1*74
$GLGSV,2,2,08,68,25,122,46,78,18,033,43,86,05,328,20,85,01,282,,1*7F
$GAGSV,3,1,10,19,64,325,36,21,49,157,46,27,47,070,36,12,18,266,38,7*73
$GAGSV,3,2,10,10,17,290,33,11,10,316,30,04,10,295,38,07,09,105,36,7*76
$GAGSV,3,3,10,30,06,034,31,33,05,216,37,7*76
$GAGSV,3,1,10,19,64,325,34,21,49,157,44,27,47,070,42,12,18,266,35,1*7B
$GAGSV,3,2,10,10,17,290,36,11,10,316,34,04,10,295,37,07,09,105,38,1*70
$GAGSV,3,3,10,30,06,034,36,33,05,216,48,1*7F
$GBGSV,2,1,08,37,81,178,46,20,64,311,46,32,55,137,46,23,39,050,43,1*72
$GBGSV,2,2,08,46,26,220,50,19,15,314,32,41,03,135,43,58,,,23,1*4C
$GBGSV,2,1,07,37,81,178,42,20,64,311,35,32,55,137,40,23,39,050,29,5*73
$GBGSV,2,2,07,46,26,220,41,19,15,314,33,41,03,135,41,5*48
$GNGGA,095837.000,4005.098872,N,10513.208952,W,2,53,0.50,1582.870,M,-20.670,M,,*70
$GPGSV,3,1,10,03,67,232,46,26,56,088,44,04,55,315,37,16,47,150,41,1*61
$GPGSV,3,2,10,31,45,050,45,46,37,214,47,28,18,058,42,09,16,298,37,1*60
$GPGSV,3,3,10,06,08,316,38,29,01,046,,1*6C
$GPGSV,2,1,06,03,67,232,44,26,56,088,36,04,55,315,40,28,18,058,31,8*60
$GPGSV,2,2,06,09,16,298,30,06,08,316,18,8*66
$GLGSV,2,1,08,69,71,075,42,79,71,047,39,80,49,204,43,70,30,323,17,1*7B
$GLGSV,2,2,08,68,25,122,46,78,18,033,43,86,05,328,22,85,01,282,,1*7D
$GAGSV,3,1,10,19,64,325,36,21,49,157,46,27,47,068,36,12,18,266,38,7*7A
$GAGSV,3,2,10,10,17,290,34,11,10,316,31,04,10,295,38,07,09,105,36,7*70
$GAGSV,3,3,10,30,06,034,31,33,05,216,36,7*77
$GAGSV,3,1,10,19,64,325,33,21,49,157,44,27,47,068,42,12,18,266,34,1*74
$GAGSV,3,2,10,10,17,290,36,11,10,316,34,04,10,295,37,07,09,105,38,1*70
$GAGSV,3,3,10,30,06,034,36,33,05,216,48,1*7F
$GBGSV,2,1,08,37,81,178,46,20,64,311,46,32,55,137,46,23,39,050,43,1*72
$GBGSV,2,2,08,46,26,220,50,19,15,314,34,41,03,135,42,58,,,23,1*4B
$GBGSV,2,1,07,37,81,178,42,20,64,311,35,32,55,137,40,23,39,050,30,5*7B
$GBGSV,2,2,07,46,26,220,42,19,15,314,32,41,03,135,42,5*49
$GNGGA,095842.000,4005.098806,N,10513.208922,W,2,53,0.50,1582.851,M,-20.670,M,,*75
$GPGSV,3,1,10,03,67,232,46,26,56,088,44,04,55,315,37,16,47,150,41,1*61
$GPGSV,3,2,10,31,45,050,45,46,37,214,47,28,18,058,42,09,16,298,35,1*62
$GPGSV,3,3,10,06,08,316,37,29,01,046,,1*63
$GPGSV,2,1,06,03,67,232,44,26,56,088,36,04,55,315,40,28,18,058,30,8*61
$GPGSV,2,2,06,09,16,298,31,06,08,316,18,8*67
$GLGSV,2,1,08,69,71,075,42,79,71,047,39,80,49,204,43,70,30,323,18,1*74
$GLGSV,2,2,08,68,25,122,46,78,18,033,43,86,05,328,22,85,01,282,,1*7D
$GAGSV,3,1,10,19,64,325,36,21,49,157,46,27,47,068,37,12,18,266,37,7*74
$GAGSV,3,2,10,10,17,290,35,11,10,316,31,04,10,295,38,07,09,105,36,7*71
$GAGSV,3,3,10,30,06,034,30,33,05,216,36,7*76
$GAGSV,3,1,10,19,64,325,33,21,49,157,44,27,47,068,42,12,18,266,34,1*74
$GAGSV,3,2,10,10,17,290,36,11,10,316,34,04,10,295,37,07,09,105,38,1*70
$GAGSV,3,3,10,30,06,034,36,33,05,216,48,1*7F
$GBGSV,2,1,08,37,81,178,46,20,64,311,46,32,55,137,46,23,39,050,43,1*72
$GBGSV,2,2,08,46,26,220,50,19,15,314,36,41,03,135,41,58,,,23,1*4A
$GBGSV,2,1,07,37,81,178,42,20,64,311,35,32,55,137,40,23,39,050,30,5*7B
$GBGSV,2,2,07,46,26,220,42,19,15,314,30,41,03,135,42,5*4B
$GNGGA,095847.000,4005.098740,N,10513.208868,W,2,53,0.50,1582.775,M,-20.670,M,,*7B
$GPGSV,3,1,10,03,67,232,46,26,56,088,44,04,55,315,37,16,47,150,40,1*60
$GPGSV,3,2,10,31,45,050,45,46,37,214,47,28,18,058,42,09,16,298,35,1*62
$GPGSV,3,3,10,06,08,316,36,29,01,046,,1*62
$GPGSV,2,1,06,03,67,232,44,26,56,088,37,04,55,315,40,28,18,058,30,8*60
$GPGSV,2,2,06,09,16,298,33,06,08,316,21,8*6F
$GLGSV,2,1,08,69,71,075,41,79,71,047,39,80,49,204,42,70,30,323,19,1*77
$GLGSV,2,2,08,68,25,122,46,78,18,033,43,86,05,328,21,85,01,282,,1*7E
$GAGSV,3,1,10,19,64,325,36,21,49,157,46,27,47,068,37,12,18,266,37,7*74
$GAGSV,3,2,10,10,17,290,35,11,10,316,31,04,10,295,38,07,09,105,37,7*70
$GAGSV,3,3,10,30,06,034,30,33,05,216,38,7*78
$GAGSV,3,1,10,19,64,325,34,21,49,157,44,27,47,068,42,12,18,266,35,1*72
$GAGSV,3,2,10,10,17,290,37,11,10,316,34,04,10,295,37,07,09,105,38,1*71
$GAGSV,3,3,10,30,06,034,36,33,05,216,48,1*7F
$GBGSV,3,1,09,37,81,178,46,20,64,311,46,32,55,137,45,23,39,050,43,1*71
$GBGSV,3,2,09,46,26,220,50,19,15,314,37,41,03,135,41,63,,,30,1*41
$GBGSV,3,3,09,58,,,22,1*72
$GBGSV,2,1,07,37,81,178,42,20,64,311,35,32,55,137,41,23,39,050,31,5*7B
$GBGSV,2,2,07,46,26,220,42,19,15,314,29,41,03,135,43,5*42
$GNGGA,095852.000,4005.098710,N,10513.208838,W,2,53,0.50,1582.749,M,-20.670,M,,*70
$GPGSV,3,1,10,03,67,232,46,26,56,088,44,04,55,315,37,16,47,150,40,1*60
$GPGSV,3,2,10,31,45,050,45,46,37,214,47,28,18,058,42,09,16,298,35,1*62
$GPGSV,3,3,10,06,08,316,36,29,01,046,,1*62
$GPGSV,2,1,06,03,67,232,44,26,56,088,37,04,55,315,40,28,18,058,30,8*60
$GPGSV,2,2,06,09,16,298,33,06,08,316,23,8*6D
$GLGSV,2,1,08,79,71,047,39,69,70,080,40,80,49,204,42,70,32,324,19,1*78
$GLGSV,2,2,08,68,24,124,46,78,18,033,43,86,05,328,23,85,01,282,,1*7B
$GAGSV,3,1,10,19,64,325,36,21,49,157,46,27,47,068,37,12,18,266,37,7*74
$GAGSV,3,2,10,10,17,290,35,11,10,316,30,04,10,295,38,07,09,105,37,7*71
$GAGSV,3,3,10,30,06,034,30,33,05,216,34,7*74
$GAGSV,3,1,10,19,64,325,34,21,49,157,44,27,47,068,42,12,18,266,35,1*72
$GAGSV,3,2,10,10,17,290,37,11,10,316,34,04,10,295,37,07,09,105,38,1*71
$GAGSV,3,3,10,30,06,034,36,33,05,216,48,1*7F
$GBGSV,3,1,09,37,81,178,46,20,64,311,46,32,55,137,45,23,39,050,44,1*76
$GBGSV,3,2,09,46,26,220,50,19,15,314,37,41,03,135,41,63,,,30,1*41
$GBGSV,3,3,09,58,,,22,1*72
$GBGSV,2,1,07,37,81,178,42,20,64,311,35,32,55,137,41,23,39,050,31,5*7B
$GBGSV,2,2,07,46,26,220,42,19,15,314,27,41,03,135,43,5*4C
$GNGGA,095857.000,4005.098752,N,10513.208820,W,2,53,0.50,1582.724,M,-20.669,M,,*79
$GPGSV,3,1,10,03,67,232,46,26,56,088,44,04,55,315,37,16,47,150,40,1*60
$GPGSV,3,2,10,31,45,050,45,46,37,214,47,28,18,058,42,09,16,298,35,1*62
$GPGSV,3,3,10,06,08,316,37,29,01,046,,1*63
$GPGSV,2,1,06,03,67,232,44,26,56,088,38,04,55,315,40,28,18,058,31,8*6E
$GPGSV,2,2,06,09,16,298,34,06,08,316,25,8*6C
$GLGSV,2,1,08,79,71,047,39,69,70,080,41,80,49,204,43,70,32,324,18,1*79
$GLGSV,2,2,08,68,24,124,46,78,18,033,43,86,05,328,24,85,01,282,,1*7C
$GAGSV,3,1,10,19,64,325,36,21,49,157,46,27,47,068,37,12,18,266,37,7*74
$GAGSV,3,2,10,10,17,290,35,11,10,316,28,04,10,295,38,07,09,105,35,7*7A
$GAGSV,3,3,10,30,06,034,30,33,05,216,38,7*78
$GAGSV,3,1,10,19,64,325,34,21,49,157,44,27,47,068,42,12,18,266,35,1*72
$GAGSV,3,2,10,10,17,290,37,11,10,316,35,04,10,295,37,07,09,105,38,1*70
$GAGSV,3,3,10,30,06,034,36,33,05,216,48,1*7F
$GBGSV,3,1,09,37,81,178,46,20,64,311,46,32,55,137,45,23,39,050,44,1*76
$GBGSV,3,2,09,46,26,220,50,19,15,314,37,41,03,135,40,63,,,28,1*49
$GBGSV,3,3,09,58,,,22,1*72
$GBGSV,2,1,07,37,81,178,42,20,64,311,35,32,55,137,41,23,39,050,32,5*78
$GBGSV,2,2,07,46,26,220,43,19,15,314,26,41,03,135,43,5*4C
$GNGGA,095902.000,4005.098848,N,10513.208802,W,2,53,0.50,1582.630,M,-20.670,M,,*70
$GPGSV,3,1,10,03,67,232,46,26,56,088,44,04,55,315,37,16,47,150,40,1*60
$GPGSV,3,2,10,31,45,050,45,46,37,214,47,28,18,058,42,09,16,298,35,1*62
$GPGSV,3,3,10,06,08,316,37,29,01,046,,1*63
$GPGSV,2,1,06,03,67,232,44,26,56,088,38,04,55,315,40,28,18,058,31,8*6E
$GPGSV,2,2,06,09,16,298,34,06,08,316,26,8*6F
$GLGSV,2,1,08,69,70,080,41,79,70,045,40,80,50,205,43,70,32,324,18,1*7D
$GLGSV,2,2,08,68,24,124,46,78,17,033,43,86,05,328,20,85,01,282,,1*77
$GAGSV,3,1,10,19,64,325,36,21,49,157,46,27,47,068,37,12,18,266,37,7*74
$GAGSV,3,2,10,10,17,290,34,11,10,316,28,04,10,295,38,07,09,105,34,7*7A
$GAGSV,3,3,10,30,06,034,30,33,05,216,38,7*78
$GAGSV,3,1,10,19,64,325,34,21,49,157,44,27,47,068,42,12,18,266,35,1*72
$GAGSV,3,2,10,10,17,290,36,11,10,316,35,04,10,295,37,07,09,105,38,1*71
$GAGSV,3,3,10,30,06,034,36,33,05,216,48,1*7F
$GBGSV,2,1,08,37,81,178,46,20,64,311,46,32,55,137,45,23,39,050,44,1*76
$GBGSV,2,2,08,46,26,220,50,19,15,314,36,41,03,135,40,58,,,22,1*4A
$GBGSV,2,1,07,37,81,178,42,20,64,311,35,32,55,137,41,23,39,050,32,5*78
$GBGSV,2,2,07,46,26,220,43,19,15,314,26,41,03,135,43,5*4C
$GNGGA,095907.000,4005.098866,N,10513.208826,W,2,53,0.50,1582.593,M,-20.670,M,,*75
$GPGSV,3,1,10,03,67,232,46,26,56,088,44,04,55,315,37,16,47,150,40,1*60
$GPGSV,3,2,10,31,45,050,45,46,37,214,47,28,18,058,42,09,16,298,35,1*62
$GPGSV,3,3,10,06,08,316,37,29,01,046,,1*63
$GPGSV,2,1,06,03,67,232,44,26,56,088,38,04,55,315,40,28,18,058,32,8*6D
$GPGSV,2,2,06,09,16,298,34,06,08,316,27,8*6E
$GLGSV,2,1,08,69,70,080,41,79,70,045,40,80,50,205,43,70,32,324,18,1*7D
$GLGSV,2,2,08,68,24,124,46,78,17,033,43,86,05,327,18,85,01,281,,1*70
$GAGSV,3,1,10,19,64,325,36,21,49,157,46,27,47,068,37,12,18,266,37,7*74
$GAGSV,3,2,10,10,17,290,34,11,10,316,28,04,10,295,38,07,09,105,33,7*7D
$GAGSV,3,3,10,30,06,034,30,33,05,216,36,7*76
$GAGSV,3,1,10,19,64,325,34,21,49,157,44,27,47,068,42,12,18,266,35,1*72
$GAGSV,3,2,10,10,17,290,36,11,10,316,35,04,10,295,38,07,09,105,38,1*7E
$GAGSV,3,3,10,30,06,034,35,33,05,216,48,1*7C
$GBGSV,2,1,08,37,81,178,46,20,64,311,46,32,55,137,45,23,39,050,45,1*77
$GBGSV,2,2,08,46,26,220,50,19,15,314,36,41,03,135,39,58,,,22,1*44
$GBGSV,2,1,07,37,81,178,42,20,64,311,35,32,55,137,41,23,39,050,32,5*78
$GBGSV,2,2,07,46,26,220,43,19,15,314,25,41,03,135,43,5*4F
$GNGGA,095912.000,4005.098890,N,10513.208874,W,2,53,0.50,1582.705,M,-20.670,M,,*72
$GPGSV,3,1,10,03,67,232,46,26,56,088,44,04,55,315,37,16,47,150,40,1*60
$GPGSV,3,2,10,31,45,050,45,46,37,214,47,28,18,058,42,09,16,298,35,1*62
$GPGSV,3,3,10,06,08,316,37,29,01,046,,1*63
$GPGSV,2,1,06,03,67,232,44,26,56,088,38,04,55,315,40,28,18,058,32,8*6D
$GPGSV,2,2,06,09,16,298,35,06,08,316,28,8*60
$GLGSV,2,1,08,69,70,080,41,79,70,045,39,80,50,205,42,70,32,324,18,1*72
$GLGSV,2,2,08,68,24,124,46,78,17,033,43,86,05,327,16,85,01,281,,1*7E
$GAGSV,3,1,10,19,64,325,36,21,49,157,46,27,47,068,37,12,18,266,37,7*74
$GAGSV,3,2,10,10,17,290,34,11,10,316,29,04,10,295,38,07,09,105,32,7*7D
$GAGSV,3,3,10,30,06,034,30,33,05,216,38,7*78
$GAGSV,3,1,10,19,64,325,34,21,49,157,44,27,47,068,42,12,18,266,35,1*72
$GAGSV,3,2,10,10,17,290,35,11,10,316,35,04,10,295,38,07,09,105,37,1*72
$GAGSV,3,3,10,30,06,034,35,33,05,216,48,1*7C
$GBGSV,2,1,08,37,81,178,46,20,64,311,45,32,55,137,44,23,39,050,45,1*75
$GBGSV,2,2,08,46,26,220,50,19,15,314,35,41,03,135,39,58,,,23,1*46
$GBGSV,2,1,07,37,81,178,42,20,64,311,35,32,55,137,41,23,39,050,33,5*79
$GBGSV,2,2,07,46,26,220,43,19,15,314,24,41,03,135,43,5*4E
$GNGGA,095917.000,4005.098968,N,10513.208922,W,2,53,0.50,1582.902,M,-20.670,M,,*7A
$GPGSV,3,1,10,03,67,232,46,26,56,088,44,04,55,315,36,16,47,150,39,1*6F
$GPGSV,3,2,10,31,45,050,45,46,37,214,47,28,18,058,42,09,16,298,35,1*62
$GPGSV,3,3,10,06,08,316,37,29,01,046,,1*63
$GPGSV,2,1,06,03,67,232,44,26,56,088,38,04,55,315,40,28,18,058,32,8*6D
$GPGSV,2,2,06,09,16,298,35,06,08,316,28,8*60
$GLGSV,2,1,08,69,70,080,40,79,70,045,39,80,50,205,42,70,32,324,18,1*73
$GLGSV,2,2,08,68,24,124,46,78,17,033,43,86,05,327,22,85,01,281,,1*79
$GAGSV,3,1,10,19,64,325,35,21,49,157,46,27,47,068,36,12,18,266,37,7*76
$GAGSV,3,2,10,10,17,290,34,11,10,316,31,04,10,295,39,07,09,105,30,7*77
$GAGSV,3,3,10,30,06,034,29,33,05,216,39,7*71
$GAGSV,3,1,10,19,64,325,34,21,49,157,44,27,47,068,42,12,18,266,35,1*72
$GAGSV,3,2,10,10,17,290,35,11,10,316,34,04,10,295,38,07,09,105,37,1*73
$GAGSV,3,3,10,30,06,034,34,33,05,216,48,1*7D
$GBGSV,2,1,08,37,81,178,46,20,64,311,45,32,55,137,44,23,39,050,45,1*75
$GBGSV,2,2,08,46,26,220,50,19,15,314,36,41,03,135,39,58,,,23,1*45
$GBGSV,2,1,07,37,81,178,42,20,64,311,35,32,55,137,41,23,39,050,34,5*7E
$GBGSV,2,2,07,46,26,220,43,19,15,314,23,41,03,135,43,5*49
$GNGGA,095922.000,4005.098998,N,10513.208916,W,2,53,0.50,1582.994,M,-20.669,M,,*73
$GPGSV,3,1,10,03,67,232,46,26,56,088,44,04,55,315,35,16,47,150,39,1*6C
$GPGSV,3,2,10,31,45,050,45,46,37,214,47,28,18,058,41,09,16,298,35,1*61
$GPGSV,3,3,10,06,08,316,37,29,01,046,,1*63
$GPGSV,2,1,06,03,67,232,44,26,56,088,37,04,55,315,40,28,18,058,32,8*62
$GPGSV,2,2,06,09,16,298,35,06,08,316,27,8*6F
$GLGSV,2,1,08,69,70,080,40,79,70,045,39,80,50,205,43,70,32,324,18,1*72
$GLGSV,2,2,08,68,24,124,46,78,17,033,43,86,05,327,23,85,01,281,,1*78
$GAGSV,3,1,10,19,64,325,35,21,49,157,46,27,47,068,36,12,18,266,37,7*76
$GAGSV,3,2,10,10,17,290,35,11,10,316,31,04,10,295,39,07,09,105,29,7*7E
$GAGSV,3,3,10,30,06,034,29,33,05,216,39,7*71
$GAGSV,3,1,10,19,64,325,33,21,49,157,44,27,47,068,42,12,18,266,35,1*75
$GAGSV,3,2,10,10,17,290,34,11,10,316,33,04,10,295,37,07,09,105,36,1*7B
$GAGSV,3,3,10,30,06,034,33,33,05,216,47,1*75
$GBGSV,2,1,08,37,81,178,46,20,64,311,46,32,55,137,44,23,39,050,45,1*76
$GBGSV,2,2,08,46,26,220,50,19,15,314,38,41,03,135,40,58,,,21,1*47
$GBGSV,2,1,07,37,81,178,41,20,64,311,35,32,55,137,41,23,39,050,34,5*7D
$GBGSV,2,2,07,46,26,220,43,19,15,314,23,41,03,135,44,5*4E
$GNGGA,095927.000,4005.098956,N,10513.208940,W,2,53,0.50,1582.960,M,-20.669,M,,*7C
$GPGSV,3,1,10,03,67,232,46,26,56,088,44,04,55,315,35,16,47,150,39,1*6C
$GPGSV,3,2,10,31,45,050,45,46,37,214,47,28,18,058,41,09,16,298,35,1*61
$GPGSV,3,3,10,06,08,316,36,29,01,046,,1*62
$GPGSV,2,1,06,03,67,232,44,26,56,088,37,04,55,315,40,28,18,058,32,8*62
$GPGSV,2,2,06,09,16,298,35,06,08,316,28,8*60
$GLGSV,2,1,08,69,70,080,41,79,70,045,40,80,50,205,43,70,32,324,18,1*7D
$GLGSV,2,2,08,68,24,124,46,78,17,033,43,86,05,327,28,85,01,281,,1*73
$GAGSV,3,1,10,19,64,325,35,21,49,157,46,27,47,068,36,12,18,266,36,7*77
$GAGSV,3,2,10,10,17,290,36,11,10,316,31,04,10,295,39,07,09,105,29,7*7D
$GAGSV,3,3,10,30,06,034,28,33,05,216,40,7*7E
$GAGSV,3,1,10,19,64,325,33,21,49,157,44,27,47,068,42,12,18,266,35,1*75
$GAGSV,3,2,10,10,17,290,34,11,10,316,33,04,10,295,37,07,09,105,36,1*7B
$GAGSV,3,3,10,30,06,034,33,33,05,216,47,1*75
$GBGSV,2,1,08,37,81,178,46,20,64,311,46,32,55,137,44,23,39,050,45,1*76
$GBGSV,2,2,08,46,26,220,50,19,15,314,39,41,03,135,41,58,,,22,1*44
$GBGSV,2,1,07,37,81,178,41,20,64,311,35,32,55,137,42,23,39,050,34,5*7E
$GBGSV,2,2,07,46,26,220,44,19,15,314,25,41,03,135,44,5*4F
$GNGGA,095932.000,4005.098938,N,10513.208952,W,2,53,0.50,1582.913,M,-20.670,M,,*7F
$GPGSV,3,1,10,03,67,232,46,26,56,088,44,04,55,315,35,16,47,150,39,1*6C
$GPGSV,3,2,10,31,45,050,45,46,37,214,47,28,18,058,41,09,16,298,35,1*61
$GPGSV,3,3,10,06,08,316,34,29,01,046,,1*60
$GPGSV,2,1,06,03,67,232,44,26,56,088,37,04,55,315,40,28,18,058,32,8*62
$GPGSV,2,2,06,09,16,298,35,06,08,316,29,8*61
$GLGSV,2,1,08,69,70,080,41,79,70,045,40,80,50,205,44,70,32,324,17,1*75
$GLGSV,2,2,08,68,24,124,46,78,17,033,43,86,05,327,28,85,01,281,,1*73
$GAGSV,3,1,10,19,64,325,34,21,49,157,46,27,47,068,37,12,18,266,35,7*74
$GAGSV,3,2,10,10,17,290,36,11,10,316,30,04,10,295,39,07,09,105,29,7*7C
$GAGSV,3,3,10,30,06,034,28,33,05,216,40,7*7E
$GAGSV,3,1,10,19,64,325,33,21,49,157,44,27,47,068,42,12,18,266,35,1*75
$GAGSV,3,2,10,10,17,290,34,11,10,316,33,04,10,295,37,07,09,105,36,1*7B
$GAGSV,3,3,10,30,06,034,33,33,05,216,47,1*75
$GBGSV,2,1,08,37,81,178,46,20,65,311,46,32,55,137,44,23,38,050,45,1*76
$GBGSV,2,2,08,46,26,220,50,19,16,314,40,41,03,135,41,58,,,22,1*49
$GBGSV,2,1,07,37,81,178,41,20,65,311,35,32,55,137,42,23,38,050,35,5*7F
$GBGSV,2,2,07,46,26,220,44,19,16,314,27,41,03,135,44,5*4E
$GNGGA,095937.000,4005.098962,N,10513.208886,W,2,53,0.50,1582.856,M,-20.670,M,,*7D
$GPGSV,3,1,10,03,67,232,46,26,56,088,44,04,55,315,35,16,47,150,39,1*6C
$GPGSV,3,2,10,31,45,050,45,46,37,214,47,28,18,058,41,09,16,298,35,1*61
$GPGSV,3,3,10,06,08,316,33,29,01,046,,1*67
$GPGSV,2,1,06,03,67,232,44,26,56,088,37,04,55,315,40,28,18,058,33,8*63
$GPGSV,2,2,06,09,16,298,36,06,08,316,29,8*62
$GLGSV,2,1,08,69,70,080,42,79,70,045,40,80,50,205,45,70,32,324,17,1*77
$GLGSV,2,2,08,68,24,124,46,78,17,033,43,86,05,327,29,85,01,281,,1*72
$GAGSV,3,1,10,19,64,325,34,21,49,157,46,27,47,068,38,12,18,266,36,7*78
$GAGSV,3,2,10,10,17,290,36,11,10,316,30,04,10,295,39,07,09,105,30,7*74
$GAGSV,3,3,10,30,06,034,28,33,05,216,40,7*7E
$GAGSV,3,1,10,19,64,325,34,21,49,157,44,27,47,068,42,12,18,266,35,1*72
$GAGSV,3,2,10,10,17,290,34,11,10,316,33,04,10,295,37,07,09,105,36,1*7B
$GAGSV,3,3,10,30,06,034,32,33,05,216,47,1*74
$GBGSV,2,1,08,37,81,178,46,20,65,311,46,32,55,137,44,23,38,050,45,1*76
$GBGSV,2,2,08,46,26,220,50,19,16,314,41,41,03,135,41,58,,,21,1*4B
$GBGSV,2,1,07,37,81,178,41,20,65,311,35,32,55,137,42,23,38,050,35,5*7F
$GBGSV,2,2,07,46,26,220,44,19,16,314,29,41,03,135,44,5*40
$GNGGA,095942.000,4005.098998,N,10513.208838,W,2,53,0.50,1582.812,M,-20.670,M,,*7F
$GPGSV,3,1,10,03,67,232,46,26,56,088,43,04,55,315,35,16,47,150,39,1*6B
$GPGSV,3,2,10,31,45,050,45,46,37,214,47,28,18,058,41,09,16,298,34,1*60
$GPGSV,3,3,10,06,08,316,31,29,01,046,,1*65
$GPGSV,2,1,06,03,67,232,45,26,56,088,37,04,55,315,40,28,18,058,33,8*62
$GPGSV,2,2,06,09,16,298,36,06,08,316,29,8*62
$GLGSV,2,1,08,69,70,080,42,79,70,045,40,80,50,205,45,70,32,324,16,1*76
$GLGSV,2,2,08,68,24,124,46,78,17,033,43,86,05,327,28,85,01,281,,1*73
$GAGSV,3,1,10,19,64,325,34,21,49,157,46,27,47,068,38,12,18,266,36,7*78
$GAGSV,3,2,10,10,17,290,36,11,10,316,29,04,10,295,38,07,09,105,30,7*7D
$GAGSV,3,3,10,30,06,034,28,33,05,216,41,7*7F
$GAGSV,3,1,10,19,64,325,34,21,49,157,45,27,47,068,42,12,18,266,35,1*73
$GAGSV,3,2,10,10,17,290,34,11,10,316,34,04,10,295,37,07,09,105,36,1*7C
$GAGSV,3,3,10,30,06,034,31,33,05,216,47,1*77
$GBGSV,2,1,08,37,81,178,46,20,65,311,46,32,54,138,44,23,38,050,45,1*78
$GBGSV,2,2,08,46,26,220,50,19,16,314,41,41,03,135,41,58,,,22,1*48
$GBGSV,2,1,07,37,81,178,41,20,65,311,35,32,54,138,42,23,38,050,36,5*72
$GBGSV,2,2,07,46,26,220,44,19,16,314,31,41,03,135,44,5*49
$GNGGA,095947.000,4005.099016,N,10513.208772,W,2,52,0.50,1582.761,M,-20.670,M,,*7F
$GPGSV,3,1,10,03,67,232,46,26,56,088,43,04,55,315,35,16,47,150,41,1*64
$GPGSV,3,2,10,31,45,050,45,46,37,214,47,28,18,058,41,09,16,298,34,1*60
$GPGSV,3,3,10,06,08,316,32,29,01,046,,1*66
$GPGSV,2,1,06,03,67,232,45,26,56,088,37,04,55,315,40,28,18,058,33,8*62
$GPGSV,2,2,06,09,16,298,36,06,08,316,28,8*63
$GLGSV,2,1,08,69,70,080,42,79,70,045,40,80,50,205,45,70,32,324,15,1*75
$GLGSV,2,2,08,68,24,124,46,78,17,033,43,86,05,327,29,85,01,281,,1*72
$GAGSV,3,1,10,19,64,325,35,21,49,157,46,27,47,068,39,12,18,266,37,7*79
$GAGSV,3,2,10,10,17,290,36,11,10,316,28,04,10,295,38,07,09,105,26,7*7B
$GAGSV,3,3,10,30,06,034,28,33,05,216,41,7*7F
$GAGSV,3,1,10,19,64,325,34,21,49,157,45,27,47,068,42,12,18,266,35,1*73
$GAGSV,3,2,10,10,17,290,34,11,10,316,34,04,10,295,37,07,09,105,36,1*7C
$GAGSV,3,3,10,30,06,034,31,33,05,216,47,1*77
$GBGSV,2,1,08,37,82,175,46,20,65,311,46,32,54,138,44,23,38,050,45,1*76
$GBGSV,2,2,08,46,26,220,50,19,16,314,41,41,03,135,42,58,,,21,1*48
$GBGSV,2,1,07,37,82,175,41,20,65,311,34,32,54,138,42,23,38,050,36,5*7D
$GBGSV,2,2,07,46,26,220,44,19,16,314,31,41,03,135,44,5*49
$GNGGA,095952.000,4005.099004,N,10513.208730,W,2,53,0.50,1582.707,M,-20.670,M,,*7F
$GPGSV,3,1,10,03,67,232,46,26,56,088,43,04,55,315,35,16,47,150,41,1*64
$GPGSV,3,2,10,31,45,050,45,46,37,214,47,28,18,058,41,09,16,298,35,1*61
$GPGSV,3,3,10,06,08,316,33,29,01,046,,1*67
$GPGSV,2,1,06,03,67,232,45,26,56,088,37,04,55,315,40,28,18,058,34,8*65
$GPGSV,2,2,06,09,16,298,36,06,08,316,26,8*6D
$GLGSV,2,1,08,69,70,080,42,79,70,045,40,80,50,205,45,70,32,324,17,1*77
$GLGSV,2,2,08,68,24,124,46,78,17,033,43,86,05,327,28,85,01,281,,1*73
$GAGSV,3,1,10,19,64,325,35,21,49,157,46,27,47,068,39,12,18,266,35,7*7B
$GAGSV,3,2,10,10,17,290,36,11,10,316,25,04,10,295,38,07,09,105,23,7*73
$GAGSV,3,3,10,30,06,034,28,33,05,216,43,7*7D
$GAGSV,3,1,10,19,64,325,34,21,49,157,45,27,47,068,42,12,18,266,35,1*73
$GAGSV,3,2,10,10,17,290,34,11,10,316,34,04,10,295,37,07,09,105,36,1*7C
$GAGSV,3,3,10,30,06,034,31,33,05,216,47,1*77
$GBGSV,2,1,08,37,82,175,46,20,65,311,46,32,54,138,44,23,38,050,45,1*76
$GBGSV,2,2,08,46,26,220,50,19,16,314,40,41,02,135,42,58,,,21,1*48
$GBGSV,2,1,07,37,82,175,41,20,65,311,34,32,54,138,42,23,38,050,36,5*7D
$GBGSV,2,2,07,46,26,220,44,19,16,314,32,41,02,135,44,5*4B
$GNGGA,095957.000,4005.099004,N,10513.208718,W,2,52,0.50,1582.738,M,-20.669,M,,*75
$GPGSV,3,1,10,03,67,232,46,26,56,088,43,04,55,315,36,16,47,150,41,1*67
$GPGSV,3,2,10,31,45,050,45,46,37,214,47,28,18,058,40,09,16,298,35,1*60
$GPGSV,3,3,10,06,08,316,34,29,01,046,,1*60
$GPGSV,2,1,06,03,67,232,44,26,56,088,37,04,55,315,39,28,18,058,33,8*6D
$GPGSV,2,2,06,09,16,298,36,06,08,316,26,8*6D
$GLGSV,2,1,08,69,70,080,42,79,70,045,38,80,50,205,45,70,32,324,16,1*79
$GLGSV,2,2,08,68,24,124,46,78,17,033,43,86,05,327,27,85,01,281,,1*7C
$GAGSV,3,1,10,19,64,325,35,21,49,157,46,27,47,068,38,12,18,266,35,7*7A
$GAGSV,3,2,10,10,17,290,36,11,10,316,20,04,10,295,38,07,09,105,25,7*70
$GAGSV,3,3,10,30,06,034,28,33,05,216,43,7*7D
$GAGSV,3,1,10,19,64,325,33,21,49,157,44,27,47,068,41,12,18,266,34,1*77
$GAGSV,3,2,10,10,17,290,33,11,10,316,33,04,10,295,36,07,09,105,36,1*7D
$GAGSV,3,3,10,30,06,034,30,33,05,216,46,1*77
$GBGSV,2,1,08,37,82,175,46,20,65,311,46,32,54,138,44,23,38,050,45,1*76
$GBGSV,2,2,08,46,27,220,50,19,16,314,37,41,02,135,43,58,,,21,1*48
$GBGSV,2,1,07,37,82,175,41,20,65,311,33,32,54,138,42,23,38,050,35,5*79
$GBGSV,2,2,07,46,27,220,44,19,16,314,31,41,02,135,44,5*49
$GNGGA,100002.000,4005.099016,N,10513.208670,W,2,52,0.50,1582.822,M,-20.669,M,,*79
$GPGSV,3,1,10,03,67,232,46,26,56,088,43,04,55,315,36,16,47,150,41,1*67
$GPGSV,3,2,10,31,45,050,45,46,37,214,47,28,18,058,40,09,16,298,35,1*60
$GPGSV,3,3,10,06,08,316,35,29,01,046,,1*61
$GPGSV,2,1,06,03,67,232,44,26,56,088,38,04,55,315,40,28,18,058,34,8*6B
$GPGSV,2,2,06,09,16,298,36,06,08,316,25,8*6E
$GLGSV,2,1,08,69,70,080,42,79,70,045,38,80,50,205,45,70,32,324,19,1*76
$GLGSV,2,2,08,68,24,124,46,78,17,033,43,86,05,327,25,85,01,281,,1*7E
$GAGSV,3,1,10,19,64,325,35,21,49,157,46,27,47,068,38,12,18,266,35,7*7A
$GAGSV,3,2,10,10,17,290,36,11,10,316,22,04,10,295,38,07,09,105,25,7*72
$GAGSV,3,3,10,30,06,034,28,33,05,216,43,7*7D
$GAGSV,3,1,10,19,64,325,33,21,49,157,45,27,47,068,41,12,18,266,35,1*77
$GAGSV,3,2,10,10,17,290,34,11,10,316,33,04,10,295,36,07,09,105,36,1*7A
$GAGSV,3,3,10,30,06,034,30,33,05,216,46,1*77
$GBGSV,2,1,08,37,82,175,45,20,65,311,46,32,54,138,43,23,38,050,45,1*72
$GBGSV,2,2,08,46,27,220,50,19,16,314,35,41,02,135,44,58,,,21,1*4D
$GBGSV,2,1,07,37,82,175,41,20,65,311,33,32,54,138,43,23,38,050,36,5*7B
$GBGSV,2,2,07,46,27,220,44,19,16,314,32,41,02,135,45,5*4B
$GNGGA,100007.000,4005.099076,N,10513.208652,W,2,53,0.50,1582.895,M,-20.670,M,,*7F
$GPGSV,3,1,10,03,67,232,46,26,56,088,43,04,55,315,36,16,47,150,41,1*67
$GPGSV,3,2,10,31,45,050,45,46,37,214,47,28,18,058,40,09,16,298,35,1*60
$GPGSV,3,3,10,06,08,316,36,29,01,046,,1*62
$GPGSV,2,1,06,03,67,232,44,26,56,088,37,04,55,315,40,28,18,058,34,8*64
$GPGSV,2,2,06,09,16,298,36,06,08,316,25,8*6E
$GLGSV,2,1,08,69,70,080,41,79,70,045,40,80,50,205,45,70,32,324,19,1*7A
$GLGSV,2,2,08,68,24,124,46,78,17,033,44,86,05,327,28,85,01,281,,1*74
$GAGSV,3,1,10,19,64,325,35,21,49,157,46,27,47,068,38,12,18,266,35,7*7A
$GAGSV,3,2,10,10,17,290,36,11,10,316,25,04,10,295,38,07,09,105,23,7*73
$GAGSV,3,3,10,30,06,034,28,33,05,216,44,7*7A
$GAGSV,3,1,10,19,64,325,33,21,49,157,45,27,47,068,41,12,18,266,35,1*77
$GAGSV,3,2,10,10,17,290,34,11,10,316,33,04,10,295,36,07,09,105,36,1*7A
$GAGSV,3,3,10,30,06,034,30,33,05,216,47,1*76
$GBGSV,2,1,08,37,82,175,45,20,65,311,46,32,54,138,43,23,38,050,45,1*72
$GBGSV,2,2,08,46,27,220,50,19,16,314,38,41,02,135,45,58,,,21,1*41
$GBGSV,2,1,07,37,82,175,41,20,65,311,34,32,54,138,43,23,38,050,36,5*7C
$GBGSV,2,2,07,46,27,220,44,19,16,314,29,41,02,135,45,5*41
$GNGGA,100012.000,4005.099148,N,10513.208664,W,2,52,0.50,1582.832,M,-20.670,M,,*7E
$GPGSV,3,1,10,03,67,232,46,26,56,088,43,04,55,315,36,16,47,150,42,1*64
$GPGSV,3,2,10,31,45,050,45,46,37,214,47,28,18,058,40,09,16,298,35,1*60
$GPGSV,3,3,10,06,08,316,35,29,01,046,,1*61
$GPGSV,2,1,06,03,67,232,44,26,56,088,37,04,55,315,39,28,18,058,34,8*6A
$GPGSV,2,2,06,09,16,298,36,06,08,316,25,8*6E
$GLGSV,2,1,08,69,70,080,41,79,70,045,40,80,50,205,45,70,32,324,19,1*7A
$GLGSV,2,2,08,68,24,124,46,78,17,033,44,86,05,327,28,85,01,281,,1*74
$GAGSV,3,1,10,19,64,325,35,21,49,157,46,27,47,068,38,12,18,266,34,7*7B
$GAGSV,3,2,10,10,17,290,36,11,10,316,27,04,10,295,38,07,09,105,23,7*71
$GAGSV,3,3,10,30,06,034,27,33,05,216,45,7*74
$GAGSV,3,1,10,19,64,325,33,21,49,157,45,27,47,068,41,12,18,266,35,1*77
$GAGSV,3,2,10,10,17,290,34,11,10,316,33,04,10,295,36,07,09,105,35,1*79
$GAGSV,3,3,10,30,06,034,30,33,05,216,46,1*77
$GBGSV,2,1,08,37,82,175,45,20,65,311,46,32,54,138,43,23,38,050,45,1*72
$GBGSV,2,2,08,46,27,220,50,19,16,314,41,41,02,135,45,58,,,21,1*4F
$GBGSV,2,1,07,37,82,175,40,20,65,311,33,32,54,138,43,23,38,050,36,5*7A
$GBGSV,2,2,07,46,27,220,44,19,16,314,26,41,02,135,45,5*4E
$GNGGA,100017.000,4005.099178,N,10513.208646,W,2,52,0.50,1582.730,M,-20.670,M,,*75
$GPGSV,3,1,10,03,66,229,46,04,56,316,36,26,56,088,43,16,47,150,43,1*6E
$GPGSV,3,2,10,31,45,050,45,46,37,214,47,28,18,058,40,09,16,298,34,1*61
$GPGSV,3,3,10,06,08,316,35,29,01,046,,1*61
$GPGSV,2,1,06,03,66,229,44,04,56,316,39,26,56,088,38,28,18,058,35,8*6F
$GPGSV,2,2,06,09,16,298,37,06,08,316,25,8*6F
$GLGSV,2,1,08,69,70,080,42,79,70,045,40,80,50,205,45,70,32,324,20,1*73
$GLGSV,2,2,08,68,24,124,45,78,17,033,43,86,05,327,27,85,01,281,,1*7F
$GAGSV,3,1,10,19,64,325,35,21,49,157,46,27,47,068,38,12,18,266,35,7*7A
$GAGSV,3,2,10,10,17,290,36,11,10,316,28,04,10,295,38,07,09,105,23,7*7E
$GAGSV,3,3,10,30,06,034,26,33,05,216,45,7*75
$GAGSV,3,1,10,19,64,325,33,21,49,157,45,27,47,068,41,12,18,266,35,1*77
$GAGSV,3,2,10,10,17,290,34,11,10,316,33,04,10,295,36,07,09,105,35,1*79
$GAGSV,3,3,10,30,06,034,30,33,05,216,47,1*76
$GBGSV,2,1,08,37,82,175,45,20,65,311,46,32,54,138,43,23,38,050,45,1*72
$GBGSV,2,2,08,46,27,220,50,19,16,314,42,41,02,135,46,58,,,21,1*4F
$GBGSV,2,1,07,37,82,175,41,20,65,311,34,32,54,138,43,23,38,050,36,5*7C
$GBGSV,2,2,07,46,27,220,45,19,16,314,19,41,02,135,45,5*43
$GNGGA,100022.000,4005.099202,N,10513.208676,W,2,53,0.50,1582.635,M,-20.670,M,,*7B
$GPGSV,3,1,10,03,66,229,46,04,56,316,36,26,56,088,43,16,47,150,43,1*6E
$GPGSV,3,2,10,31,45,050,45,46,37,214,47,28,18,058,40,09,17,299,34,1*61
$GPGSV,3,3,10,06,08,315,35,29,01,046,,1*62
$GPGSV,2,1,06,03,66,229,44,04,56,316,39,26,56,088,38,28,18,058,35,8*6F
$GPGSV,2,2,06,09,17,299,37,06,08,315,24,8*6D
$GLGSV,2,1,08,69,70,080,42,79,70,045,40,80,50,205,45,70,32,324,23,1*70
$GLGSV,2,2,08,68,24,124,45,78,17,033,42,86,05,327,27,85,01,281,,1*7E
$GAGSV,3,1,10,19,64,325,35,21,49,157,46,27,47,068,38,12,18,266,35,7*7A
$GAGSV,3,2,10,10,17,290,36,11,10,316,28,04,10,295,38,07,09,105,17,7*79
$GAGSV,3,3,10,30,06,034,25,33,05,216,45,7*76
$GAGSV,3,1,10,19,64,325,33,21,49,157,45,27,47,068,41,12,18,266,35,1*77
$GAGSV,3,2,10,10,17,290,34,11,10,316,33,04,10,295,36,07,09,105,35,1*79
$GAGSV,3,3,10,30,06,034,30,33,05,216,47,1*76
$GBGSV,2,1,08,37,82,175,45,20,65,311,46,32,54,138,43,23,38,050,45,1*72
$GBGSV,2,2,08,46,27,220,50,19,16,314,42,41,02,135,46,58,,,20,1*4E
$GBGSV,2,1,07,37,82,175,41,20,65,311,34,32,54,138,43,23,38,050,36,5*7C
$GBGSV,2,2,07,46,27,220,45,19,16,314,17,41,02,135,45,5*4D
$GNGGA,100027.000,4005.099232,N,10513.208730,W,2,53,0.50,1582.679,M,-20.670,M,,*76
$GPGSV,3,1,10,03,66,229,46,04,56,316,36,26,56,088,43,16,47,150,43,1*6E
$GPGSV,3,2,10,31,45,050,45,46,37,214,47,28,18,058,40,09,17,299,33,1*66
$GPGSV,3,3,10,06,08,315,35,29,01,046,,1*62
$GPGSV,2,1,06,03,66,229,44,04,56,316,39,26,56,088,38,28,18,058,35,8*6F
$GPGSV,2,2,06,09,17,299,37,06,08,315,22,8*6B
$GLGSV,2,1,08,69,70,080,41,79,70,045,40,80,50,205,45,70,32,324,24,1*74
$GLGSV,2,2,08,68,24,124,45,78,17,033,42,86,05,327,23,85,01,281,,1*7A
$GAGSV,3,1,10,19,64,325,35,21,49,157,46,27,47,068,36,12,18,266,35,7*74
$GAGSV,3,2,10,10,17,290,36,11,10,316,28,04,10,295,37,07,09,105,15,7*74
$GAGSV,3,3,10,30,06,034,23,33,05,216,45,7*70
$GAGSV,3,1,10,19,64,325,33,21,49,157,45,27,47,068,41,12,18,266,35,1*77
$GAGSV,3,2,10,10,17,290,34,11,10,316,33,04,10,295,36,07,09,105,35,1*79
$GAGSV,3,3,10,30,06,034,30,33,05,216,46,1*77
$GBGSV,2,1,08,37,82,175,45,20,65,311,46,32,54,138,43,23,38,050,45,1*72
$GBGSV,2,2,08,46,27,220,49,19,16,314,42,41,02,135,47,58,,,20,1*47
$GBGSV,2,1,07,37,82,175,41,20,65,311,34,32,54,138,43,23,38,050,36,5*7C
$GBGSV,2,2,07,46,27,220,45,19,16,314,25,41,02,135,45,5*4C
$GNGGA,100032.000,4005.099238,N,10513.208844,W,2,53,0.50,1582.745,M,-20.670,M,,*7A
$GPGSV,3,1,10,03,66,229,46,04,56,316,36,26,56,088,43,16,48,149,43,1*69
$GPGSV,3,2,10,31,45,050,45,46,37,214,47,28,18,058,40,09,17,299,33,1*66
$GPGSV,3,3,10,06,08,315,35,29,01,046,,1*62
$GPGSV,2,1,06,03,66,229,44,04,56,316,39,26,56,088,38,28,18,058,35,8*6F
$GPGSV,2,2,06,09,17,299,37,06,08,315,20,8*69
$GLGSV,2,1,08,69,70,080,41,79,70,045,40,80,50,205,45,70,32,324,24,1*74
$GLGSV,2,2,08,68,24,124,45,78,17,033,42,86,05,327,15,85,01,281,,1*7F
$GAGSV,3,1,10,19,64,325,35,21,49,157,46,27,47,068,36,12,18,266,34,7*75
$GAGSV,3,2,10,10,17,290,37,11,10,316,28,04,10,295,37,07,09,105,19,7*79
$GAGSV,3,3,10,30,06,034,22,33,05,216,46,7*72
$GAGSV,3,1,10,19,64,325,33,21,49,157,45,27,47,068,41,12,18,266,35,1*77
$GAGSV,3,2,10,10,17,290,34,11,10,316,33,04,10,295,36,07,09,105,35,1*79
$GAGSV,3,3,10,30,06,034,30,33,05,216,46,1*77
$GBGSV,2,1,08,37,82,175,45,20,65,311,46,32,54,138,42,23,38,050,46,1*70
$GBGSV,2,2,08,46,27,220,49,19,16,314,42,41,02,135,47,58,,,19,1*4D
$GBGSV,2,1,07,37,82,175,41,20,65,311,34,32,54,138,43,23,38,050,36,5*7C
$GBGSV,2,2,07,46,27,220,45,19,16,314,30,41,02,135,45,5*48
$GNGGA,100037.000,4005.099190,N,10513.208892,W,2,52,0.50,1582.803,M,-20.670,M,,*79
$GPGSV,3,1,10,03,66,229,46,04,56,316,37,26,56,088,43,16,48,149,43,1*68
$GPGSV,3,2,10,31,45,050,45,46,37,214,47,28,18,058,40,09,17,299,32,1*67
$GPGSV,3,3,10,06,08,315,35,29,01,046,,1*62
$GPGSV,2,1,05,03,66,229,45,04,56,316,39,26,56,088,38,28,18,058,36,8*6E
$GPGSV,2,2,05,09,17,299,37,8*51
$GLGSV,2,1,08,69,70,080,41,79,70,045,40,80,50,205,45,70,32,324,24,1*74
$GLGSV,2,2,08,68,24,124,45,78,17,033,42,86,05,327,12,85,01,281,,1*78
$GAGSV,3,1,10,19,64,325,34,21,49,157,46,27,47,068,36,12,18,266,34,7*74
$GAGSV,3,2,10,10,17,290,37,11,10,316,28,04,10,295,37,07,09,105,23,7*70
$GAGSV,3,3,10,30,06,034,21,33,05,216,46,7*71
$GAGSV,3,1,10,19,64,325,33,21,49,157,45,27,47,068,41,12,18,266,35,1*77
$GAGSV,3,2,10,10,17,290,34,11,10,316,34,04,10,295,36,07,09,105,35,1*7E
$GAGSV,3,3,10,30,06,034,30,33,05,216,47,1*76
$GBGSV,2,1,08,37,82,175,45,20,65,311,46,32,54,138,41,23,38,050,46,1*73
$GBGSV,2,2,08,46,27,220,49,19,16,314,41,41,02,135,47,58,,,19,1*4E
$GBGSV,2,1,07,37,82,175,41,20,65,311,35,32,54,138,44,23,38,050,37,5*7B
$GBGSV,2,2,07,46,27,220,45,19,16,314,34,41,02,135,46,5*4F
$GNGGA,100042.000,4005.099142,N,10513.208964,W,2,51,0.50,1582.872,M,-20.670,M,,*79
$GPGSV,3,1,10,03,66,229,46,04,56,316,38,26,56,085,43,16,48,149,43,1*6A
$GPGSV,3,2,10,31,45,050,45,46,37,214,47,09,17,299,32,28,17,058,40,1*68
$GPGSV,3,3,10,06,08,315,35,29,02,045,,1*62
$GPGSV,2,1,05,03,66,229,45,04,56,316,39,26,56,085,38,09,17,299,37,8*61
$GPGSV,2,2,05,28,17,058,36,8*5C
$GLGSV,2,1,08,69,70,080,41,79,70,045,40,80,50,205,46,70,32,324,23,1*70
$GLGSV,2,2,08,68,24,124,45,78,17,033,42,86,05,327,,85,01,281,,1*7B
$GAGSV,3,1,10,19,64,325,34,21,49,157,46,27,47,068,36,12,18,266,34,7*74
$GAGSV,3,2,10,10,17,290,37,11,10,316,26,04,10,295,37,07,09,105,27,7*7A
$GAGSV,3,3,10,30,06,034,21,33,05,216,46,7*71
$GAGSV,3,1,10,19,64,325,33,21,49,157,45,27,47,068,41,12,18,266,35,1*77
$GAGSV,3,2,10,10,17,290,34,11,10,316,34,04,10,295,36,07,09,105,35,1*7E
$GAGSV,3,3,10,30,06,034,30,33,05,216,46,1*77
$GBGSV,2,1,08,37,82,175,45,20,65,311,46,32,54,138,40,23,38,050,47,1*73
$GBGSV,2,2,08,46,27,220,49,19,16,314,37,41,02,135,48,58,,,20,1*4A
$GBGSV,2,1,07,37,82,175,41,20,65,311,34,32,54,138,44,23,38,050,37,5*7A
$GBGSV,2,2,07,46,27,220,45,19,16,314,35,41,02,135,46,5*4E
$GNGGA,100047.000,4005.099112,N,10513.209042,W,2,52,0.50,1582.985,M,-20.670,M,,*7F
$GPGSV,3,1,10,03,66,229,46,04,56,316,39,26,56,085,43,16,48,149,44,1*6C
$GPGSV,3,2,10,31,44,051,45,46,37,214,47,09,17,299,32,28,17,058,40,1*68
$GPGSV,3,3,10,06,08,315,33,29,02,045,,1*64
$GPGSV,2,1,05,03,66,229,44,04,56,316,39,26,56,085,38,09,17,299,36,8*61
$GPGSV,2,2,05,28,17,058,35,8*5F
$GLGSV,2,1,08,69,70,080,39,79,70,045,40,80,50,205,46,70,32,324,22,1*7E
$GLGSV,2,2,08,68,24,124,45,78,17,033,41,86,05,327,22,85,01,281,,1*78
$GAGSV,3,1,10,19,64,325,34,21,49,157,46,27,47,068,37,12,18,266,34,7*75
$GAGSV,3,2,10,10,17,290,37,11,10,316,25,04,10,295,37,07,09,105,30,7*7F
