$PAIR001,062,0*3F
$PAIR001,062,0*3F
$PAIR001,062,0*3F
$PAIR001,062,0*3F
$PAIR001,062,0*3F
$PAIR001,062,0*3F
$PAIR001,062,0*3F
$PAIR001,062,0*3F
$PAIR001,062,0*3F
$GNGGA,112637.000,4005.099334,N,10513.209036,W,2,42,0.54,1583.328,M,-20.669,M,,*79
$GPGSV,3,1,10,04,82,081,45,16,62,072,41,09,50,312,37,46,37,214,46,1*69
$GPGSV,3,2,10,26,30,049,42,03,29,196,48,07,26,270,42,27,22,122,43,1*61
$GPGSV,3,3,10,31,14,071,35,08,10,155,50,1*6F
$GPGSV,2,1,06,04,82,081,42,09,50,312,35,26,30,049,32,03,29,196,46,8*6C
$GPGSV,2,2,06,27,22,122,37,08,10,155,44,8*63
$GLGSV,2,1,07,70,77,311,27,80,75,344,40,73,36,237,47,69,34,149,48,1*7C
$GLGSV,2,2,07,79,26,038,35,71,25,327,39,88,02,023,26,1*42
$GAGSV,2,1,05,19,82,086,37,21,73,095,38,04,34,310,35,27,26,045,36,7*7F
$GAGSV,2,2,05,11,01,289,,7*44
$GAGSV,1,1,04,19,82,086,32,21,73,095,28,04,34,310,34,27,26,045,20,1*79
$GBGSV,3,1,12,20,67,200,47,37,59,045,43,46,59,251,46,19,47,305,37,1*78
$GBGSV,3,2,12,32,18,156,51,36,10,241,41,23,08,056,41,38,02,341,14,1*79
$GBGSV,3,3,12,28,02,103,43,43,02,049,18,63,,,28,58,,,17,1*7D
$GBGSV,3,1,09,20,67,200,43,37,59,045,31,46,59,251,42,19,47,305,31,5*75
$GBGSV,3,2,09,32,18,156,38,36,10,241,34,23,08,056,37,28,02,103,36,5*7E
$GBGSV,3,3,09,43,02,049,16,5*44
$GNGGA,112642.000,4005.099370,N,10513.209108,W,2,43,0.54,1583.110,M,-20.670,M,,*77
$GPGSV,3,1,10,04,81,089,45,16,62,072,41,09,50,312,34,46,37,214,46,1*61
$GPGSV,3,2,10,26,30,049,42,03,28,195,48,07,26,270,42,27,22,122,43,1*63
$GPGSV,3,3,10,31,14,071,32,08,10,155,50,1*68
$GPGSV,2,1,06,04,81,089,42,09,50,312,34,26,30,049,33,03,28,195,46,8*65
$GPGSV,2,2,06,27,22,122,37,08,10,155,44,8*63
$GLGSV,2,1,07,70,77,311,28,80,75,344,39,73,36,237,47,69,34,149,48,1*7D
$GLGSV,2,2,07,79,26,038,35,71,25,327,38,88,02,023,25,1*40
$GAGSV,2,1,05,19,82,086,37,21,73,095,38,04,34,310,35,27,26,045,36,7*7F
$GAGSV,2,2,05,11,01,289,,7*44
$GAGSV,1,1,04,19,82,086,33,21,73,095,28,04,34,310,34,27,26,045,19,1*72
$GBGSV,3,1,11,20,67,200,47,37,59,045,43,46,59,251,46,19,47,305,37,1*7B
$GBGSV,3,2,11,32,18,156,51,36,10,241,42,23,08,056,41,43,02,049,14,1*7E
$GBGSV,3,3,11,28,02,103,43,38,02,341,14,58,,,17,1*7A
$GBGSV,3,1,09,20,67,200,43,37,59,045,32,46,59,251,42,19,47,305,31,5*76
$GBGSV,3,2,09,32,18,156,38,36,10,241,34,23,08,056,37,28,02,103,37,5*7F
$GBGSV,3,3,09,43,02,049,16,5*44
$GNGGA,112647.000,4005.099400,N,10513.209114,W,2,42,0.54,1582.982,M,-20.670,M,,*7C
$GPGSV,3,1,10,04,81,089,45,16,62,072,41,09,51,312,34,46,37,214,46,1*60
$GPGSV,3,2,10,26,30,049,42,03,28,195,48,07,27,271,43,27,22,122,43,1*62
$GPGSV,3,3,10,31,14,071,29,08,11,155,50,1*63
$GPGSV,2,1,06,04,81,089,42,09,51,312,34,26,30,049,33,03,28,195,45,8*67
$GPGSV,2,2,06,27,22,122,36,08,11,155,44,8*63
$GLGSV,2,1,07,70,77,311,27,80,75,344,39,73,36,237,47,69,34,149,48,1*72
$GLGSV,2,2,07,79,26,038,35,71,25,327,37,88,02,023,25,1*4F
$GAGSV,2,1,05,19,82,086,37,21,73,095,38,04,34,310,35,27,26,045,36,7*7F
$GAGSV,2,2,05,11,01,289,,7*44
$GAGSV,1,1,04,19,82,086,32,21,73,095,29,04,34,310,33,27,26,045,18,1*74
$GBGSV,3,1,12,20,67,200,48,37,59,045,44,46,59,251,46,19,47,305,36,1*71
$GBGSV,3,2,12,32,18,156,51,36,10,241,42,23,08,056,41,38,02,341,14,1*7A
$GBGSV,3,3,12,28,02,103,43,43,02,049,12,58,,,17,63,,,30,1*7E
$GBGSV,3,1,09,20,67,200,43,37,59,045,31,46,59,251,42,19,47,305,32,5*76
$GBGSV,3,2,09,32,18,156,38,36,10,241,34,23,08,056,38,28,02,103,37,5*70
$GBGSV,3,3,09,43,02,049,16,5*44
$GNGGA,112652.000,4005.099388,N,10513.209132,W,2,43,0.54,1582.822,M,-20.669,M,,*79
$GPGSV,3,1,10,04,81,089,45,16,61,070,40,09,51,312,34,46,37,214,47,1*61
$GPGSV,3,2,10,26,30,049,42,03,28,195,48,07,27,271,43,27,22,122,43,1*62
$GPGSV,3,3,10,31,14,071,32,08,11,155,50,1*69
$GPGSV,2,1,06,04,81,089,42,09,51,312,34,26,30,049,34,03,28,195,46,8*63
$GPGSV,2,2,06,27,22,122,37,08,11,155,45,8*63
$GLGSV,2,1,07,70,77,311,27,80,75,344,39,73,36,237,47,69,34,149,48,1*72
$GLGSV,2,2,07,79,26,038,34,71,25,327,39,88,02,023,25,1*40
$GAGSV,2,1,05,19,82,086,37,21,73,095,38,04,34,310,35,27,26,045,36,7*7F
$GAGSV,2,2,05,11,01,289,,7*44
$GAGSV,1,1,04,19,82,086,32,21,73,095,29,04,34,310,34,27,26,045,18,1*73
$GBGSV,3,1,11,20,67,200,48,37,59,045,44,46,59,251,46,19,47,305,36,1*72
$GBGSV,3,2,11,32,18,156,51,36,10,241,42,23,08,056,41,43,02,049,13,1*79
$GBGSV,3,3,11,28,02,103,43,38,02,341,16,58,,,17,1*78
$GBGSV,3,1,09,20,67,200,43,37,59,045,33,46,59,251,43,19,47,305,33,5*74
$GBGSV,3,2,09,32,18,156,39,36,10,241,34,23,08,056,38,28,02,103,38,5*7E
$GBGSV,3,3,09,43,02,049,17,5*45
$GNGGA,112657.000,4005.099370,N,10513.209198,W,2,41,0.54,1582.728,M,-20.670,M,,*74
$GPGSV,3,1,10,04,81,089,45,16,61,070,39,09,51,312,35,46,37,214,47,1*6E
$GPGSV,3,2,10,26,30,049,41,03,28,195,48,07,27,271,43,27,22,122,43,1*61
$GPGSV,3,3,10,31,14,071,34,08,11,155,50,1*6F
$GPGSV,2,1,06,04,81,089,42,09,51,312,34,26,30,049,34,03,28,195,46,8*63
$GPGSV,2,2,06,27,22,122,37,08,11,155,45,8*63
$GLGSV,2,1,07,70,77,311,27,80,75,344,38,73,36,237,46,69,34,149,48,1*72
$GLGSV,2,2,07,79,26,038,32,71,25,327,39,88,02,023,27,1*44
$GAGSV,2,1,05,19,82,086,37,21,73,095,38,04,34,310,35,27,26,045,35,7*7C
$GAGSV,2,2,05,11,01,289,,7*44
$GAGSV,1,1,03,19,82,086,32,21,73,095,29,04,34,310,34,1*4D
$GBGSV,3,1,12,20,67,200,48,37,59,045,44,46,59,251,46,19,47,305,36,1*71
$GBGSV,3,2,12,32,18,156,51,36,10,241,41,23,08,056,41,38,02,341,16,1*7B
$GBGSV,3,3,12,28,02,103,43,43,02,049,13,63,,,29,58,,,17,1*77
$GBGSV,3,1,09,20,67,200,43,37,59,045,32,46,59,251,43,19,47,305,33,5*75
$GBGSV,3,2,09,32,18,156,39,36,10,241,35,23,08,056,38,28,02,103,38,5*7F
$GBGSV,3,3,09,43,02,049,17,5*45
$GNGGA,112702.000,4005.099370,N,10513.209330,W,2,41,0.54,1582.704,M,-20.670,M,,*7B
$GPGSV,3,1,10,04,81,089,45,16,61,070,39,09,51,312,37,46,37,214,47,1*6C
$GPGSV,3,2,10,26,29,049,40,03,28,195,48,07,27,271,43,27,22,122,43,1*68
$GPGSV,3,3,10,31,14,071,35,08,11,155,50,1*6E
$GPGSV,2,1,06,04,81,089,42,09,51,312,34,26,29,049,35,03,28,195,46,8*6A
$GPGSV,2,2,06,27,22,122,37,08,11,155,45,8*63
$GLGSV,2,1,07,70,77,311,28,80,75,344,38,73,36,237,46,69,34,149,48,1*7D
$GLGSV,2,2,07,79,26,038,32,71,25,327,39,88,02,023,27,1*44
$GAGSV,2,1,05,19,82,086,37,21,73,095,38,04,34,310,35,27,26,045,34,7*7D
$GAGSV,2,2,05,11,01,289,,7*44
$GAGSV,1,1,03,19,82,086,33,21,73,095,29,04,34,310,34,1*4C
$GBGSV,3,1,11,20,67,200,48,37,59,045,44,46,59,251,46,19,47,305,36,1*72
$GBGSV,3,2,11,32,18,156,51,36,10,241,42,23,08,056,41,43,02,049,17,1*7D
$GBGSV,3,3,11,28,02,103,40,38,02,341,16,58,,,17,1*7B
$GBGSV,3,1,09,20,67,200,43,37,59,045,33,46,59,251,43,19,47,305,33,5*74
$GBGSV,3,2,09,32,18,156,40,36,10,241,35,23,08,056,38,28,02,103,37,5*7E
$GBGSV,3,3,09,43,02,049,16,5*44
$GNGGA,112707.000,4005.099406,N,10513.209402,W,2,43,0.54,1582.617,M,-20.670,M,,*7F
$GPGSV,3,1,10,04,81,089,45,16,61,070,38,09,51,312,38,46,37,214,47,1*62
$GPGSV,3,2,10,26,29,049,40,03,28,195,48,07,27,271,43,27,23,121,43,1*6A
$GPGSV,3,3,10,31,13,072,35,08,11,155,50,1*6A
$GPGSV,2,1,06,04,81,089,42,09,51,312,34,26,29,049,35,03,28,195,46,8*6A
$GPGSV,2,2,06,27,23,121,37,08,11,155,45,8*61
$GLGSV,2,1,07,70,77,311,27,80,75,344,38,73,36,237,46,69,34,149,48,1*72
$GLGSV,2,2,07,79,26,038,28,71,25,327,38,88,02,023,28,1*41
$GAGSV,2,1,05,19,82,086,37,21,73,095,37,04,34,310,35,27,26,045,33,7*75
$GAGSV,2,2,05,11,01,289,,7*44
$GAGSV,1,1,04,19,82,086,33,21,73,095,29,04,34,310,34,27,26,045,21,1*78
$GBGSV,3,1,12,20,67,200,48,37,59,045,44,46,59,251,46,19,47,305,36,1*71
$GBGSV,3,2,12,32,18,156,51,36,10,241,43,23,08,056,41,38,02,341,16,1*79
$GBGSV,3,3,12,28,02,103,40,43,02,049,,63,,,29,58,,,17,1*76
$GBGSV,3,1,09,20,67,200,43,37,59,045,33,46,59,251,43,19,47,305,33,5*74
$GBGSV,3,2,09,32,18,156,40,36,10,241,35,23,08,056,38,28,02,103,37,5*7E
$GBGSV,3,3,09,43,02,049,16,5*44
$GNGGA,112712.000,4005.099424,N,10513.209474,W,2,42,0.54,1582.633,M,-20.670,M,,*7D
$GPGSV,3,1,10,04,81,089,45,16,61,070,38,09,51,312,38,46,37,214,47,1*62
$GPGSV,3,2,10,26,29,049,40,03,28,195,48,07,27,271,43,27,23,121,43,1*6A
$GPGSV,3,3,10,31,13,072,34,08,11,155,50,1*6B
$GPGSV,2,1,06,04,81,089,42,09,51,312,34,26,29,049,36,03,28,195,46,8*69
$GPGSV,2,2,06,27,23,121,37,08,11,155,45,8*61
$GLGSV,2,1,07,70,77,311,27,80,75,344,38,73,36,237,46,69,34,149,48,1*72
$GLGSV,2,2,07,79,26,038,28,71,25,327,38,88,02,023,26,1*4F
$GAGSV,2,1,05,19,82,086,37,21,73,095,37,04,34,310,34,27,26,045,33,7*74
$GAGSV,2,2,05,11,01,289,,7*44
$GAGSV,1,1,04,19,82,086,33,21,73,095,29,04,34,310,34,27,26,045,23,1*7A
$GBGSV,3,1,12,20,67,200,48,37,59,045,44,46,59,251,46,19,47,305,36,1*71
$GBGSV,3,2,12,32,18,156,51,36,10,241,45,23,08,056,41,38,02,341,16,1*7F
$GBGSV,3,3,12,28,02,103,40,43,02,049,,63,,,29,58,,,17,1*76
$GBGSV,3,1,09,20,67,200,43,37,59,045,33,46,59,251,43,19,47,305,33,5*74
$GBGSV,3,2,09,32,18,156,40,36,10,241,35,23,08,056,39,28,02,103,37,5*7F
$GBGSV,3,3,09,43,02,049,16,5*44
$GNGGA,112717.000,4005.099400,N,10513.209510,W,2,43,0.54,1582.721,M,-20.670,M,,*7E
$GPGSV,3,1,10,04,81,089,45,16,61,070,38,09,51,312,38,46,37,214,47,1*62
$GPGSV,3,2,10,26,29,049,39,03,28,195,48,07,27,271,43,27,23,121,43,1*64
$GPGSV,3,3,10,31,13,072,30,08,11,155,50,1*6F
$GPGSV,2,1,06,04,81,089,42,09,51,312,34,26,29,049,36,03,28,195,46,8*69
$GPGSV,2,2,06,27,23,121,36,08,11,155,45,8*60
$GLGSV,2,1,07,70,77,311,28,80,75,344,38,73,36,237,46,69,34,149,47,1*72
$GLGSV,2,2,07,79,26,038,28,71,25,327,39,88,02,023,28,1*40
$GAGSV,2,1,05,19,82,086,37,21,73,095,37,04,34,310,34,27,26,045,34,7*73
$GAGSV,2,2,05,11,01,289,,7*44
$GAGSV,1,1,04,19,82,086,33,21,73,095,29,04,34,310,33,27,26,045,22,1*7C
$GBGSV,3,1,11,20,67,200,48,37,59,045,44,46,59,251,46,19,47,305,37,1*73
$GBGSV,3,2,11,32,18,156,51,36,10,241,44,23,08,056,41,43,02,049,,1*7D
$GBGSV,3,3,11,28,02,103,38,38,02,341,16,58,,,17,1*74
$GBGSV,3,1,09,20,67,200,43,37,59,045,33,46,59,251,43,19,47,305,33,5*74
$GBGSV,3,2,09,32,18,156,40,36,10,241,35,23,08,056,39,28,02,103,37,5*7F
$GBGSV,3,3,09,43,02,049,14,5*46
$GNGGA,112722.000,4005.099388,N,10513.209552,W,2,43,0.54,1582.879,M,-20.670,M,,*7B
$GPGSV,3,1,10,04,81,089,45,16,61,070,37,09,51,312,38,46,37,214,47,1*6D
$GPGSV,3,2,10,26,29,049,38,03,28,195,48,07,27,271,43,27,23,121,43,1*65
$GPGSV,3,3,10,31,13,072,17,08,11,155,50,1*6A
$GPGSV,2,1,06,04,81,089,42,09,51,312,33,26,29,049,36,03,28,195,46,8*6E
$GPGSV,2,2,06,27,23,121,36,08,11,155,45,8*60
$GLGSV,2,1,07,70,77,311,29,80,75,344,37,73,36,237,46,69,34,149,47,1*7C
$GLGSV,2,2,07,79,26,038,27,71,25,327,39,88,02,023,29,1*4E
$GAGSV,2,1,05,19,82,086,37,21,73,095,37,04,35,310,32,27,26,045,34,7*74
$GAGSV,2,2,05,11,01,289,,7*44
$GAGSV,1,1,04,19,82,086,33,21,73,095,29,04,35,310,33,27,26,045,22,1*7D
$GBGSV,3,1,12,20,67,200,48,37,59,045,44,46,59,251,46,19,47,305,37,1*70
$GBGSV,3,2,12,32,18,156,51,36,10,241,43,23,08,056,41,38,02,341,16,1*79
$GBGSV,3,3,12,28,02,103,36,43,02,049,,63,,,29,58,,,17,1*77
$GBGSV,2,1,08,20,67,200,43,37,59,045,33,46,59,251,43,19,47,305,34,5*73
$GBGSV,2,2,08,32,18,156,40,36,10,241,35,23,08,056,39,28,02,103,37,5*7F
$GNGGA,112727.000,4005.099364,N,10513.209624,W,2,43,0.54,1583.038,M,-20.670,M,,*72
$GPGSV,3,1,10,04,81,089,45,16,61,070,37,09,51,312,37,46,37,214,47,1*62
$GPGSV,3,2,10,26,29,049,37,03,28,195,48,07,27,271,43,27,23,121,42,1*6B
$GPGSV,3,3,10,31,13,072,27,08,11,155,50,1*69
$GPGSV,2,1,06,04,81,089,42,09,51,312,32,26,29,049,36,03,28,195,46,8*6F
$GPGSV,2,2,06,27,23,121,35,08,11,155,46,8*60
$GLGSV,2,1,07,70,77,311,28,80,75,344,37,73,36,237,46,69,34,149,47,1*7D
$GLGSV,2,2,07,79,26,038,26,71,25,327,39,88,02,023,31,1*46
$GAGSV,1,1,04,19,82,086,37,21,73,095,37,04,35,310,31,27,26,045,35,7*74
$GAGSV,1,1,04,19,82,086,34,21,73,095,29,04,35,310,33,27,26,045,22,1*7A
$GBGSV,3,1,11,20,67,200,48,37,59,045,44,46,59,251,46,19,47,305,37,1*73
$GBGSV,3,2,11,32,18,156,51,36,10,241,44,23,08,056,41,43,02,049,,1*7D
$GBGSV,3,3,11,28,02,103,37,38,02,341,16,58,,,17,1*7B
$GBGSV,2,1,08,20,67,200,43,37,59,045,33,46,59,251,43,19,47,305,35,5*72
$GBGSV,2,2,08,32,18,156,41,36,10,241,35,23,08,056,39,28,02,103,37,5*7E
$GNGGA,112732.000,4005.099334,N,10513.209702,W,2,43,0.54,1583.201,M,-20.670,M,,*7E
$GPGSV,3,1,10,04,81,089,45,16,61,070,37,09,51,312,35,46,37,214,47,1*60
$GPGSV,3,2,10,26,29,049,35,03,28,195,48,07,27,271,43,27,23,121,41,1*6A
$GPGSV,3,3,10,31,13,072,30,08,11,155,50,1*6F
$GPGSV,2,1,06,04,81,089,42,09,51,312,32,26,29,049,37,03,28,195,46,8*6E
$GPGSV,2,2,06,27,23,121,35,08,11,155,46,8*60
$GLGSV,2,1,07,70,77,311,28,80,75,344,37,73,36,237,46,69,34,149,47,1*7D
$GLGSV,2,2,07,79,26,038,30,71,25,327,39,88,02,023,31,1*41
$GAGSV,1,1,04,19,82,086,37,21,73,095,37,04,35,310,30,27,26,045,35,7*75
$GAGSV,1,1,04,19,82,086,34,21,73,095,28,04,35,310,33,27,26,045,22,1*7B
$GBGSV,3,1,11,20,67,200,48,37,59,045,44,46,59,251,46,19,47,305,37,1*73
$GBGSV,3,2,11,32,18,156,51,36,10,241,45,23,08,056,41,43,02,049,14,1*79
$GBGSV,3,3,11,28,02,103,40,38,02,341,17,58,,,17,1*7A
$GBGSV,2,1,08,20,67,200,43,37,59,045,33,46,59,251,43,19,47,305,35,5*72
$GBGSV,2,2,08,32,18,156,41,36,10,241,36,23,08,056,39,28,02,103,37,5*7D
$GNGGA,112737.000,4005.099328,N,10513.209666,W,2,43,0.54,1583.452,M,-20.669,M,,*7D
$GPGSV,3,1,10,04,81,089,45,16,61,070,38,09,51,312,35,46,37,214,47,1*6F
$GPGSV,3,2,10,26,29,049,32,03,28,195,48,07,27,271,43,27,23,121,40,1*6C
$GPGSV,3,3,10,31,13,072,32,08,11,155,50,1*6D
$GPGSV,2,1,06,04,81,089,42,09,51,312,30,26,29,049,37,03,28,195,46,8*6C
$GPGSV,2,2,06,27,23,121,35,08,11,155,46,8*60
$GLGSV,2,1,07,70,77,311,28,80,75,344,37,73,36,237,46,69,34,149,47,1*7D
$GLGSV,2,2,07,79,26,038,33,71,25,327,41,88,02,023,32,1*4E
$GAGSV,1,1,04,19,81,093,37,21,73,091,38,04,35,310,31,27,26,045,35,7*78
$GAGSV,1,1,04,19,81,093,34,21,73,091,28,04,35,310,33,27,26,045,23,1*79
$GBGSV,3,1,11,20,67,200,48,37,59,045,44,46,59,251,46,19,47,305,36,1*72
$GBGSV,3,2,11,32,18,156,51,36,10,241,46,23,08,056,41,43,02,049,12,1*7C
$GBGSV,3,3,11,28,02,103,40,38,02,341,17,58,,,17,1*7A
$GBGSV,2,1,08,20,67,200,44,37,59,045,34,46,59,251,43,19,47,305,36,5*71
$GBGSV,2,2,08,32,18,156,41,36,10,241,36,23,08,056,39,28,02,103,37,5*7D
$GNGGA,112742.000,4005.099304,N,10513.209564,W,2,43,0.54,1583.577,M,-20.670,M,,*7E
$GPGSV,3,1,10,04,81,089,45,16,61,070,39,09,51,312,34,46,37,214,47,1*6F
$GPGSV,3,2,10,26,29,049,32,03,28,195,48,07,27,271,43,27,23,121,40,1*6C
$GPGSV,3,3,10,31,13,072,32,08,11,155,50,1*6D
$GPGSV,2,1,06,04,81,089,42,09,51,312,31,26,29,049,37,03,28,195,46,8*6D
$GPGSV,2,2,06,27,23,121,35,08,11,155,47,8*61
$GLGSV,2,1,07,70,77,311,28,80,75,344,37,73,36,237,46,69,34,149,47,1*7D
$GLGSV,2,2,07,79,26,038,33,71,25,327,40,88,02,023,31,1*4C
$GAGSV,1,1,04,19,81,093,37,21,73,091,38,04,35,310,31,27,25,044,36,7*79
$GAGSV,1,1,04,19,81,093,34,21,73,091,29,04,35,310,33,27,25,044,24,1*7D
$GBGSV,3,1,11,20,67,200,48,37,59,045,43,46,59,251,46,19,47,305,37,1*74
$GBGSV,3,2,11,32,18,156,51,36,10,241,45,23,08,056,41,43,02,049,15,1*78
$GBGSV,3,3,11,28,02,103,40,38,02,341,17,58,,,17,1*7A
$GBGSV,2,1,08,20,67,200,44,37,59,045,34,46,59,251,43,19,47,305,36,5*71
$GBGSV,2,2,08,32,18,156,41,36,10,241,36,23,08,056,39,28,02,103,37,5*7D
$GNGGA,112747.000,4005.099310,N,10513.209534,W,2,43,0.54,1583.527,M,-20.670,M,,*7E
$GPGSV,3,1,10,04,81,089,45,16,61,070,39,09,51,312,34,46,37,214,47,1*6F
$GPGSV,3,2,10,26,29,049,31,03,28,195,48,07,27,271,43,27,23,121,40,1*6F
$GPGSV,3,3,10,31,13,072,30,08,11,155,50,1*6F
$GPGSV,2,1,06,04,81,089,42,09,51,312,30,26,29,049,37,03,28,195,46,8*6C
$GPGSV,2,2,06,27,23,121,35,08,11,155,47,8*61
$GLGSV,2,1,07,70,77,311,28,80,75,344,35,73,36,237,46,69,34,149,47,1*7F
$GLGSV,2,2,07,79,26,038,33,71,25,327,39,88,02,023,32,1*41
$GAGSV,1,1,04,19,81,093,37,21,73,091,38,04,35,310,31,27,25,044,37,7*78
$GAGSV,1,1,04,19,81,093,34,21,73,091,29,04,35,310,33,27,25,044,24,1*7D
$GBGSV,3,1,11,20,67,200,48,37,59,045,42,46,59,251,46,19,47,305,37,1*75
$GBGSV,3,2,11,32,18,156,51,36,10,241,45,23,08,056,41,43,02,049,14,1*79
$GBGSV,3,3,11,28,02,103,38,38,02,341,17,58,,,17,1*75
$GBGSV,2,1,08,20,67,200,44,37,59,045,34,46,59,251,43,19,47,305,36,5*71
$GBGSV,2,2,08,32,18,156,41,36,10,241,36,23,08,056,39,28,02,103,37,5*7D
$GNGGA,112752.000,4005.099310,N,10513.209510,W,2,43,0.54,1583.505,M,-20.670,M,,*7C
$GPGSV,3,1,10,04,81,089,45,16,61,070,39,09,51,312,32,46,37,214,47,1*69
$GPGSV,3,2,10,26,29,049,31,03,28,195,48,07,27,271,43,27,23,121,39,1*61
$GPGSV,3,3,10,31,13,072,25,08,11,155,50,1*6B
$GPGSV,2,1,06,04,81,089,42,09,51,312,30,26,29,049,37,03,28,195,46,8*6C
$GPGSV,2,2,06,27,23,121,35,08,11,155,47,8*61
$GLGSV,2,1,07,70,77,311,28,80,75,344,36,73,36,237,46,69,34,149,47,1*7C
$GLGSV,2,2,07,79,26,038,33,71,25,327,42,88,02,023,32,1*4D
$GAGSV,1,1,04,19,81,093,37,21,73,091,38,04,35,310,31,27,25,044,38,7*77
$GAGSV,1,1,04,19,81,093,34,21,73,091,29,04,35,310,32,27,25,044,25,1*7D
$GBGSV,3,1,11,20,67,200,48,37,59,045,42,46,59,251,46,19,47,305,38,1*7A
$GBGSV,3,2,11,32,18,156,51,36,10,241,45,23,08,056,41,43,02,049,14,1*79
$GBGSV,3,3,11,28,02,103,38,38,02,341,17,58,,,17,1*75
$GBGSV,2,1,08,20,67,200,44,37,59,045,35,46,59,251,43,19,47,305,36,5*70
$GBGSV,2,2,08,32,18,156,42,36,10,241,36,23,08,056,39,28,02,103,37,5*7E
$GNGGA,112757.000,4005.099316,N,10513.209522,W,2,43,0.54,1583.471,M,-20.670,M,,*7C
$GPGSV,3,1,10,04,81,089,45,16,61,070,39,09,51,312,32,46,37,214,47,1*69
$GPGSV,3,2,10,26,29,049,31,03,28,195,48,07,27,271,43,27,23,121,39,1*61
$GPGSV,3,3,10,31,13,072,19,08,11,155,50,1*64
$GPGSV,2,1,06,04,81,089,42,09,51,312,29,26,29,049,37,03,28,195,45,8*67
$GPGSV,2,2,06,27,23,121,34,08,11,155,47,8*60
$GLGSV,2,1,07,70,78,307,28,80,75,344,36,73,36,237,46,69,32,149,47,1*72
$GLGSV,2,2,07,79,26,038,34,71,25,327,42,88,02,023,31,1*49
$GAGSV,1,1,04,19,81,093,37,21,73,091,38,04,35,310,32,27,25,044,38,7*74
$GAGSV,1,1,04,19,81,093,33,21,73,091,28,04,35,310,32,27,25,044,25,1*7B
$GBGSV,3,1,11,20,67,200,48,37,59,045,41,46,59,251,46,19,47,305,38,1*79
$GBGSV,3,2,11,32,18,156,51,36,10,241,46,23,08,056,41,43,02,049,,1*7F
$GBGSV,3,3,11,28,02,103,37,38,02,341,17,58,,,17,1*7A
$GBGSV,2,1,08,20,67,200,44,37,59,045,35,46,59,251,42,19,47,305,36,5*71
$GBGSV,2,2,08,32,18,156,42,36,10,241,36,23,08,056,39,28,02,103,37,5*7E
$GNGGA,112802.000,4005.099346,N,10513.209450,W,2,43,0.54,1583.483,M,-20.670,M,,*7F
$GPGSV,3,1,10,04,81,089,45,16,61,070,38,09,51,312,33,46,37,214,47,1*69
$GPGSV,3,2,10,26,29,049,33,03,28,195,48,07,27,271,43,27,23,121,39,1*63
$GPGSV,3,3,10,31,13,072,33,08,11,155,50,1*6C
$GPGSV,2,1,06,04,81,089,42,09,51,312,28,26,29,049,38,03,28,195,45,8*69
$GPGSV,2,2,06,27,23,121,34,08,11,155,47,8*60
$GLGSV,2,1,07,70,78,307,27,80,75,344,36,73,37,239,47,69,32,149,46,1*72
$GLGSV,2,2,07,71,26,327,42,79,26,038,35,88,02,023,30,1*4A
$GAGSV,1,1,04,19,81,093,37,21,73,091,38,04,35,310,32,27,25,044,38,7*74
$GAGSV,1,1,04,19,81,093,33,21,73,091,28,04,35,310,32,27,25,044,24,1*7A
$GBGSV,3,1,12,20,67,200,48,37,59,045,41,46,59,251,46,19,47,305,35,1*77
$GBGSV,3,2,12,32,18,156,51,36,10,241,47,23,08,056,41,38,02,341,17,1*7C
$GBGSV,3,3,12,28,02,103,34,43,02,049,14,63,,,29,58,,,17,1*70
$GBGSV,2,1,08,20,67,200,44,37,59,045,35,46,59,251,42,19,47,305,36,5*71
$GBGSV,2,2,08,32,18,156,42,36,10,241,36,23,08,056,39,28,02,103,37,5*7E
$GNGGA,112807.000,4005.099346,N,10513.209420,W,2,43,0.54,1583.515,M,-20.670,M,,*73
$GPGSV,3,1,10,04,81,089,45,16,61,070,37,09,51,312,34,46,37,214,47,1*61
$GPGSV,3,2,10,26,29,049,33,03,28,195,48,07,27,271,43,27,23,121,39,1*63
$GPGSV,3,3,10,31,13,072,32,08,11,155,50,1*6D
$GPGSV,2,1,06,04,81,089,42,09,51,312,28,26,29,049,38,03,28,195,45,8*69
$GPGSV,2,2,06,27,23,121,33,08,11,155,47,8*67
$GLGSV,2,1,07,70,78,307,26,80,74,348,35,73,37,239,47,69,32,149,46,1*7D
$GLGSV,2,2,07,71,26,327,42,79,25,038,35,88,02,023,30,1*49
$GAGSV,1,1,04,19,81,093,37,21,73,091,38,04,35,310,32,27,25,044,38,7*74
$GAGSV,1,1,04,19,81,093,33,21,73,091,28,04,35,310,30,27,25,044,24,1*78
$GBGSV,3,1,11,20,67,200,48,37,59,045,41,46,59,251,46,19,47,305,33,1*72
$GBGSV,3,2,11,32,18,156,51,36,10,241,47,23,08,056,41,43,02,049,,1*7E
$GBGSV,3,3,11,28,02,103,33,38,02,341,17,58,,,17,1*7E
$GBGSV,2,1,08,20,67,200,44,37,59,045,35,46,59,251,42,19,47,305,36,5*71
$GBGSV,2,2,08,32,18,156,42,36,10,241,36,23,08,056,38,28,02,103,37,5*7F
$GNGGA,112812.000,4005.099304,N,10513.209336,W,2,43,0.54,1583.545,M,-20.670,M,,*74
$GPGSV,3,1,10,04,81,089,45,16,61,070,37,09,51,312,36,46,37,214,47,1*63
$GPGSV,3,2,10,26,29,049,33,03,28,195,48,07,27,271,43,27,23,121,39,1*63
$GPGSV,3,3,10,31,13,072,34,08,11,155,50,1*6B
$GPGSV,2,1,06,04,81,089,42,09,51,312,28,26,29,049,38,03,28,195,45,8*69
$GPGSV,2,2,06,27,23,121,33,08,11,155,47,8*67
$GLGSV,2,1,07,70,78,307,27,80,74,348,35,73,37,239,47,69,32,149,46,1*7C
$GLGSV,2,2,07,71,26,327,42,79,25,038,35,88,02,023,31,1*48
$GAGSV,1,1,04,19,81,093,37,21,73,091,38,04,35,310,32,27,25,044,39,7*75
$GAGSV,1,1,04,19,81,093,34,21,73,091,28,04,35,310,31,27,25,044,24,1*7E
$GBGSV,3,1,12,20,67,200,48,37,59,045,41,46,59,251,46,19,47,305,29,1*7A
$GBGSV,3,2,12,32,18,156,51,36,10,241,46,23,08,056,40,38,02,341,17,1*7C
$GBGSV,3,3,12,28,02,103,34,43,02,049,,63,,,28,58,,,18,1*7B
$GBGSV,2,1,08,20,67,200,44,37,59,045,35,46,59,251,42,19,47,305,37,5*70
$GBGSV,2,2,08,32,18,156,43,36,10,241,37,23,08,056,38,28,02,103,37,5*7F
$GNGGA,112817.000,4005.099310,N,10513.209258,W,2,43,0.54,1583.595,M,-20.670,M,,*70
$GPGSV,3,1,10,04,81,089,45,16,61,070,37,09,51,312,37,46,37,214,47,1*62
$GPGSV,3,2,10,26,29,049,33,03,28,195,48,07,27,271,44,27,23,121,40,1*6A
$GPGSV,3,3,10,31,13,072,33,08,11,155,50,1*6C
$GPGSV,2,1,06,04,81,089,42,09,51,312,28,26,29,049,38,03,28,195,45,8*69
$GPGSV,2,2,06,27,23,121,33,08,11,155,47,8*67
$GLGSV,2,1,07,70,78,307,27,80,74,348,35,73,37,239,46,69,32,149,45,1*7E
$GLGSV,2,2,07,71,26,327,42,79,25,038,35,88,02,021,31,1*4A
$GAGSV,1,1,04,19,81,093,38,21,73,091,38,04,35,310,32,27,25,044,39,7*7A
$GAGSV,1,1,04,19,81,093,34,21,73,091,28,04,35,310,31,27,25,044,25,1*7F
$GBGSV,3,1,12,20,67,200,48,37,59,045,41,46,59,251,46,19,47,305,29,1*7A
$GBGSV,3,2,12,32,18,156,51,36,10,241,47,23,08,056,40,38,02,341,17,1*7D
$GBGSV,3,3,12,28,02,103,34,43,02,049,,63,,,28,58,,,18,1*7B
$GBGSV,2,1,08,20,67,200,44,37,59,045,35,46,59,251,42,19,47,305,37,5*70
$GBGSV,2,2,08,32,18,156,43,36,10,241,37,23,08,056,38,28,02,103,37,5*7F
$GNGGA,112822.000,4005.099358,N,10513.209234,W,2,43,0.54,1583.567,M,-20.669,M,,*75
$GPGSV,3,1,10,04,81,089,45,16,61,070,37,09,51,312,37,46,37,214,47,1*62
$GPGSV,3,2,10,26,29,049,33,03,28,195,48,07,27,271,44,27,23,121,40,1*6A
$GPGSV,3,3,10,31,13,072,28,08,11,155,50,1*66
$GPGSV,2,1,06,04,81,089,42,09,51,312,27,26,29,049,38,03,28,195,45,8*66
$GPGSV,2,2,06,27,23,121,32,08,11,155,47,8*66
$GLGSV,2,1,07,70,78,307,26,80,74,348,36,73,37,239,46,69,32,149,45,1*7C
$GLGSV,2,2,07,71,26,327,42,79,25,038,35,88,02,021,31,1*4A
$GAGSV,1,1,04,19,81,093,38,21,73,091,38,04,35,310,32,27,25,044,39,7*7A
$GAGSV,1,1,04,19,81,093,34,21,73,091,28,04,35,310,31,27,25,044,26,1*7C
$GBGSV,3,1,11,20,67,200,48,37,59,045,41,46,59,251,46,19,47,305,30,1*71
$GBGSV,3,2,11,32,18,156,51,36,10,241,46,23,08,056,39,43,02,049,20,1*72
$GBGSV,3,3,11,28,02,103,32,38,02,341,18,58,,,18,1*7F
$GBGSV,2,1,08,20,67,200,44,37,59,045,34,46,59,251,42,19,47,305,37,5*71
$GBGSV,2,2,08,32,18,156,43,36,10,241,37,23,08,056,38,28,02,103,37,5*7F
$GNGGA,112827.000,4005.099448,N,10513.209180,W,2,43,0.54,1583.570,M,-20.670,M,,*74
$GPGSV,3,1,10,04,81,089,45,16,61,070,38,09,51,312,37,46,37,214,47,1*6D
$GPGSV,3,2,10,26,29,049,33,03,28,195,48,07,27,271,44,27,23,121,40,1*6A
$GPGSV,3,3,10,31,13,072,22,08,11,155,50,1*6C
$GPGSV,2,1,06,04,81,089,42,09,51,312,27,26,29,049,38,03,28,195,45,8*66
$GPGSV,2,2,06,27,23,121,32,08,11,155,47,8*66
$GLGSV,2,1,07,70,78,307,26,80,74,348,37,73,37,239,46,69,32,149,45,1*7D
$GLGSV,2,2,07,71,26,327,42,79,25,038,36,88,02,021,31,1*49
$GAGSV,1,1,04,19,81,093,38,21,73,091,38,04,35,310,32,27,25,044,39,7*7A
$GAGSV,1,1,04,19,81,093,34,21,73,091,29,04,35,310,31,27,25,044,28,1*73
$GBGSV,3,1,12,20,67,200,48,37,59,045,41,46,59,251,46,19,47,305,31,1*73
$GBGSV,3,2,12,32,18,156,51,36,10,241,48,23,08,056,39,38,02,341,19,1*72
$GBGSV,3,3,12,28,02,103,29,43,02,049,19,63,,,28,58,,,18,1*7F
$GBGSV,2,1,08,20,67,200,44,37,59,045,34,46,59,251,42,19,47,305,37,5*71
$GBGSV,2,2,08,32,18,156,43,36,10,241,37,23,08,056,38,28,02,103,37,5*7F
$GNGGA,112832.000,4005.099496,N,10513.209156,W,2,43,0.54,1583.476,M,-20.670,M,,*7F
$GPGSV,3,1,10,04,81,089,45,16,61,070,38,09,51,312,37,46,37,214,47,1*6D
$GPGSV,3,2,10,26,29,049,33,03,28,195,48,07,27,271,44,27,23,121,40,1*6A
$GPGSV,3,3,10,31,13,072,24,08,11,155,50,1*6A
$GPGSV,2,1,06,04,81,089,42,09,51,312,25,26,29,049,38,03,28,195,44,8*65
$GPGSV,2,2,06,27,23,121,31,08,11,155,47,8*65
$GLGSV,2,1,07,70,78,307,27,80,74,348,37,73,37,239,46,69,32,149,46,1*7F
$GLGSV,2,2,07,71,26,327,42,79,25,038,36,88,02,021,32,1*4A
$GAGSV,1,1,04,19,81,093,38,21,73,091,38,04,35,310,31,27,25,044,39,7*79
$GAGSV,1,1,04,19,81,093,33,21,73,091,29,04,35,310,31,27,25,044,28,1*74
$GBGSV,3,1,11,20,67,200,48,37,59,045,41,46,59,251,46,19,47,305,32,1*73
$GBGSV,3,2,11,32,18,156,51,36,10,241,48,23,08,056,39,43,02,049,18,1*77
$GBGSV,3,3,11,28,02,103,29,38,02,341,19,58,,,18,1*74
$GBGSV,2,1,08,20,67,200,44,37,59,045,34,46,59,251,42,19,47,305,37,5*71
$GBGSV,2,2,08,32,18,156,43,36,10,241,37,23,08,056,38,28,02,103,36,5*7E
$GNGGA,112837.000,4005.099538,N,10513.209072,W,2,43,0.54,1583.408,M,-20.670,M,,*71
$GPGSV,3,1,10,04,81,089,45,16,61,070,39,09,51,312,37,46,37,214,47,1*6C
$GPGSV,3,2,10,26,29,049,33,03,28,195,48,07,27,271,44,27,23,121,40,1*6A
$GPGSV,3,3,10,31,13,072,31,08,11,155,50,1*6E
$GPGSV,2,1,06,04,81,089,42,09,51,312,24,26,29,049,38,03,28,195,44,8*64
$GPGSV,2,2,06,27,23,121,31,08,11,155,47,8*65
$GLGSV,2,1,07,70,78,307,29,80,74,348,37,73,37,239,46,69,32,149,46,1*71
$GLGSV,2,2,07,71,26,327,42,79,25,038,36,88,02,021,32,1*4A
$GAGSV,1,1,04,19,81,093,38,21,73,091,37,04,35,310,31,27,25,044,39,7*76
$GAGSV,1,1,04,19,81,093,33,21,73,091,29,04,35,310,31,27,25,044,28,1*74
$GBGSV,3,1,11,20,66,199,48,37,59,045,41,46,59,251,46,19,47,304,33,1*71
$GBGSV,3,2,11,32,18,156,51,36,10,241,47,23,08,056,38,43,02,049,17,1*76
$GBGSV,3,3,11,28,02,103,27,38,02,341,19,58,,,18,1*7A
$GBGSV,3,1,09,20,66,199,44,37,59,045,34,46,59,251,42,19,47,304,37,5*72
$GBGSV,3,2,09,32,18,156,43,36,10,241,38,23,08,056,38,28,02,103,37,5*70
$GBGSV,3,3,09,43,02,049,17,5*45
$GNGGA,112842.000,4005.099544,N,10513.209006,W,2,43,0.54,1583.390,M,-20.669,M,,*75
$GPGSV,3,1,10,04,81,089,45,16,61,070,39,09,51,312,37,46,37,214,47,1*6C
$GPGSV,3,2,10,26,29,049,33,03,28,195,49,07,27,271,44,27,23,121,40,1*6B
$GPGSV,3,3,10,31,13,072,35,08,11,155,50,1*6A
$GPGSV,2,1,06,04,81,089,42,09,51,312,23,26,29,049,39,03,28,195,44,8*62
$GPGSV,2,2,06,27,23,121,31,08,11,155,47,8*65
$GLGSV,2,1,07,70,78,307,28,80,74,348,36,73,37,239,46,69,32,149,46,1*71
$GLGSV,2,2,07,71,26,327,41,79,25,038,36,88,02,021,32,1*49
$GAGSV,1,1,04,19,81,093,38,21,73,091,37,04,35,310,31,27,25,044,39,7*76
$GAGSV,1,1,04,19,81,093,33,21,73,091,29,04,35,310,31,27,25,044,27,1*7B
$GBGSV,3,1,11,20,66,199,48,37,59,045,41,46,59,251,46,19,47,304,34,1*76
$GBGSV,3,2,11,32,18,156,51,36,10,241,47,23,07,057,38,43,02,049,12,1*7D
$GBGSV,3,3,11,28,02,103,25,38,02,341,19,58,,,18,1*78
$GBGSV,3,1,09,20,66,199,44,37,59,045,33,46,59,251,42,19,47,304,37,5*75
$GBGSV,3,2,09,32,18,156,44,36,10,241,38,23,07,057,38,28,02,103,36,5*78
$GBGSV,3,3,09,43,02,049,15,5*47
$GNGGA,112847.000,4005.099550,N,10513.208970,W,2,43,0.54,1583.396,M,-20.670,M,,*72
$GPGSV,3,1,10,04,81,089,45,16,61,070,39,09,51,312,37,46,37,214,47,1*6C
$GPGSV,3,2,10,26,29,049,34,03,28,195,49,07,27,271,44,27,23,121,40,1*6C
$GPGSV,3,3,10,31,13,072,36,08,11,155,50,1*69
$GPGSV,2,1,06,04,81,089,42,09,51,312,23,26,29,049,39,03,28,195,44,8*62
$GPGSV,2,2,06,27,23,121,30,08,11,155,48,8*6B
$GLGSV,2,1,07,70,78,307,26,80,74,348,36,73,37,239,46,69,32,149,46,1*7F
$GLGSV,2,2,07,71,26,327,40,79,25,038,37,88,02,021,31,1*4A
$GAGSV,1,1,04,19,81,093,38,21,73,091,37,04,35,310,30,27,25,044,39,7*77
$GAGSV,1,1,04,19,81,093,33,21,73,091,29,04,35,310,30,27,25,044,28,1*75
$GBGSV,3,1,11,20,66,199,48,37,59,045,41,46,59,251,46,19,47,304,35,1*77
$GBGSV,3,2,11,32,17,157,51,36,10,241,48,23,07,057,38,43,02,049,17,1*79
$GBGSV,3,3,11,28,02,102,27,38,02,341,19,58,,,18,1*7B
$GBGSV,3,1,09,20,66,199,44,37,59,045,33,46,59,251,42,19,47,304,37,5*75
$GBGSV,3,2,09,32,17,157,44,36,10,241,38,23,07,057,38,28,02,102,36,5*77
$GBGSV,3,3,09,43,02,049,15,5*47
$GNGGA,112852.000,4005.099532,N,10513.208916,W,2,43,0.54,1583.358,M,-20.670,M,,*70
$GPGSV,3,1,10,04,81,089,45,16,61,070,39,09,51,312,37,46,37,214,47,1*6C
$GPGSV,3,2,10,26,29,049,35,03,28,195,49,07,27,271,45,27,23,121,40,1*6C
$GPGSV,3,3,10,31,13,072,36,08,11,155,50,1*69
$GPGSV,2,1,06,04,81,089,42,09,51,312,24,26,29,049,39,03,28,195,44,8*65
$GPGSV,2,2,06,27,23,121,30,08,11,155,48,8*6B
$GLGSV,2,1,07,70,78,307,27,80,74,348,35,73,37,239,46,69,32,149,45,1*7E
$GLGSV,2,2,07,71,26,327,41,79,25,038,39,88,02,021,31,1*45
$GAGSV,1,1,04,19,81,093,38,21,73,091,37,04,35,310,29,27,25,044,39,7*7F
$GAGSV,1,1,04,19,81,093,33,21,73,091,29,04,35,310,30,27,25,044,28,1*75
$GBGSV,3,1,11,20,66,199,48,46,59,251,46,37,58,046,41,19,47,304,36,1*76
$GBGSV,3,2,11,32,17,157,51,36,11,242,47,23,07,057,38,43,02,049,18,1*7B
$GBGSV,3,3,11,28,02,102,32,38,02,341,19,58,,,18,1*7F
$GBGSV,3,1,09,20,66,199,44,46,59,251,42,37,58,046,34,19,47,304,37,5*70
$GBGSV,3,2,09,32,17,157,44,36,11,242,38,23,07,057,38,28,02,102,36,5*75
$GBGSV,3,3,09,43,02,049,15,5*47
$GNGGA,112857.000,4005.099526,N,10513.208880,W,2,43,0.54,1583.412,M,-20.670,M,,*77
$GPGSV,3,1,10,04,81,089,45,16,61,070,39,09,51,312,37,46,37,214,47,1*6C
$GPGSV,3,2,10,26,29,049,35,03,28,195,49,07,27,271,45,27,23,121,40,1*6C
$GPGSV,3,3,10,31,13,072,36,08,11,155,50,1*69
$GPGSV,2,1,06,04,81,089,42,09,51,312,25,26,29,049,39,03,28,195,44,8*64
$GPGSV,2,2,06,27,23,121,29,08,11,155,48,8*63
$GLGSV,2,1,07,70,78,307,26,80,74,348,34,73,37,239,46,69,32,149,45,1*7E
$GLGSV,2,2,07,71,26,327,42,79,25,038,39,88,02,021,30,1*47
$GAGSV,1,1,04,19,81,093,38,21,73,091,37,04,35,310,29,27,25,044,39,7*7F
$GAGSV,1,1,04,19,81,093,33,21,73,091,29,04,35,310,29,27,25,044,29,1*7C
$GBGSV,3,1,11,20,66,199,48,46,59,251,46,37,58,046,41,19,47,304,36,1*76
$GBGSV,3,2,11,32,17,157,51,36,11,242,49,23,07,057,38,43,02,049,18,1*75
$GBGSV,3,3,11,28,02,102,34,38,02,341,19,58,,,18,1*79
$GBGSV,3,1,09,20,66,199,44,46,59,251,42,37,58,046,33,19,47,304,37,5*77
$GBGSV,3,2,09,32,17,157,44,36,11,242,38,23,07,057,38,28,02,102,36,5*75
$GBGSV,3,3,09,43,02,049,15,5*47
$GNGGA,112902.000,4005.099532,N,10513.208868,W,2,43,0.54,1583.466,M,-20.670,M,,*76
$GPGSV,3,1,10,04,81,089,45,16,61,070,39,09,51,312,38,46,37,214,47,1*63
$GPGSV,3,2,10,26,29,049,35,03,28,195,49,07,27,271,45,27,23,121,41,1*6D
$GPGSV,3,3,10,31,13,072,36,08,11,155,50,1*69
$GPGSV,2,1,06,04,81,089,42,09,51,312,25,26,29,049,39,03,28,195,44,8*64
$GPGSV,2,2,06,27,23,121,29,08,11,155,48,8*63
$GLGSV,2,1,07,70,78,307,26,80,74,348,34,73,37,239,46,69,32,149,45,1*7E
$GLGSV,2,2,07,71,26,327,41,79,25,038,39,88,02,021,30,1*44
$GAGSV,1,1,04,19,81,093,38,21,73,091,37,04,35,310,30,27,25,044,39,7*77
$GAGSV,1,1,04,19,81,093,33,21,73,091,29,04,35,310,28,27,25,044,29,1*7D
$GBGSV,3,1,11,20,66,199,48,46,60,253,47,37,58,046,41,19,47,304,36,1*7F
$GBGSV,3,2,11,32,17,157,51,36,11,242,49,23,07,057,38,43,02,048,18,1*74
$GBGSV,3,3,11,28,02,102,34,38,02,341,19,58,,,19,1*78
$GBGSV,2,1,08,20,66,199,44,46,60,253,42,37,58,046,33,19,47,304,37,5*7F
$GBGSV,2,2,08,32,17,157,44,36,11,242,38,23,07,057,38,28,02,102,36,5*75
$GNGGA,112907.000,4005.099568,N,10513.208916,W,2,43,0.54,1583.471,M,-20.670,M,,*72
$GPGSV,3,1,10,04,81,089,45,16,61,070,38,09,51,312,38,46,37,214,47,1*62
$GPGSV,3,2,10,26,29,049,35,03,28,195,49,07,27,271,45,27,23,121,41,1*6D
$GPGSV,3,3,10,31,13,072,36,08,11,155,50,1*69
$GPGSV,2,1,06,04,81,089,42,09,51,312,25,26,29,049,39,03,28,195,44,8*64
$GPGSV,2,2,06,27,23,121,29,08,11,155,48,8*63
$GLGSV,2,1,07,70,78,307,27,80,74,348,34,73,37,239,46,69,32,149,45,1*7F
$GLGSV,2,2,07,71,26,327,41,79,25,038,39,88,02,021,30,1*44
$GAGSV,1,1,04,19,81,093,38,21,73,091,37,04,35,310,30,27,25,044,40,7*79
$GAGSV,1,1,04,19,81,093,33,21,73,091,29,04,35,310,28,27,25,044,30,1*75
$GBGSV,3,1,11,20,66,199,48,46,60,253,47,37,58,046,41,19,47,304,34,1*7D
$GBGSV,3,2,11,32,17,157,51,36,11,242,49,23,07,057,38,43,02,048,13,1*7F
$GBGSV,3,3,11,28,02,102,34,38,02,341,20,58,,,19,1*72
$GBGSV,2,1,08,20,66,199,44,46,60,253,42,37,58,046,33,19,47,304,37,5*7F
$GBGSV,2,2,08,32,17,157,44,36,11,242,38,23,07,057,38,28,02,102,36,5*75
$GNGGA,112912.000,4005.099652,N,10513.208946,W,2,43,0.54,1583.526,M,-20.670,M,,*7A
$GPGSV,3,1,10,04,81,089,45,16,61,070,37,09,51,312,38,46,37,214,47,1*6D
$GPGSV,3,2,10,26,29,049,35,03,28,195,49,07,27,271,45,27,23,121,41,1*6D
$GPGSV,3,3,10,31,13,072,36,08,11,155,50,1*69
$GPGSV,2,1,06,04,81,089,42,09,51,312,23,26,29,049,39,03,28,195,43,8*65
$GPGSV,2,2,06,27,23,121,28,08,11,155,48,8*62
$GLGSV,2,1,07,70,78,307,27,80,74,348,35,73,37,239,45,69,32,149,45,1*7D
$GLGSV,2,2,07,71,26,327,41,79,25,038,39,88,02,021,30,1*44
$GAGSV,1,1,04,19,81,093,37,21,73,091,37,04,35,310,30,27,25,044,40,7*76
$GAGSV,1,1,04,19,81,093,33,21,73,091,29,04,35,310,28,27,25,044,30,1*75
$GBGSV,3,1,11,20,66,199,48,46,60,253,47,37,58,046,41,19,47,304,31,1*78
$GBGSV,3,2,11,32,17,157,50,36,11,242,49,23,07,057,38,43,02,048,16,1*7B
$GBGSV,3,3,11,28,02,102,36,38,02,341,20,58,,,19,1*70
$GBGSV,2,1,08,20,66,199,44,46,60,253,42,37,58,046,33,19,47,304,38,5*70
$GBGSV,2,2,08,32,17,157,44,36,11,242,39,23,07,057,39,28,02,102,36,5*75
$GNGGA,112917.000,4005.099742,N,10513.208874,W,2,43,0.54,1583.643,M,-20.670,M,,*7F
$GPGSV,3,1,10,04,81,089,45,16,61,070,37,09,51,312,38,46,37,214,47,1*6D
$GPGSV,3,2,10,26,29,049,36,03,28,195,49,07,27,271,45,27,23,121,41,1*6E
$GPGSV,3,3,10,31,13,072,36,08,11,155,50,1*69
$GPGSV,2,1,06,04,81,089,42,09,51,312,20,26,29,049,39,03,28,195,43,8*66
$GPGSV,2,2,06,27,23,121,28,08,11,155,48,8*62
$GLGSV,2,1,07,70,78,307,28,80,74,348,36,73,37,239,45,69,32,149,45,1*71
$GLGSV,2,2,07,71,26,327,39,79,25,038,39,88,02,021,29,1*43
$GAGSV,1,1,04,19,81,093,37,21,73,091,37,04,35,310,30,27,25,044,40,7*76
$GAGSV,1,1,04,19,81,093,33,21,73,091,29,04,35,310,26,27,25,044,29,1*73
$GBGSV,3,1,11,20,66,199,48,46,60,253,47,37,58,046,41,19,47,304,29,1*71
$GBGSV,3,2,11,32,17,157,50,36,11,242,49,23,07,057,39,43,02,048,19,1*75
$GBGSV,3,3,11,28,02,102,37,38,02,341,19,58,,,19,1*7B
$GBGSV,2,1,08,20,66,199,44,46,60,253,42,37,58,046,33,19,47,304,38,5*70
$GBGSV,2,2,08,32,17,157,44,36,11,242,39,23,07,057,39,28,02,102,36,5*75
$GNGGA,112922.000,4005.099796,N,10513.208802,W,2,42,0.54,1583.678,M,-20.670,M,,*78
$GPGSV,3,1,10,04,80,096,45,16,61,070,37,09,51,312,38,46,37,214,47,1*62
$GPGSV,3,2,10,26,29,049,36,07,27,271,45,03,27,195,49,27,23,121,41,1*61
$GPGSV,3,3,10,31,13,072,36,08,11,155,50,1*69
$GPGSV,2,1,06,04,80,096,42,09,51,312,23,26,29,049,39,03,27,195,43,8*65
$GPGSV,2,2,06,27,23,121,28,08,11,155,48,8*62
$GLGSV,2,1,07,70,78,307,28,80,74,348,36,73,37,239,45,69,32,149,45,1*71
$GLGSV,2,2,07,71,26,327,39,79,25,038,39,88,02,021,28,1*42
$GAGSV,1,1,04,19,81,093,37,21,73,091,37,04,35,310,31,27,25,044,40,7*77
$GAGSV,1,1,04,19,81,093,33,21,73,091,29,04,35,310,25,27,25,044,29,1*70
$GBGSV,3,1,11,20,66,199,48,46,60,253,47,37,58,046,41,19,47,304,31,1*78
$GBGSV,3,2,11,32,17,157,50,36,11,242,49,23,07,057,39,43,02,048,22,1*7D
$GBGSV,3,3,11,28,02,102,36,38,02,341,19,58,,,18,1*7B
$GBGSV,2,1,08,20,66,199,44,46,60,253,42,37,58,046,33,19,47,304,38,5*70
$GBGSV,2,2,08,32,17,157,44,36,11,242,39,23,07,057,39,28,02,102,36,5*75
$GNGGA,112927.000,4005.099778,N,10513.208730,W,2,42,0.54,1583.696,M,-20.670,M,,*73
$GPGSV,3,1,10,04,80,096,45,16,61,070,37,09,52,312,39,46,37,214,47,1*60
$GPGSV,3,2,10,26,29,049,37,07,28,272,45,03,27,195,49,27,23,121,41,1*6C
$GPGSV,3,3,10,31,13,072,37,08,12,154,50,1*6A
$GPGSV,2,1,06,04,80,096,42,09,52,312,24,26,29,049,39,03,27,195,43,8*61
$GPGSV,2,2,06,27,23,121,28,08,12,154,48,8*60
$GLGSV,2,1,07,70,78,307,28,80,74,348,36,73,37,239,45,69,32,149,45,1*71
$GLGSV,2,2,07,71,26,327,39,79,25,038,40,88,02,021,28,1*4C
$GAGSV,1,1,04,19,81,093,37,21,73,091,37,04,35,310,32,27,25,044,40,7*74
$GAGSV,1,1,04,19,81,093,33,21,73,091,30,04,35,310,25,27,25,044,30,1*70
$GBGSV,3,1,11,20,66,199,48,46,60,253,47,37,58,046,41,19,47,304,32,1*7B
$GBGSV,3,2,11,32,17,157,50,36,11,242,48,23,07,057,39,43,02,048,23,1*7D
$GBGSV,3,3,11,28,02,102,39,38,02,341,19,58,,,19,1*75
$GBGSV,2,1,08,20,66,199,45,46,60,253,42,37,58,046,34,19,47,304,38,5*76
$GBGSV,2,2,08,32,17,157,45,36,11,242,40,23,07,057,40,28,02,102,36,5*74
$GNGGA,112932.000,4005.099736,N,10513.208718,W,2,43,0.54,1583.661,M,-20.670,M,,*7E
$GPGSV,3,1,10,04,80,096,45,16,61,070,38,09,52,312,39,46,37,214,47,1*6F
$GPGSV,3,2,10,26,29,049,38,07,28,272,45,03,27,195,50,27,23,121,41,1*6B
$GPGSV,3,3,10,31,13,072,37,08,12,154,50,1*6A
$GPGSV,2,1,06,04,80,096,42,09,52,312,24,26,29,049,39,03,27,195,43,8*61
$GPGSV,2,2,06,27,23,121,27,08,12,154,48,8*6F
$GLGSV,2,1,07,70,78,307,27,80,74,348,36,73,37,239,45,69,32,149,45,1*7E
$GLGSV,2,2,07,71,26,327,38,79,25,038,41,88,02,021,28,1*4C
$GAGSV,1,1,04,19,81,093,37,21,73,091,37,04,35,310,32,27,25,044,40,7*74
$GAGSV,1,1,04,19,81,093,33,21,73,091,30,04,35,310,24,27,25,044,30,1*71
$GBGSV,3,1,11,20,66,199,48,46,60,253,47,37,58,046,41,19,47,304,33,1*7A
$GBGSV,3,2,11,32,17,157,49,36,11,242,48,23,07,057,39,43,02,048,20,1*76
$GBGSV,3,3,11,28,02,102,39,38,02,341,20,58,,,19,1*7F
$GBGSV,2,1,08,20,66,199,45,46,60,253,42,37,58,046,34,19,47,304,38,5*76
$GBGSV,2,2,08,32,17,157,45,36,11,242,40,23,07,057,40,28,02,102,35,5*77
$GNGGA,112937.000,4005.099718,N,10513.208676,W,2,42,0.54,1583.538,M,-20.670,M,,*70
$GPGSV,3,1,10,04,80,096,45,16,60,068,38,09,52,312,39,46,37,214,47,1*67
$GPGSV,3,2,10,26,29,049,38,07,28,272,45,03,27,195,50,27,23,121,41,1*6B
$GPGSV,3,3,10,31,13,072,37,08,12,154,50,1*6A
$GPGSV,2,1,06,04,80,096,42,09,52,312,25,26,29,049,39,03,27,195,43,8*60
$GPGSV,2,2,06,27,23,121,27,08,12,154,48,8*6F
$GLGSV,2,1,07,70,78,307,26,80,74,348,35,73,37,239,44,69,32,149,45,1*7D
$GLGSV,2,2,07,71,26,327,37,79,25,038,41,88,02,021,28,1*43
$GAGSV,1,1,04,19,81,093,37,21,73,091,37,04,35,310,28,27,25,044,40,7*7F
$GAGSV,1,1,04,19,81,093,33,21,73,091,30,04,35,310,24,27,25,044,31,1*70
$GBGSV,3,1,11,20,66,199,48,46,60,253,47,37,58,046,41,19,47,304,32,1*7B
$GBGSV,3,2,11,32,17,157,49,36,11,242,49,23,07,057,39,43,02,048,16,1*72
$GBGSV,3,3,11,28,02,102,39,38,02,341,19,58,,,19,1*75
$GBGSV,2,1,08,20,66,199,45,46,60,253,42,37,58,046,34,19,47,304,38,5*76
$GBGSV,2,2,08,32,17,157,45,36,11,242,40,23,07,057,40,28,02,102,35,5*77
$GNGGA,112942.000,4005.099694,N,10513.208724,W,2,43,0.54,1583.467,M,-20.670,M,,*7B
$GPGSV,3,1,10,04,80,096,45,16,60,068,38,09,52,312,39,46,37,214,47,1*67
$GPGSV,3,2,10,26,29,049,38,07,28,272,45,03,27,195,50,27,23,121,41,1*6B
$GPGSV,3,3,10,31,13,072,38,08,12,154,49,1*6D
$GPGSV,2,1,06,04,80,096,42,09,52,312,25,26,29,049,39,03,27,195,43,8*60
$GPGSV,2,2,06,27,23,121,27,08,12,154,48,8*6F
$GLGSV,2,1,07,70,78,307,27,80,74,348,35,73,37,239,44,69,32,149,45,1*7C
$GLGSV,2,2,07,71,26,327,35,79,25,038,40,88,02,021,29,1*41
$GAGSV,1,1,04,19,81,093,37,21,73,091,37,04,35,310,27,27,25,044,40,7*70
$GAGSV,1,1,04,19,81,093,33,21,73,091,30,04,35,310,23,27,25,044,32,1*74
$GBGSV,3,1,11,20,66,199,49,46,60,253,47,37,58,046,41,19,47,304,28,1*71
$GBGSV,3,2,11,32,17,157,49,36,11,242,49,23,07,057,39,43,02,048,14,1*70
$GBGSV,3,3,11,28,02,102,39,38,02,341,19,58,,,19,1*75
$GBGSV,3,1,09,20,66,199,45,46,60,253,42,37,58,046,34,19,47,304,38,5*76
$GBGSV,3,2,09,32,17,157,45,36,11,242,40,23,07,057,40,28,02,102,35,5*77
$GBGSV,3,3,09,43,02,048,17,5*44
$GNGGA,112947.000,4005.099658,N,10513.208724,W,2,42,0.54,1583.548,M,-20.670,M,,*73
$GPGSV,3,1,10,04,80,096,45,16,60,068,38,09,52,312,39,46,37,214,47,1*67
$GPGSV,3,2,10,07,28,272,45,26,28,049,38,03,27,195,50,27,24,120,41,1*6C
$GPGSV,3,3,10,31,13,072,39,08,12,154,49,1*6C
$GPGSV,2,1,06,04,80,096,42,09,52,312,26,26,28,049,39,03,27,195,42,8*63
$GPGSV,2,2,06,27,24,120,27,08,12,154,48,8*69
$GLGSV,2,1,07,70,78,307,28,80,74,348,34,73,37,239,44,69,32,149,45,1*72
$GLGSV,2,2,07,71,26,327,36,79,25,038,40,88,02,021,29,1*42
$GAGSV,1,1,04,19,81,093,37,21,73,091,37,04,35,310,26,27,25,044,40,7*71
$GAGSV,1,1,04,19,81,093,33,21,73,091,31,04,35,310,21,27,25,044,32,1*77
$GBGSV,3,1,11,20,66,199,49,46,60,253,47,37,58,046,41,19,47,304,28,1*71
$GBGSV,3,2,11,32,17,157,49,36,11,242,49,23,07,057,39,43,02,048,14,1*70
$GBGSV,3,3,11,28,02,102,41,38,02,341,19,58,,,19,1*7A
$GBGSV,3,1,09,20,66,199,45,46,60,253,42,37,58,046,34,19,47,304,38,5*76
$GBGSV,3,2,09,32,17,157,45,36,11,242,40,23,07,057,40,28,02,102,33,5*71
$GBGSV,3,3,09,43,02,048,18,5*4B
$GNGGA,112952.000,4005.099676,N,10513.208706,W,2,42,0.54,1583.723,M,-20.670,M,,*74
$GPGSV,3,1,10,04,80,096,45,16,60,068,38,09,52,312,38,46,37,214,47,1*66
$GPGSV,3,2,10,07,28,272,46,26,28,049,39,03,27,195,50,27,24,120,41,1*6E
$GPGSV,3,3,10,08,12,154,49,31,12,073,39,1*6C
$GPGSV,2,1,06,04,80,096,42,09,52,312,27,26,28,049,39,03,27,195,42,8*62
$GPGSV,2,2,06,27,24,120,27,08,12,154,48,8*69
$GLGSV,2,1,07,70,78,307,28,80,74,348,35,73,37,239,44,69,32,149,45,1*73
$GLGSV,2,2,07,71,26,327,37,79,25,038,40,88,02,021,29,1*43
$GAGSV,1,1,04,19,81,093,37,21,73,091,37,04,35,310,28,27,25,044,40,7*7F
$GAGSV,1,1,04,19,81,093,33,21,73,091,31,04,35,310,21,27,25,044,32,1*77
$GBGSV,3,1,11,20,66,199,49,46,60,253,47,37,58,046,40,19,47,304,29,1*71
$GBGSV,3,2,11,32,17,157,48,36,11,242,49,23,07,057,39,43,02,048,13,1*76
$GBGSV,3,3,11,28,02,102,41,38,02,341,18,58,,,19,1*7B
$GBGSV,3,1,09,20,66,199,45,46,60,253,41,37,58,046,34,19,47,304,38,5*75
$GBGSV,3,2,09,32,17,157,45,36,11,242,40,23,07,057,40,28,02,102,33,5*71
$GBGSV,3,3,09,43,02,048,18,5*4B
$GNGGA,112957.000,4005.099742,N,10513.208730,W,2,42,0.54,1583.878,M,-20.670,M,,*73
$GPGSV,3,1,10,04,80,096,45,16,60,068,38,09,52,312,38,46,37,214,47,1*66
$GPGSV,3,2,10,07,28,272,46,26,28,049,39,03,27,195,50,27,24,120,42,1*6D
$GPGSV,3,3,10,08,12,154,49,31,12,073,39,1*6C
$GPGSV,2,1,06,04,80,096,42,09,52,312,28,26,28,049,39,03,27,195,42,8*6D
$GPGSV,2,2,06,27,24,120,28,08,12,154,48,8*66
$GLGSV,2,1,07,70,78,307,27,80,74,348,35,73,37,239,44,69,32,149,45,1*7C
$GLGSV,2,2,07,71,26,327,37,79,25,038,40,88,02,021,26,1*4C
$GAGSV,1,1,04,19,81,093,37,21,73,091,37,04,35,310,29,27,25,044,40,7*7E
$GAGSV,1,1,04,19,81,093,33,21,73,091,30,04,35,310,21,27,25,044,31,1*75
$GBGSV,3,1,11,20,66,199,49,46,60,253,47,37,58,046,40,19,47,304,33,1*7A
$GBGSV,3,2,11,32,17,157,48,36,11,242,49,23,07,057,39,43,02,048,16,1*73
$GBGSV,3,3,11,28,02,102,41,38,02,341,18,58,,,19,1*7B
$GBGSV,3,1,09,20,66,199,45,46,60,253,41,37,58,046,33,19,47,304,38,5*72
$GBGSV,3,2,09,32,17,157,45,36,11,242,40,23,07,057,40,28,02,102,33,5*71
$GBGSV,3,3,09,43,02,048,18,5*4B
$GNGGA,113002.000,4005.099808,N,10513.208760,W,2,42,0.54,1583.990,M,-20.670,M,,*78
$GPGSV,3,1,10,04,80,096,45,16,60,068,38,09,52,312,38,46,37,214,47,1*66
$GPGSV,3,2,10,07,28,272,46,26,28,049,39,03,27,195,50,27,24,120,42,1*6D
$GPGSV,3,3,10,08,12,154,49,31,12,073,39,1*6C
$GPGSV,2,1,06,04,80,096,42,09,52,312,29,26,28,049,39,03,27,195,42,8*6C
$GPGSV,2,2,06,27,24,120,28,08,12,154,48,8*66
$GLGSV,2,1,07,70,78,307,26,80,74,348,36,73,37,239,44,69,32,149,45,1*7E
$GLGSV,2,2,07,71,26,327,38,79,25,038,41,88,02,021,28,1*4C
$GAGSV,1,1,04,19,81,093,37,21,73,091,37,04,36,310,27,27,25,044,40,7*73
$GAGSV,1,1,04,19,81,093,33,21,73,091,30,04,36,310,22,27,25,044,32,1*76
$GBGSV,3,1,11,20,66,199,49,46,60,253,47,37,58,046,40,19,47,304,35,1*7C
$GBGSV,3,2,11,32,17,157,48,36,11,242,50,23,07,057,39,43,02,048,20,1*7E
$GBGSV,3,3,11,28,02,102,43,38,02,341,18,58,,,19,1*79
$GBGSV,3,1,09,20,66,199,45,46,60,253,41,37,58,046,34,19,47,304,39,5*74
$GBGSV,3,2,09,32,17,157,45,36,11,242,40,23,07,057,40,28,02,102,34,5*76
$GBGSV,3,3,09,43,02,048,18,5*4B
$GNGGA,113007.000,4005.099814,N,10513.208790,W,2,43,0.54,1584.064,M,-20.670,M,,*7B
$GPGSV,3,1,10,04,80,096,45,16,60,068,38,09,52,312,38,46,37,214,47,1*66
$GPGSV,3,2,10,07,28,272,46,26,28,049,40,03,27,195,50,27,24,120,42,1*63
$GPGSV,3,3,10,08,12,154,48,31,12,073,39,1*6D
$GPGSV,2,1,06,04,80,096,42,09,52,312,29,26,28,049,39,03,27,195,42,8*6C
$GPGSV,2,2,06,27,24,120,28,08,12,154,48,8*66
$GLGSV,2,1,07,70,78,307,27,80,74,348,36,73,37,239,44,69,32,149,44,1*7E
$GLGSV,2,2,07,71,26,327,39,79,25,038,41,88,02,021,28,1*4D
$GAGSV,1,1,04,19,81,093,37,21,73,091,37,04,36,310,24,27,25,044,40,7*70
$GAGSV,1,1,04,19,81,093,33,21,73,091,30,04,36,310,22,27,25,044,32,1*76
$GBGSV,3,1,11,20,66,199,49,46,60,253,47,37,58,046,40,19,47,304,36,1*7F
$GBGSV,3,2,11,32,17,157,48,36,11,242,50,23,07,057,38,43,02,048,23,1*7C
$GBGSV,3,3,11,28,02,102,43,38,02,341,18,58,,,19,1*79
$GBGSV,3,1,09,20,66,199,45,46,60,253,41,37,58,046,34,19,47,304,39,5*74
$GBGSV,3,2,09,32,17,157,45,36,11,242,40,23,07,057,40,28,02,102,33,5*71
$GBGSV,3,3,09,43,02,048,18,5*4B
$GNGGA,113012.000,4005.099886,N,10513.208874,W,2,43,0.54,1584.037,M,-20.670,M,,*77
$GPGSV,3,1,10,04,80,096,45,16,60,068,38,09,52,312,38,46,37,214,47,1*66
$GPGSV,3,2,10,07,28,272,46,26,28,049,40,03,27,195,50,27,24,120,43,1*62
$GPGSV,3,3,10,08,12,154,48,31,12,073,39,1*6D
$GPGSV,2,1,06,04,80,096,42,09,52,312,29,26,28,049,39,03,27,195,42,8*6C
$GPGSV,2,2,06,27,24,120,28,08,12,154,48,8*66
$GLGSV,2,1,07,70,78,307,28,80,74,348,36,73,37,239,44,69,32,149,45,1*70
$GLGSV,2,2,07,71,26,327,38,79,25,038,41,88,02,021,26,1*42
$GAGSV,1,1,04,19,81,093,37,21,73,091,37,04,36,310,20,27,25,044,40,7*74
$GAGSV,1,1,04,19,81,093,33,21,73,091,30,04,36,310,22,27,25,044,32,1*76
$GBGSV,3,1,11,20,66,199,49,46,60,253,47,37,58,046,40,19,47,304,35,1*7C
$GBGSV,3,2,11,32,17,157,48,36,11,242,50,23,07,057,36,43,02,048,23,1*72
$GBGSV,3,3,11,28,02,102,43,38,02,341,18,58,,,19,1*79
$GBGSV,3,1,09,20,66,199,45,46,60,253,41,37,58,046,33,19,47,304,39,5*73
$GBGSV,3,2,09,32,17,157,45,36,11,242,40,23,07,057,40,28,02,102,32,5*70
$GBGSV,3,3,09,43,02,048,17,5*44
$GNGGA,113017.000,4005.099886,N,10513.208934,W,2,43,0.54,1584.047,M,-20.670,M,,*70
$GPGSV,3,1,10,04,80,096,45,16,60,068,38,09,52,312,39,46,37,214,47,1*67
$GPGSV,3,2,10,07,28,272,46,26,28,049,40,03,27,195,50,27,24,120,43,1*62
$GPGSV,3,3,10,08,12,154,48,31,12,073,40,1*63
$GPGSV,2,1,06,04,80,096,42,09,52,312,30,26,28,049,40,03,27,195,42,8*6A
$GPGSV,2,2,06,27,24,120,29,08,12,154,48,8*67
$GLGSV,2,1,07,70,78,307,26,80,74,348,34,73,37,239,43,69,32,149,45,1*7B
$GLGSV,2,2,07,71,26,327,37,79,25,038,41,88,02,021,21,1*4A
$GAGSV,1,1,04,19,80,098,37,21,73,091,37,04,36,310,22,27,25,044,40,7*7C
$GAGSV,1,1,04,19,80,098,33,21,73,091,30,04,36,310,24,27,25,044,33,1*7B
$GBGSV,3,1,11,20,66,199,49,46,60,253,47,37,58,046,40,19,47,304,32,1*7B
$GBGSV,3,2,11,32,17,157,48,36,11,242,50,23,07,057,36,43,02,048,21,1*70
$GBGSV,3,3,11,28,02,102,43,38,02,341,17,58,,,19,1*76
$GBGSV,3,1,09,20,66,199,45,46,60,253,41,37,58,046,33,19,47,304,39,5*73
$GBGSV,3,2,09,32,17,157,45,36,11,242,41,23,07,057,40,28,02,102,32,5*71
$GBGSV,3,3,09,43,02,048,17,5*44
$GNGGA,113022.000,4005.099868,N,10513.208976,W,2,42,0.54,1584.123,M,-20.670,M,,*72
$GPGSV,3,1,10,04,80,096,45,16,60,068,38,09,52,312,39,46,37,214,47,1*67
$GPGSV,3,2,10,07,28,272,46,26,28,049,40,03,27,195,50,27,24,120,43,1*62
$GPGSV,3,3,10,08,12,154,48,31,12,073,41,1*62
$GPGSV,2,1,06,04,80,096,42,09,52,312,31,26,28,049,40,03,27,195,42,8*6B
$GPGSV,2,2,06,27,24,120,29,08,12,154,48,8*67
$GLGSV,2,1,07,70,78,307,26,80,74,348,32,73,37,239,43,69,32,149,45,1*7D
$GLGSV,2,2,07,71,26,327,38,79,25,038,42,88,02,021,20,1*47
$GAGSV,1,1,04,19,80,098,37,21,73,088,38,04,36,310,25,27,25,044,40,7*7C
$GAGSV,1,1,04,19,80,098,33,21,73,088,31,04,36,310,25,27,25,044,34,1*74
$GBGSV,3,1,11,20,66,199,49,46,60,253,47,37,58,046,39,19,47,304,16,1*73
$GBGSV,3,2,11,32,17,157,47,36,11,242,50,23,07,057,35,43,02,048,21,1*7C
$GBGSV,3,3,11,28,02,102,43,38,02,341,17,58,,,19,1*76
$GBGSV,3,1,09,20,66,199,45,46,60,253,41,37,58,046,33,19,47,304,39,5*73
$GBGSV,3,2,09,32,17,157,45,36,11,242,41,23,07,057,40,28,02,102,32,5*71
$GBGSV,3,3,09,43,02,048,17,5*44
$GNGGA,113027.000,4005.099874,N,10513.209000,W,2,43,0.54,1584.194,M,-20.670,M,,*7E
$GPGSV,3,1,10,04,80,096,45,16,60,068,38,09,52,312,39,46,37,214,47,1*67
$GPGSV,3,2,10,07,28,272,46,26,28,049,40,03,27,195,50,27,24,120,43,1*62
$GPGSV,3,3,10,08,12,154,47,31,12,073,41,1*6D
$GPGSV,2,1,06,04,80,096,42,09,52,312,31,26,28,049,41,03,27,195,42,8*6A
$GPGSV,2,2,06,27,24,120,29,08,12,154,48,8*67
$GLGSV,2,1,07,70,78,307,29,80,74,348,30,73,37,239,43,69,32,149,45,1*70
$GLGSV,2,2,07,71,26,327,38,79,25,038,42,88,02,021,17,1*43
$GAGSV,1,1,04,19,80,098,37,21,73,088,38,04,36,310,27,27,24,044,41,7*7E
$GAGSV,1,1,04,19,80,098,33,21,73,088,31,04,36,310,26,27,24,044,34,1*76
$GBGSV,3,1,11,20,66,199,49,46,60,253,47,37,58,046,38,19,47,304,27,1*70
$GBGSV,3,2,11,32,17,157,47,36,11,242,50,23,07,057,35,43,02,048,22,1*7F
$GBGSV,3,3,11,28,02,102,43,38,02,341,17,58,,,19,1*76
$GBGSV,3,1,09,20,66,199,45,46,60,253,41,37,58,046,33,19,47,304,39,5*73
$GBGSV,3,2,09,32,17,157,45,36,11,242,41,23,07,057,40,28,02,102,32,5*71
$GBGSV,3,3,09,43,02,048,17,5*44
$GNGGA,113032.000,4005.099886,N,10513.209030,W,2,43,0.54,1584.232,M,-20.669,M,,*73
$GPGSV,3,1,10,04,80,096,45,16,60,068,38,09,52,312,39,46,37,214,47,1*67
$GPGSV,3,2,10,07,28,272,46,26,28,049,40,03,27,195,50,27,24,120,43,1*62
$GPGSV,3,3,10,08,12,154,47,31,12,073,41,1*6D
$GPGSV,2,1,06,04,80,096,42,09,52,312,32,26,28,049,41,03,27,195,42,8*69
$GPGSV,2,2,06,27,24,120,30,08,12,154,48,8*6F
$GLGSV,2,1,07,70,78,307,29,80,74,348,30,73,37,239,43,69,32,149,45,1*70
$GLGSV,2,2,07,71,26,327,37,79,25,038,42,88,02,021,19,1*42
$GAGSV,1,1,04,19,80,098,37,21,73,088,39,04,36,310,27,27,24,044,42,7*7C
$GAGSV,1,1,04,19,80,098,33,21,73,088,31,04,36,310,27,27,24,044,34,1*77
$GBGSV,3,1,11,20,66,199,49,46,60,253,47,37,58,046,37,19,47,304,35,1*7C
$GBGSV,3,2,11,32,17,157,47,36,11,242,50,23,07,057,35,43,02,048,21,1*7C
$GBGSV,3,3,11,28,02,102,43,38,02,341,16,58,,,19,1*77
$GBGSV,3,1,09,20,66,199,45,46,60,253,41,37,58,046,33,19,47,304,39,5*73
$GBGSV,3,2,09,32,17,157,45,36,11,242,41,23,07,057,39,28,02,102,31,5*7C
$GBGSV,3,3,09,43,02,048,16,5*45
$GNGGA,113037.000,4005.099886,N,10513.209084,W,2,43,0.54,1584.241,M,-20.670,M,,*75
$GPGSV,3,1,10,04,80,096,45,16,60,068,38,09,52,312,39,46,37,214,47,1*67
$GPGSV,3,2,10,07,28,272,46,26,28,049,40,03,27,195,50,27,24,120,44,1*65
$GPGSV,3,3,10,08,12,154,46,31,12,073,41,1*6C
$GPGSV,2,1,06,04,80,096,42,09,52,312,32,26,28,049,41,03,27,195,42,8*69
$GPGSV,2,2,06,27,24,120,31,08,12,154,48,8*6E
$GLGSV,2,1,07,70,78,307,27,80,74,348,32,73,37,239,43,69,32,149,45,1*7C
$GLGSV,2,2,07,71,26,327,37,79,25,038,42,88,02,021,20,1*48
$GAGSV,1,1,04,19,80,098,37,21,73,088,39,04,36,310,29,27,24,044,42,7*72
$GAGSV,1,1,04,19,80,098,33,21,73,088,31,04,36,310,28,27,24,044,34,1*78
$GBGSV,3,1,11,20,66,199,49,46,60,253,47,37,58,046,37,19,47,304,36,1*7F
$GBGSV,3,2,11,32,17,157,47,36,11,242,50,23,07,057,35,43,02,048,21,1*7C
$GBGSV,3,3,11,28,02,102,43,38,02,341,16,58,,,19,1*77
$GBGSV,3,1,09,20,66,199,45,46,60,253,41,37,58,046,33,19,47,304,39,5*73
$GBGSV,3,2,09,32,17,157,45,36,11,242,41,23,07,057,39,28,02,102,31,5*7C
$GBGSV,3,3,09,43,02,048,16,5*45
$GNGGA,113042.000,4005.099880,N,10513.209108,W,2,43,0.54,1584.221,M,-20.670,M,,*72
$GPGSV,3,1,10,04,80,096,45,16,60,068,38,09,52,312,39,46,37,214,47,1*67
$GPGSV,3,2,10,07,28,272,46,26,28,049,40,03,27,195,50,27,24,120,44,1*65
$GPGSV,3,3,10,08,12,154,46,31,12,073,40,1*6D
$GPGSV,2,1,06,04,80,096,42,09,52,312,33,26,28,049,41,03,27,195,42,8*68
$GPGSV,2,2,06,27,24,120,31,08,12,154,48,8*6E
$GLGSV,2,1,07,70,79,301,27,80,74,348,30,73,38,240,43,69,31,150,45,1*73
$GLGSV,2,2,07,71,27,327,37,79,25,038,43,88,02,021,23,1*4B
$GAGSV,1,1,04,19,80,098,37,21,73,088,39,04,36,310,31,27,24,044,42,7*7B
$GAGSV,1,1,04,19,80,098,33,21,73,088,31,04,36,310,28,27,24,044,33,1*7F
$GBGSV,3,1,11,20,66,199,49,46,60,253,47,37,58,046,37,19,47,304,37,1*7E
$GBGSV,3,2,11,32,17,157,46,36,11,242,50,23,07,057,35,43,02,048,17,1*78
$GBGSV,3,3,11,28,02,102,44,38,02,341,16,58,,,19,1*70
$GBGSV,3,1,09,20,66,199,45,46,60,253,41,37,58,046,33,19,47,304,39,5*73
$GBGSV,3,2,09,32,17,157,45,36,11,242,41,23,07,057,39,28,02,102,32,5*7F
$GBGSV,3,3,09,43,02,048,16,5*45
$GNGGA,113047.000,4005.099856,N,10513.209036,W,2,43,0.54,1584.308,M,-20.670,M,,*7A
$GPGSV,3,1,10,04,80,096,45,16,60,068,37,09,52,312,40,46,37,214,47,1*66
$GPGSV,3,2,10,07,28,272,46,26,28,049,40,03,27,195,50,27,24,120,44,1*65
$GPGSV,3,3,10,08,12,154,45,31,12,073,40,1*6E
$GPGSV,2,1,06,04,80,096,42,09,52,312,33,26,28,049,41,03,27,195,42,8*68
$GPGSV,2,2,06,27,24,120,32,08,12,154,48,8*6D
$GLGSV,2,1,07,70,79,301,29,80,74,348,30,73,38,240,43,69,31,150,45,1*7D
$GLGSV,2,2,07,71,27,327,36,79,25,038,43,88,02,021,26,1*4F
$GAGSV,1,1,04,19,80,098,37,21,73,088,39,04,36,310,32,27,24,044,42,7*78
$GAGSV,1,1,04,19,80,098,33,21,73,088,31,04,36,310,28,27,24,044,32,1*7E
$GBGSV,3,1,11,20,66,199,49,46,60,253,47,37,58,046,37,19,47,304,37,1*7E
$GBGSV,3,2,11,32,17,157,46,36,11,242,50,23,07,057,35,43,02,048,17,1*78
$GBGSV,3,3,11,28,02,102,44,38,02,341,17,58,,,19,1*71
$GBGSV,3,1,09,20,66,199,45,46,60,253,41,37,58,046,33,19,47,304,40,5*7D
$GBGSV,3,2,09,32,17,157,45,36,11,242,41,23,07,057,39,28,02,102,32,5*7F
$GBGSV,3,3,09,43,02,048,16,5*45
$GNGGA,113052.000,4005.099850,N,10513.208964,W,2,43,0.54,1584.376,M,-20.669,M,,*76
$GPGSV,3,1,10,04,80,096,45,16,60,068,37,09,52,312,40,46,37,214,47,1*66
$GPGSV,3,2,10,07,28,272,46,26,28,049,41,03,27,195,50,27,24,120,44,1*64
$GPGSV,3,3,10,08,12,154,45,31,12,073,40,1*6E
$GPGSV,2,1,06,04,80,096,42,09,52,312,33,26,28,049,41,03,27,195,41,8*6B
$GPGSV,2,2,06,27,24,120,32,08,12,154,48,8*6D
$GLGSV,2,1,07,70,79,301,28,80,73,352,30,73,38,240,43,69,31,150,45,1*70
$GLGSV,2,2,07,71,27,327,35,79,23,039,43,88,02,021,27,1*4A
$GAGSV,1,1,04,19,80,098,37,21,73,088,39,04,36,310,31,27,24,044,42,7*7B
$GAGSV,1,1,04,19,80,098,33,21,73,088,31,04,36,310,27,27,24,044,32,1*71
$GBGSV,3,1,11,20,66,199,49,46,60,253,47,37,58,046,37,19,47,304,35,1*7C
$GBGSV,3,2,11,32,17,157,46,36,11,242,50,23,07,057,36,43,02,048,18,1*74
$GBGSV,3,3,11,28,02,102,44,38,02,341,17,58,,,19,1*71
$GBGSV,3,1,09,20,66,199,45,46,60,253,40,37,58,046,33,19,47,304,39,5*72
$GBGSV,3,2,09,32,17,157,45,36,11,242,41,23,07,057,38,28,02,102,32,5*7E
$GBGSV,3,3,09,43,02,048,15,5*46
$GNGGA,113057.000,4005.099814,N,10513.208898,W,2,43,0.54,1584.443,M,-20.670,M,,*78
$GPGSV,3,1,10,04,80,096,45,16,60,068,37,09,52,312,40,46,37,214,47,1*66
$GPGSV,3,2,10,07,28,272,46,26,28,049,41,03,27,195,50,27,24,120,44,1*64
$GPGSV,3,3,10,08,12,154,45,31,12,073,43,1*6D
$GPGSV,2,1,06,04,80,096,42,09,52,312,34,26,28,049,41,03,27,195,41,8*6C
$GPGSV,2,2,06,27,24,120,33,08,12,154,48,8*6C
$GLGSV,2,1,07,70,79,301,27,80,73,352,33,73,38,240,43,69,31,150,45,1*7C
$GLGSV,2,2,07,71,27,327,33,79,23,039,43,88,02,020,29,1*43
$GAGSV,1,1,04,19,80,098,37,21,73,088,39,04,36,310,31,27,24,044,42,7*7B
$GAGSV,1,1,04,19,80,098,33,21,73,088,31,04,36,310,27,27,24,044,34,1*77
$GBGSV,3,1,11,20,66,199,49,46,60,253,47,37,58,046,38,19,47,304,33,1*75
$GBGSV,3,2,11,32,17,157,46,36,11,242,50,23,07,057,36,43,02,048,21,1*7E
$GBGSV,3,3,11,28,02,102,45,38,02,341,16,58,,,19,1*71
$GBGSV,3,1,09,20,66,199,45,46,60,253,41,37,58,046,34,19,47,304,39,5*74
$GBGSV,3,2,09,32,17,157,45,36,11,242,42,23,07,057,38,28,02,102,32,5*7D
$GBGSV,3,3,09,43,02,048,17,5*44
$GNGGA,113102.000,4005.099760,N,10513.208898,W,2,43,0.54,1584.551,M,-20.670,M,,*77
$GPGSV,3,1,10,04,80,096,45,16,60,068,37,09,52,312,40,46,37,214,47,1*66
$GPGSV,3,2,10,07,28,272,46,26,28,049,42,03,27,195,50,27,24,120,44,1*67
$GPGSV,3,3,10,08,12,154,45,31,12,073,44,1*6A
$GPGSV,2,1,06,04,80,096,42,09,52,312,34,26,28,049,41,03,27,195,41,8*6C
$GPGSV,2,2,06,27,24,120,33,08,12,154,48,8*6C
$GLGSV,2,1,07,70,79,301,28,80,73,352,33,73,38,240,43,69,31,150,45,1*73
$GLGSV,2,2,07,71,27,327,35,79,23,039,44,88,02,020,29,1*42
$GAGSV,1,1,04,19,80,098,37,21,73,088,39,04,36,310,33,27,24,044,42,7*79
$GAGSV,1,1,04,19,80,098,33,21,73,088,31,04,36,310,27,27,24,044,34,1*77
$GBGSV,3,1,11,20,66,199,49,46,60,253,47,37,58,046,38,19,47,304,34,1*72
$GBGSV,3,2,11,32,17,157,46,36,11,242,50,23,07,057,36,43,02,048,20,1*7F
$GBGSV,3,3,11,28,02,102,45,38,02,341,16,58,,,19,1*71
$GBGSV,3,1,09,20,66,199,45,46,60,253,41,37,58,046,34,19,47,304,39,5*74
$GBGSV,3,2,09,32,17,157,45,36,11,242,42,23,07,057,38,28,02,102,31,5*7E
$GBGSV,3,3,09,43,02,048,16,5*45
$GNGGA,113107.000,4005.099730,N,10513.208952,W,2,43,0.54,1584.696,M,-20.669,M,,*70
$GPGSV,3,1,10,04,80,096,45,16,60,068,37,09,52,312,40,46,37,214,47,1*66
$GPGSV,3,2,10,07,28,272,46,26,28,049,42,03,27,195,50,27,24,120,44,1*67
$GPGSV,3,3,10,08,12,154,44,31,12,073,44,1*6B
$GPGSV,2,1,06,04,80,096,42,09,52,312,34,26,28,049,41,03,27,195,41,8*6C
$GPGSV,2,2,06,27,24,120,33,08,12,154,48,8*6C
$GLGSV,2,1,07,70,79,301,29,80,73,352,32,73,38,240,43,69,31,150,45,1*73
$GLGSV,2,2,07,71,27,327,35,79,23,039,44,88,02,020,29,1*42
$GAGSV,1,1,04,19,80,098,37,21,73,088,39,04,36,310,33,27,24,044,42,7*79
$GAGSV,1,1,04,19,80,098,33,21,73,088,31,04,36,310,27,27,24,044,34,1*77
$GBGSV,3,1,11,20,66,199,49,46,60,253,47,37,58,046,38,19,47,304,34,1*72
$GBGSV,3,2,11,32,17,157,46,36,11,242,50,23,07,057,36,43,02,048,22,1*7D
$GBGSV,3,3,11,28,02,102,45,38,02,341,16,58,,,18,1*70
$GBGSV,3,1,09,20,66,199,45,46,60,253,41,37,58,046,34,19,47,304,39,5*74
$GBGSV,3,2,09,32,17,157,45,36,11,242,42,23,07,057,38,28,02,102,31,5*7E
$GBGSV,3,3,09,43,02,048,16,5*45
$GNGGA,113112.000,4005.099718,N,10513.209036,W,2,43,0.54,1584.840,M,-20.670,M,,*79
$GPGSV,3,1,10,04,80,096,45,16,60,068,36,09,52,312,41,46,37,214,47,1*66
$GPGSV,3,2,10,07,28,272,46,26,28,049,42,03,27,195,50,27,24,120,44,1*67
$GPGSV,3,3,10,08,12,154,44,31,12,073,44,1*6B
$GPGSV,2,1,06,04,80,096,42,09,52,312,35,26,28,049,41,03,27,195,41,8*6D
$GPGSV,2,2,06,27,24,120,33,08,12,154,48,8*6C
$GLGSV,2,1,07,70,79,301,28,80,73,352,32,73,38,240,43,69,31,150,45,1*72
$GLGSV,2,2,07,71,27,327,31,79,23,039,44,88,02,020,31,1*4F
$GAGSV,1,1,04,19,80,098,37,21,73,088,38,04,36,310,32,27,24,044,42,7*79
$GAGSV,1,1,04,19,80,098,33,21,73,088,32,04,36,310,28,27,24,044,33,1*7C
$GBGSV,3,1,11,20,66,199,49,46,60,253,47,37,58,046,38,19,47,304,35,1*73
$GBGSV,3,2,11,32,17,157,46,36,11,242,50,23,07,057,35,43,02,048,21,1*7D
$GBGSV,3,3,11,28,02,102,45,38,02,341,15,58,,,19,1*72
$GBGSV,3,1,09,20,66,199,45,46,60,253,41,37,58,046,34,19,47,304,39,5*74
$GBGSV,3,2,09,32,17,157,45,36,11,242,42,23,07,057,38,28,02,102,31,5*7E
$GBGSV,3,3,09,43,02,048,16,5*45
$GNGGA,113117.000,4005.099682,N,10513.209048,W,2,43,0.54,1585.024,M,-20.670,M,,*7C
$GPGSV,3,1,10,04,80,096,45,16,60,068,36,09,52,312,41,46,37,214,47,1*66
$GPGSV,3,2,10,07,28,272,46,26,28,049,42,03,27,195,50,27,24,120,44,1*67
$GPGSV,3,3,10,08,12,154,43,31,12,073,44,1*6C
$GPGSV,2,1,06,04,80,096,42,09,52,312,35,26,28,049,41,03,27,195,41,8*6D
$GPGSV,2,2,06,27,24,120,34,08,12,154,48,8*6B
$GLGSV,2,1,07,70,79,301,28,80,73,352,33,73,38,240,43,69,31,150,45,1*73
$GLGSV,2,2,07,71,27,327,34,79,23,039,44,88,02,020,32,1*49
$GAGSV,1,1,04,19,80,098,37,21,73,088,38,04,36,310,32,27,24,044,42,7*79
$GAGSV,1,1,04,19,80,098,33,21,73,088,32,04,36,310,29,27,24,044,33,1*7D
$GBGSV,3,1,11,20,65,198,49,46,60,253,47,37,58,046,38,19,48,303,35,1*79
$GBGSV,3,2,11,32,17,157,46,36,11,242,50,23,07,057,34,43,02,048,21,1*7C
$GBGSV,3,3,11,28,02,102,45,38,02,341,14,58,,,19,1*73
$GBGSV,3,1,09,20,65,198,46,46,60,253,41,37,58,046,34,19,48,303,40,5*73
$GBGSV,3,2,09,32,17,157,45,36,11,242,42,23,07,057,38,28,02,102,31,5*7E
$GBGSV,3,3,09,43,02,048,16,5*45
$GNGGA,113122.000,4005.099664,N,10513.209066,W,2,43,0.54,1585.089,M,-20.670,M,,*79
$GPGSV,3,1,10,04,80,096,45,16,60,068,37,09,52,312,41,46,37,214,47,1*67
$GPGSV,3,2,10,07,28,272,46,26,28,049,43,03,27,195,50,27,24,120,44,1*66
$GPGSV,3,3,10,08,12,154,43,31,12,073,42,1*6A
$GPGSV,2,1,06,04,80,096,42,09,52,312,36,26,28,049,41,03,27,195,41,8*6E
$GPGSV,2,2,06,27,24,120,34,08,12,154,48,8*6B
$GLGSV,2,1,07,70,79,301,27,80,73,352,34,73,38,240,43,69,31,150,46,1*78
$GLGSV,2,2,07,71,27,327,35,79,23,039,44,88,02,020,32,1*48
$GAGSV,1,1,04,19,80,098,37,21,73,088,38,04,36,310,32,27,24,044,42,7*79
$GAGSV,1,1,04,19,80,098,33,21,73,088,32,04,36,310,29,27,24,044,32,1*7C
$GBGSV,3,1,11,20,65,198,49,46,60,253,47,37,58,046,38,19,48,303,34,1*78
$GBGSV,3,2,11,32,17,157,46,36,11,242,50,23,07,057,33,43,02,048,21,1*7B
