$PAIR001,062,0*3F
$PAIR001,062,0*3F
$PAIR001,062,0*3F
$PAIR001,062,0*3F
$PAIR001,062,0*3F
$PAIR001,062,0*3F
$PAIR001,062,0*3F
$PAIR001,062,0*3F
$PAIR001,062,0*3F
$GNGGA,185637.000,4005.098854,N,10513.208430,W,2,47,0.51,1583.535,M,-20.670,M,,*7A
$GPGSV,3,1,09,19,70,019,37,06,65,164,46,22,52,103,45,24,42,279,43,1*67
$GPGSV,3,2,09,46,37,214,46,11,31,196,47,14,29,115,45,12,16,304,32,1*68
$GPGSV,3,3,09,03,14,055,36,1*5E
$GPGSV,2,1,05,06,65,164,47,24,42,279,44,11,31,196,47,14,29,115,36,8*63
$GPGSV,2,2,05,03,14,055,37,8*5A
$GLGSV,2,1,06,86,80,251,40,76,70,332,36,75,45,141,47,85,41,031,33,1*76
$GLGSV,2,2,06,87,26,223,44,77,22,325,25,1*75
$GAGSV,3,1,09,24,72,331,38,12,69,150,37,10,49,187,45,31,49,110,35,7*77
$GAGSV,3,2,09,33,39,048,35,11,23,201,43,25,20,306,24,03,04,302,31,7*7C
$GAGSV,3,3,09,05,04,256,46,7*48
$GAGSV,3,1,09,24,72,331,38,12,69,150,40,31,49,110,41,10,49,187,46,1*71
$GAGSV,3,2,09,33,39,048,23,11,23,201,41,25,20,306,33,05,04,256,31,1*7F
$GAGSV,3,3,09,03,04,302,30,1*49
$GBGSV,2,1,08,29,61,045,42,45,61,169,48,26,53,301,44,36,12,147,50,1*73
$GBGSV,2,2,08,44,09,236,47,30,07,053,29,24,06,318,28,58,,,17,1*41
$GBGSV,2,1,07,29,61,045,32,45,61,169,42,26,53,301,40,36,12,147,45,5*75
$GBGSV,2,2,07,44,09,236,38,30,07,053,37,24,06,318,39,5*46
$GNGGA,185642.000,4005.098860,N,10513.208442,W,2,47,0.51,1583.607,M,-20.670,M,,*78
$GPGSV,3,1,09,19,70,019,37,06,65,164,46,22,52,103,45,24,42,279,43,1*67
$GPGSV,3,2,09,46,37,214,46,11,31,196,47,14,29,115,45,12,16,304,34,1*6E
$GPGSV,3,3,09,03,14,055,36,1*5E
$GPGSV,2,1,05,06,65,164,47,24,42,279,44,11,31,196,47,14,29,115,36,8*63
$GPGSV,2,2,05,03,14,055,37,8*5A
$GLGSV,2,1,06,86,80,251,40,76,70,332,37,75,45,141,47,85,41,031,34,1*70
$GLGSV,2,2,06,87,26,223,44,77,22,325,26,1*76
$GAGSV,3,1,09,24,72,331,38,12,69,150,37,10,49,187,45,31,49,110,35,7*77
$GAGSV,3,2,09,33,39,048,35,11,23,201,43,25,20,306,24,03,04,302,33,7*7E
$GAGSV,3,3,09,05,04,256,45,7*4B
$GAGSV,3,1,09,24,72,331,38,12,69,150,41,31,49,110,41,10,49,187,46,1*70
$GAGSV,3,2,09,33,39,048,23,11,23,201,41,25,20,306,34,05,04,256,27,1*7F
$GAGSV,3,3,09,03,04,302,31,1*48
$GBGSV,2,1,08,29,61,045,42,45,61,169,48,26,53,301,44,36,12,147,50,1*73
$GBGSV,2,2,08,44,09,236,46,30,07,053,28,24,06,318,28,58,,,17,1*41
$GBGSV,2,1,07,29,61,045,31,45,61,169,43,26,53,301,40,36,12,147,45,5*77
$GBGSV,2,2,07,44,09,236,37,30,07,053,37,24,06,318,39,5*49
$GNGGA,185647.000,4005.098824,N,10513.208472,W,2,47,0.51,1583.564,M,-20.669,M,,*70
$GPGSV,3,1,09,19,70,019,37,06,65,164,46,22,52,103,45,24,42,279,43,1*67
$GPGSV,3,2,09,46,37,214,46,11,31,196,47,14,29,115,45,12,16,304,35,1*6F
$GPGSV,3,3,09,03,14,055,36,1*5E
$GPGSV,2,1,05,06,65,164,47,24,42,279,44,11,31,196,47,14,29,115,37,8*62
$GPGSV,2,2,05,03,14,055,37,8*5A
$GLGSV,2,1,06,86,80,251,41,76,70,332,37,75,45,141,47,85,41,031,35,1*70
$GLGSV,2,2,06,87,26,223,44,77,22,325,26,1*76
$GAGSV,3,1,09,24,72,331,38,12,69,150,37,10,49,187,45,31,49,110,35,7*77
$GAGSV,3,2,09,33,39,048,34,11,23,201,43,25,20,306,27,03,04,302,33,7*7C
$GAGSV,3,3,09,05,04,256,46,7*48
$GAGSV,3,1,09,24,72,331,38,12,69,150,41,31,49,110,41,10,49,187,47,1*71
$GAGSV,3,2,09,33,39,048,24,11,23,201,41,25,20,306,34,05,04,256,32,1*7C
$GAGSV,3,3,09,03,04,302,31,1*48
$GBGSV,2,1,08,29,61,045,42,45,61,169,48,26,53,301,44,36,12,147,50,1*73
$GBGSV,2,2,08,44,09,236,45,30,07,053,27,24,06,318,28,58,,,18,1*42
$GBGSV,2,1,07,29,61,045,32,45,61,169,43,26,53,301,40,36,12,147,45,5*74
$GBGSV,2,2,07,44,09,236,38,30,07,053,37,24,06,318,40,5*48
$GNGGA,185652.000,4005.098794,N,10513.208406,W,2,47,0.51,1583.542,M,-20.669,M,,*77
$GPGSV,3,1,09,19,70,019,36,06,65,164,46,22,52,103,45,24,42,279,43,1*66
$GPGSV,3,2,09,46,37,214,45,11,31,196,47,14,29,115,45,12,16,304,35,1*6C
$GPGSV,3,3,09,03,14,055,35,1*5D
$GPGSV,2,1,05,06,65,164,47,24,42,279,44,11,31,196,47,14,29,115,37,8*62
$GPGSV,2,2,05,03,14,055,37,8*5A
$GLGSV,2,1,06,86,80,251,41,76,70,332,36,75,45,141,47,85,41,031,35,1*71
$GLGSV,2,2,06,87,26,223,44,77,22,325,26,1*76
$GAGSV,3,1,09,24,72,331,38,12,69,150,37,10,49,187,45,31,49,110,35,7*77
$GAGSV,3,2,09,33,39,048,34,11,23,201,43,25,20,306,28,03,04,302,31,7*71
$GAGSV,3,3,09,05,04,256,47,7*49
$GAGSV,3,1,09,24,72,331,39,12,69,150,41,31,49,110,41,10,49,187,47,1*70
$GAGSV,3,2,09,33,39,048,25,11,23,201,42,25,20,306,34,05,04,256,27,1*7A
$GAGSV,3,3,09,03,04,302,31,1*48
$GBGSV,2,1,08,29,61,045,42,45,61,169,48,26,53,301,44,36,12,147,50,1*73
$GBGSV,2,2,08,44,09,236,46,30,07,053,26,24,07,318,28,58,,,18,1*41
$GBGSV,2,1,07,29,61,045,32,45,61,169,43,26,53,301,41,36,12,147,45,5*75
$GBGSV,2,2,07,44,09,236,38,24,07,318,40,30,07,053,38,5*46
$GNGGA,185657.000,4005.098764,N,10513.208424,W,2,47,0.51,1583.535,M,-20.670,M,,*75
$GPGSV,3,1,09,19,70,019,36,06,65,164,46,22,52,103,45,24,42,279,43,1*66
$GPGSV,3,2,09,46,37,214,45,11,31,196,47,14,29,115,45,12,16,304,34,1*6D
$GPGSV,3,3,09,03,14,055,35,1*5D
$GPGSV,2,1,05,06,65,164,47,24,42,279,43,11,31,196,47,14,29,115,37,8*65
$GPGSV,2,2,05,03,14,055,37,8*5A
$GLGSV,2,1,06,86,80,251,41,76,70,332,37,75,45,141,47,85,41,031,37,1*72
$GLGSV,2,2,06,87,26,223,43,77,22,325,26,1*71
$GAGSV,3,1,09,24,72,331,38,12,69,150,37,10,49,187,45,31,49,110,35,7*77
$GAGSV,3,2,09,33,39,048,34,11,23,201,43,25,20,306,29,03,04,302,31,7*70
$GAGSV,3,3,09,05,04,256,47,7*49
$GAGSV,3,1,09,24,72,331,38,12,69,150,40,31,49,110,41,10,49,187,46,1*71
$GAGSV,3,2,09,33,39,048,25,11,23,201,41,25,20,306,33,05,04,256,28,1*71
$GAGSV,3,3,09,03,04,302,31,1*48
$GBGSV,2,1,08,45,61,169,48,29,59,045,42,26,54,300,44,36,12,147,50,1*7E
$GBGSV,2,2,08,44,09,236,45,24,07,318,27,30,06,053,25,58,,,17,1*40
$GBGSV,2,1,07,45,61,169,43,29,59,045,32,26,54,300,41,36,12,147,44,5*79
$GBGSV,2,2,07,44,09,236,37,24,07,318,39,30,06,053,37,5*49
$GNGGA,185702.000,4005.098758,N,10513.208406,W,2,47,0.51,1583.566,M,-20.670,M,,*7D
$GPGSV,3,1,09,19,70,019,35,06,65,164,46,22,52,103,45,24,42,279,43,1*65
$GPGSV,3,2,09,46,37,214,45,11,31,196,47,14,29,115,45,12,16,304,34,1*6D
$GPGSV,3,3,09,03,14,055,34,1*5C
$GPGSV,2,1,05,06,65,164,47,24,42,279,43,11,31,196,47,14,29,115,37,8*65
$GPGSV,2,2,05,03,14,055,37,8*5A
$GLGSV,2,1,06,86,80,251,41,76,70,332,39,75,45,141,47,85,41,031,36,1*7D
$GLGSV,2,2,06,87,26,223,43,77,22,325,26,1*71
$GAGSV,3,1,09,24,72,331,37,12,69,150,37,10,49,187,45,31,49,110,35,7*78
$GAGSV,3,2,09,33,39,048,34,11,23,201,43,25,20,306,29,03,04,302,31,7*70
$GAGSV,3,3,09,05,04,256,47,7*49
$GAGSV,3,1,09,24,72,331,38,12,69,150,41,31,49,110,41,10,49,187,46,1*70
$GAGSV,3,2,09,33,39,048,26,11,23,201,41,25,20,306,34,05,04,256,25,1*78
$GAGSV,3,3,09,03,04,302,31,1*48
$GBGSV,2,1,08,45,61,169,48,29,59,045,42,26,54,300,44,36,12,147,50,1*7E
$GBGSV,2,2,08,44,09,236,46,24,07,318,27,30,06,053,27,58,,,17,1*41
$GBGSV,2,1,07,45,61,169,43,29,59,045,32,26,54,300,41,36,12,147,44,5*79
$GBGSV,2,2,07,44,09,236,38,24,07,318,39,30,06,053,37,5*46
$GNGGA,185707.000,4005.098788,N,10513.208370,W,2,47,0.51,1583.607,M,-20.670,M,,*77
$GPGSV,3,1,09,19,70,019,35,06,65,164,46,22,52,103,46,24,42,279,43,1*66
$GPGSV,3,2,09,46,37,214,46,11,31,196,47,14,29,115,45,12,16,304,34,1*6E
$GPGSV,3,3,09,03,14,055,34,1*5C
$GPGSV,2,1,05,06,65,164,47,24,42,279,44,11,31,196,48,14,29,115,37,8*6D
$GPGSV,2,2,05,03,14,055,38,8*55
$GLGSV,2,1,06,86,80,251,41,76,70,332,39,75,45,141,47,85,41,031,36,1*7D
$GLGSV,2,2,06,87,26,223,43,77,22,325,26,1*71
$GAGSV,3,1,09,24,72,331,37,12,69,150,37,10,49,187,45,31,49,110,35,7*78
$GAGSV,3,2,09,33,39,048,34,11,23,201,43,25,20,306,29,03,04,302,31,7*70
$GAGSV,3,3,09,05,04,256,47,7*49
$GAGSV,3,1,09,24,72,331,39,12,69,150,41,31,49,110,42,10,49,187,47,1*73
$GAGSV,3,2,09,33,39,048,27,11,23,201,42,25,20,306,34,05,04,256,23,1*7C
$GAGSV,3,3,09,03,04,302,30,1*49
$GBGSV,2,1,08,45,61,169,48,29,59,045,42,26,54,300,44,36,11,147,50,1*7D
$GBGSV,2,2,08,44,09,236,46,24,07,318,28,30,06,053,27,58,,,17,1*4E
$GBGSV,2,1,07,45,61,169,44,29,59,045,32,26,54,300,41,36,11,147,44,5*7D
$GBGSV,2,2,07,44,09,236,37,24,07,318,40,30,06,053,37,5*47
$GNGGA,185712.000,4005.098794,N,10513.208334,W,2,47,0.51,1583.625,M,-20.670,M,,*7E
$GPGSV,3,1,09,19,70,019,33,06,65,164,46,22,52,103,46,24,42,279,43,1*60
$GPGSV,3,2,09,46,37,214,46,11,31,196,47,14,29,115,45,12,16,304,32,1*68
$GPGSV,3,3,09,03,14,055,35,1*5D
$GPGSV,2,1,05,06,65,164,47,24,42,279,44,11,31,196,48,14,29,115,37,8*6D
$GPGSV,2,2,05,03,14,055,37,8*5A
$GLGSV,2,1,06,86,80,251,41,76,70,332,39,75,45,141,47,85,41,031,36,1*7D
$GLGSV,2,2,06,87,26,223,43,77,22,325,26,1*71
$GAGSV,3,1,09,24,72,331,37,12,69,150,37,10,49,187,45,31,49,110,35,7*78
$GAGSV,3,2,09,33,39,048,34,11,23,201,42,25,20,306,28,03,04,302,29,7*79
$GAGSV,3,3,09,05,04,256,46,7*48
$GAGSV,3,1,09,24,72,331,39,12,69,150,41,31,49,110,42,10,49,187,47,1*73
$GAGSV,3,2,09,33,39,048,28,11,23,201,42,25,20,306,35,05,04,256,21,1*70
$GAGSV,3,3,09,03,04,302,30,1*49
$GBGSV,2,1,08,45,60,169,48,29,59,045,42,26,54,300,44,36,11,147,50,1*7C
$GBGSV,2,2,08,44,10,236,46,24,07,318,29,30,06,053,29,58,,,16,1*48
$GBGSV,2,1,07,45,60,169,44,29,59,045,32,26,54,300,41,36,11,147,44,5*7C
$GBGSV,2,2,07,44,10,236,36,24,07,318,40,30,06,053,37,5*4E
$GNGGA,185717.000,4005.098794,N,10513.208352,W,2,47,0.51,1583.563,M,-20.670,M,,*7A
$GPGSV,3,1,09,19,70,019,32,06,65,164,46,22,52,103,46,24,42,279,43,1*61
$GPGSV,3,2,09,46,37,214,46,11,31,196,47,14,29,115,45,12,16,304,30,1*6A
$GPGSV,3,3,09,03,14,055,35,1*5D
$GPGSV,2,1,05,06,65,164,47,24,42,279,44,11,31,196,48,14,29,115,37,8*6D
$GPGSV,2,2,05,03,14,055,37,8*5A
$GLGSV,2,1,06,86,80,251,41,76,70,332,39,75,45,141,46,85,41,031,36,1*7C
$GLGSV,2,2,06,87,26,223,43,77,22,325,25,1*72
$GAGSV,3,1,09,24,72,331,37,12,69,150,37,10,49,187,44,31,49,110,35,7*79
$GAGSV,3,2,09,33,39,048,34,11,23,201,42,25,20,306,29,03,04,302,26,7*77
$GAGSV,3,3,09,05,04,256,44,7*4A
$GAGSV,3,1,09,24,72,331,38,12,69,150,41,31,49,110,42,10,49,187,47,1*72
$GAGSV,3,2,09,33,39,048,29,11,23,201,42,25,20,306,35,05,04,256,20,1*70
$GAGSV,3,3,09,03,04,302,30,1*49
$GBGSV,2,1,08,45,60,169,48,29,59,045,42,26,54,300,44,36,11,147,50,1*7C
$GBGSV,2,2,08,44,10,236,45,24,07,318,29,30,06,053,29,58,,,16,1*4B
$GBGSV,2,1,07,45,60,169,44,29,59,045,31,26,54,300,41,36,11,147,44,5*7F
$GBGSV,2,2,07,44,10,236,36,24,07,318,40,30,06,053,37,5*4E
$GNGGA,185722.000,4005.098788,N,10513.208370,W,2,46,0.51,1583.586,M,-20.670,M,,*7B
$GPGSV,3,1,09,19,70,019,32,06,65,164,46,22,52,103,46,24,42,279,43,1*61
$GPGSV,3,2,09,46,37,214,46,11,31,196,48,14,29,115,45,12,16,304,31,1*64
$GPGSV,3,3,09,03,14,055,35,1*5D
$GPGSV,2,1,05,06,65,164,47,24,42,279,44,11,31,196,48,14,29,115,38,8*62
$GPGSV,2,2,05,03,14,055,38,8*55
$GLGSV,2,1,06,86,80,251,41,76,70,332,37,75,45,141,47,85,41,031,37,1*72
$GLGSV,2,2,06,87,26,223,43,77,22,325,25,1*72
$GAGSV,3,1,09,24,72,331,37,12,69,150,37,10,49,187,44,31,49,110,35,7*79
$GAGSV,3,2,09,33,39,048,34,11,23,201,42,25,20,306,30,03,04,302,26,7*7F
$GAGSV,3,3,09,05,04,256,43,7*4D
$GAGSV,3,1,09,24,72,331,39,12,69,150,41,31,49,110,42,10,49,187,47,1*73
$GAGSV,3,2,09,33,39,048,30,11,23,201,42,25,20,306,36,05,04,256,20,1*7B
$GAGSV,3,3,09,03,04,302,30,1*49
$GBGSV,2,1,08,45,60,169,48,29,59,045,42,26,54,300,44,36,11,147,50,1*7C
$GBGSV,2,2,08,44,10,236,43,24,07,318,30,30,06,053,30,58,,,18,1*43
$GBGSV,2,1,07,45,60,169,44,29,59,045,32,26,54,300,41,36,11,147,44,5*7C
$GBGSV,2,2,07,44,10,236,37,24,07,318,40,30,06,053,37,5*4F
$GNGGA,185727.000,4005.098746,N,10513.208394,W,2,46,0.51,1583.549,M,-20.670,M,,*75
$GPGSV,3,1,09,19,70,019,31,06,65,164,46,22,52,103,46,24,42,279,43,1*62
$GPGSV,3,2,09,46,37,214,45,11,31,196,48,14,29,115,45,12,16,304,31,1*67
$GPGSV,3,3,09,03,14,055,35,1*5D
$GPGSV,2,1,05,06,65,164,47,24,42,279,44,11,31,196,48,14,29,115,38,8*62
$GPGSV,2,2,05,03,14,055,38,8*55
$GLGSV,2,1,06,86,80,251,42,76,70,332,38,75,45,141,47,85,41,031,38,1*71
$GLGSV,2,2,06,87,26,223,43,77,22,325,27,1*70
$GAGSV,3,1,09,24,72,331,37,12,69,150,37,10,49,187,44,31,49,110,35,7*79
$GAGSV,3,2,09,33,39,048,34,11,23,201,42,25,20,306,30,03,04,302,24,7*7D
$GAGSV,3,3,09,05,04,256,41,7*4F
$GAGSV,3,1,09,24,72,331,39,12,69,150,41,31,49,110,42,10,49,187,47,1*73
$GAGSV,3,2,09,33,39,048,30,11,23,201,42,25,20,306,37,05,04,256,18,1*71
$GAGSV,3,3,09,03,04,302,29,1*41
$GBGSV,2,1,08,45,60,169,48,29,59,045,42,26,54,300,44,36,11,147,50,1*7C
$GBGSV,2,2,08,44,10,236,44,24,07,318,32,30,06,053,31,58,,,18,1*47
$GBGSV,2,1,07,45,60,169,44,29,59,045,32,26,54,300,41,36,11,147,44,5*7C
$GBGSV,2,2,07,44,10,236,36,24,07,318,40,30,06,053,37,5*4E
$GNGGA,185732.000,4005.098680,N,10513.208400,W,2,47,0.51,1583.484,M,-20.669,M,,*79
$GPGSV,3,1,09,19,70,019,31,06,65,164,46,22,52,103,46,24,42,279,43,1*62
$GPGSV,3,2,09,46,37,214,45,11,31,196,48,14,29,115,45,12,16,304,29,1*6E
$GPGSV,3,3,09,03,14,055,36,1*5E
$GPGSV,2,1,05,06,65,164,47,24,42,279,44,11,31,196,48,14,29,115,38,8*62
$GPGSV,2,2,05,03,14,055,38,8*55
$GLGSV,2,1,06,86,80,251,42,76,70,332,40,75,45,141,47,85,41,031,39,1*7F
$GLGSV,2,2,06,87,26,223,43,77,22,325,27,1*70
$GAGSV,3,1,09,24,72,331,37,12,69,150,37,10,49,187,44,31,49,110,35,7*79
$GAGSV,3,2,09,33,39,048,32,11,23,201,41,25,20,306,30,03,04,302,23,7*7F
$GAGSV,3,3,09,05,04,256,40,7*4E
$GAGSV,3,1,09,24,72,331,39,12,69,150,41,31,49,110,42,10,49,187,47,1*73
$GAGSV,3,2,09,33,39,048,30,11,23,201,42,25,20,306,37,05,04,256,17,1*7E
$GAGSV,3,3,09,03,04,302,28,1*40
$GBGSV,2,1,08,45,60,169,48,29,59,045,42,26,54,300,44,36,11,147,50,1*7C
$GBGSV,2,2,08,44,10,236,43,24,07,318,33,30,06,053,32,58,,,17,1*4D
$GBGSV,2,1,07,45,60,169,44,29,59,045,31,26,54,300,41,36,11,147,43,5*78
$GBGSV,2,2,07,44,10,236,36,24,07,318,40,30,06,053,37,5*4E
$GNGGA,185737.000,4005.098584,N,10513.208370,W,2,46,0.51,1583.526,M,-20.670,M,,*7B
$GPGSV,3,1,09,19,70,019,31,06,66,162,46,22,52,103,46,24,42,279,43,1*67
$GPGSV,3,2,09,46,37,214,45,11,31,196,48,14,29,115,45,12,16,304,29,1*6E
$GPGSV,3,3,09,03,14,054,36,1*5F
$GPGSV,2,1,05,06,66,162,47,24,42,279,44,11,31,196,48,14,29,115,38,8*67
$GPGSV,2,2,05,03,14,054,38,8*54
$GLGSV,2,1,06,86,80,251,41,76,70,332,40,75,45,141,47,85,41,031,38,1*7D
$GLGSV,2,2,06,87,26,223,43,77,22,325,25,1*72
$GAGSV,3,1,09,24,72,331,37,12,69,150,37,10,49,187,44,31,49,110,35,7*79
$GAGSV,3,2,09,33,39,048,32,11,23,201,41,25,20,306,28,03,04,302,21,7*74
$GAGSV,3,3,09,05,04,256,37,7*4E
$GAGSV,3,1,09,24,72,331,39,12,69,150,41,31,49,110,42,10,49,187,47,1*73
$GAGSV,3,2,09,33,39,048,30,11,23,201,42,25,20,306,37,05,04,256,17,1*7E
$GAGSV,3,3,09,03,04,302,28,1*40
$GBGSV,2,1,08,45,60,169,48,29,59,045,42,26,54,300,44,36,11,147,50,1*7C
$GBGSV,2,2,08,44,10,236,44,24,07,318,34,30,06,053,33,58,,,17,1*4C
$GBGSV,2,1,07,45,60,169,44,29,59,045,32,26,54,300,41,36,11,147,43,5*7B
$GBGSV,2,2,07,44,10,236,36,24,07,318,40,30,06,053,37,5*4E
$GNGGA,185742.000,4005.098548,N,10513.208364,W,2,47,0.51,1583.635,M,-20.669,M,,*74
$GPGSV,3,1,09,19,70,019,30,06,66,162,46,22,52,103,46,24,42,279,43,1*66
$GPGSV,3,2,09,46,37,214,45,11,32,196,48,14,29,115,45,12,17,304,27,1*62
$GPGSV,3,3,09,03,14,054,36,1*5F
$GPGSV,2,1,05,06,66,162,47,24,42,279,44,11,32,196,48,14,29,115,38,8*64
$GPGSV,2,2,05,03,14,054,38,8*54
$GLGSV,2,1,06,86,80,251,41,76,70,332,40,75,45,141,47,85,41,031,38,1*7D
$GLGSV,2,2,06,87,26,223,43,77,22,325,24,1*73
$GAGSV,3,1,09,24,72,331,37,12,69,150,37,10,49,187,44,31,49,110,35,7*79
$GAGSV,3,2,09,33,39,048,33,11,23,201,41,25,20,306,28,03,04,302,21,7*75
$GAGSV,3,3,09,05,04,256,37,7*4E
$GAGSV,3,1,09,24,72,331,38,12,69,150,41,31,49,110,42,10,49,187,47,1*72
$GAGSV,3,2,09,33,39,048,30,11,23,201,42,25,20,306,37,05,04,256,19,1*70
$GAGSV,3,3,09,03,04,302,27,1*4F
$GBGSV,2,1,08,45,60,169,48,29,59,045,43,26,54,300,44,36,11,147,50,1*7D
$GBGSV,2,2,08,44,10,236,43,24,07,318,34,30,06,053,33,58,,,16,1*4A
$GBGSV,2,1,07,45,60,169,44,29,59,045,32,26,54,300,41,36,11,147,43,5*7B
$GBGSV,2,2,07,44,10,236,35,24,07,318,39,30,06,053,37,5*43
$GNGGA,185747.000,4005.098554,N,10513.208418,W,2,46,0.51,1583.760,M,-20.670,M,,*78
$GPGSV,3,1,09,19,70,019,30,06,66,162,46,22,52,103,46,24,42,279,43,1*66
$GPGSV,3,2,09,46,37,214,45,11,32,196,48,14,28,116,45,12,17,304,28,1*6F
$GPGSV,3,3,09,03,14,054,37,1*5E
$GPGSV,2,1,05,06,66,162,47,24,42,279,44,11,32,196,48,14,28,116,38,8*66
$GPGSV,2,2,05,03,14,054,38,8*54
$GLGSV,2,1,06,86,80,251,43,76,70,332,39,75,45,141,47,85,41,031,38,1*71
$GLGSV,2,2,06,87,26,223,43,77,22,325,24,1*73
$GAGSV,3,1,09,24,72,331,37,12,69,150,37,10,49,187,44,31,49,110,35,7*79
$GAGSV,3,2,09,33,39,048,33,11,23,201,41,25,20,306,30,03,04,302,21,7*7C
$GAGSV,3,3,09,05,04,256,35,7*4C
$GAGSV,3,1,09,24,72,331,38,12,69,150,41,31,49,110,42,10,49,187,47,1*72
$GAGSV,3,2,09,33,39,048,31,11,23,201,42,25,20,306,37,05,04,256,17,1*7F
$GAGSV,3,3,09,03,04,302,26,1*4E
$GBGSV,2,1,08,45,60,169,48,29,59,045,43,26,54,300,44,36,11,147,50,1*7D
$GBGSV,2,2,08,44,10,236,45,24,07,318,34,30,06,053,33,58,,,16,1*4C
$GBGSV,2,1,07,45,60,169,44,29,59,045,32,26,54,300,41,36,11,147,42,5*7A
$GBGSV,2,2,07,44,10,236,35,24,07,318,39,30,06,053,37,5*43
$GNGGA,185752.000,4005.098530,N,10513.208442,W,2,46,0.51,1583.775,M,-20.670,M,,*75
$GPGSV,3,1,09,19,69,022,31,06,66,162,46,22,51,105,46,24,42,279,44,1*65
$GPGSV,3,2,09,46,37,214,45,11,32,196,48,14,28,116,45,12,17,304,28,1*6F
$GPGSV,3,3,09,03,14,054,37,1*5E
$GPGSV,2,1,05,06,66,162,47,24,42,279,44,11,32,196,48,14,28,116,38,8*66
$GPGSV,2,2,05,03,14,054,38,8*54
$GLGSV,2,1,06,86,80,251,42,76,70,332,39,75,45,141,47,85,41,031,38,1*70
$GLGSV,2,2,06,87,26,223,43,77,22,325,26,1*71
$GAGSV,3,1,09,24,72,331,37,12,69,150,37,10,49,187,44,31,49,110,36,7*7A
$GAGSV,3,2,09,33,39,048,33,11,23,201,41,25,20,306,31,03,04,302,24,7*78
$GAGSV,3,3,09,05,04,256,34,7*4D
$GAGSV,3,1,09,24,72,331,38,12,69,150,41,31,49,110,43,10,49,187,47,1*73
$GAGSV,3,2,09,33,39,048,31,11,23,201,42,25,20,306,37,05,04,256,17,1*7F
$GAGSV,3,3,09,03,04,302,26,1*4E
$GBGSV,2,1,08,45,60,169,48,29,59,045,43,26,54,300,44,36,11,147,50,1*7D
$GBGSV,2,2,08,44,10,236,43,24,07,318,34,30,06,053,33,58,,,16,1*4A
$GBGSV,2,1,07,45,60,169,44,29,59,045,32,26,54,300,41,36,11,147,42,5*7A
$GBGSV,2,2,07,44,10,236,35,24,07,318,39,30,06,053,37,5*43
$GNGGA,185757.000,4005.098566,N,10513.208454,W,2,46,0.51,1583.783,M,-20.670,M,,*7D
$GPGSV,3,1,09,19,69,022,31,06,66,162,46,22,51,105,46,24,42,277,44,1*6B
$GPGSV,3,2,09,46,37,214,45,11,32,196,48,14,28,116,45,12,17,304,25,1*62
$GPGSV,3,3,09,03,14,054,37,1*5E
$GPGSV,2,1,05,06,66,162,47,24,42,277,44,11,32,196,48,14,28,116,39,8*69
$GPGSV,2,2,05,03,14,054,38,8*54
$GLGSV,2,1,06,86,80,251,41,76,70,332,39,75,45,141,47,85,41,031,38,1*73
$GLGSV,2,2,06,87,26,223,43,77,22,325,26,1*71
$GAGSV,3,1,09,24,72,331,38,12,69,150,37,10,49,187,44,31,49,110,36,7*75
$GAGSV,3,2,09,33,39,048,33,11,23,201,41,25,20,306,32,03,04,302,24,7*7B
$GAGSV,3,3,09,05,04,256,34,7*4D
$GAGSV,3,1,09,24,72,331,38,12,69,150,41,31,49,110,43,10,49,187,47,1*73
$GAGSV,3,2,09,33,39,048,32,11,23,201,42,25,20,306,38,05,04,256,16,1*72
$GAGSV,3,3,09,03,04,302,26,1*4E
$GBGSV,2,1,08,45,60,169,48,29,59,045,43,26,54,300,44,36,11,147,50,1*7D
$GBGSV,2,2,08,44,10,236,44,24,07,318,35,30,06,053,33,58,,,17,1*4D
$GBGSV,2,1,07,45,60,169,44,29,59,045,32,26,54,300,41,36,11,147,42,5*7A
$GBGSV,2,2,07,44,10,236,35,24,07,318,39,30,06,053,37,5*43
$GNGGA,185802.000,4005.098668,N,10513.208442,W,2,46,0.51,1583.892,M,-20.670,M,,*77
$GPGSV,3,1,09,19,69,022,32,06,66,162,47,22,51,105,46,24,42,277,44,1*69
$GPGSV,3,2,09,46,37,214,46,11,32,196,48,14,28,116,45,12,17,304,28,1*6C
$GPGSV,3,3,09,03,14,054,37,1*5E
$GPGSV,2,1,05,06,66,162,47,24,42,277,44,11,32,196,48,14,28,116,39,8*69
$GPGSV,2,2,05,03,14,054,38,8*54
$GLGSV,2,1,06,86,80,251,42,76,70,332,37,75,45,141,46,85,41,031,38,1*7F
$GLGSV,2,2,06,87,26,223,43,77,22,325,26,1*71
$GAGSV,3,1,09,24,72,331,38,12,69,150,37,10,49,187,44,31,49,110,36,7*75
$GAGSV,3,2,09,33,39,048,33,11,23,201,41,25,20,306,33,03,04,302,23,7*7D
$GAGSV,3,3,09,05,04,256,,7*4A
$GAGSV,2,1,08,24,72,331,38,12,69,150,41,31,49,110,43,10,49,187,47,1*73
$GAGSV,2,2,08,33,39,048,32,11,23,201,42,25,20,306,38,03,04,302,25,1*74
$GBGSV,2,1,08,45,60,169,48,29,59,045,43,26,54,300,44,36,11,147,49,1*75
$GBGSV,2,2,08,44,10,236,42,24,07,318,35,30,06,053,33,58,,,17,1*4B
$GBGSV,2,1,07,45,60,169,44,29,59,045,32,26,54,300,41,36,11,147,41,5*79
$GBGSV,2,2,07,44,10,236,35,24,07,318,39,30,06,053,37,5*43
$GNGGA,185807.000,4005.098692,N,10513.208400,W,2,47,0.51,1583.850,M,-20.670,M,,*7E
$GPGSV,3,1,09,19,69,022,33,06,66,162,47,22,51,105,46,24,42,277,43,1*6F
$GPGSV,3,2,09,46,37,214,45,11,32,196,48,14,28,116,45,12,17,304,31,1*67
$GPGSV,3,3,09,03,14,054,37,1*5E
$GPGSV,2,1,05,06,66,162,47,24,42,277,44,11,32,196,48,14,28,116,39,8*69
$GPGSV,2,2,05,03,14,054,38,8*54
$GLGSV,2,1,06,86,80,251,43,76,70,332,38,75,45,141,46,85,41,031,38,1*71
$GLGSV,2,2,06,87,26,223,43,77,22,325,25,1*72
$GAGSV,3,1,09,24,72,331,38,12,69,150,37,10,49,187,44,31,49,110,36,7*75
$GAGSV,3,2,09,33,39,048,33,11,23,201,41,25,20,306,33,03,04,302,22,7*7C
$GAGSV,3,3,09,05,04,256,31,7*48
$GAGSV,2,1,08,24,72,331,38,12,69,150,41,31,49,110,43,10,49,187,47,1*73
$GAGSV,2,2,08,33,39,048,32,11,23,201,42,25,20,306,38,03,04,302,24,1*75
$GBGSV,2,1,08,45,60,169,48,29,59,045,43,26,54,300,44,36,11,147,49,1*75
$GBGSV,2,2,08,44,10,236,42,24,07,318,35,30,06,053,33,58,,,16,1*4A
$GBGSV,2,1,07,45,60,169,44,29,59,045,33,26,54,300,41,36,11,147,41,5*78
$GBGSV,2,2,07,44,10,236,34,24,07,318,39,30,06,053,37,5*42
$GNGGA,185812.000,4005.098692,N,10513.208346,W,2,47,0.51,1583.785,M,-20.669,M,,*70
$GPGSV,3,1,09,19,69,022,34,06,66,162,47,22,51,105,46,24,42,277,43,1*68
$GPGSV,3,2,09,46,37,214,46,11,32,196,48,14,28,116,45,12,17,304,29,1*6D
$GPGSV,3,3,09,03,14,054,36,1*5F
$GPGSV,2,1,05,06,66,162,47,24,42,277,44,11,32,196,48,14,28,116,39,8*69
$GPGSV,2,2,05,03,14,054,38,8*54
$GLGSV,2,1,06,86,80,251,43,76,70,332,39,75,45,141,46,85,41,031,39,1*71
$GLGSV,2,2,06,87,26,223,42,77,22,325,22,1*74
$GAGSV,3,1,09,24,72,331,39,12,69,150,37,10,49,187,44,31,49,110,37,7*75
$GAGSV,3,2,09,33,39,048,35,11,23,201,41,25,20,306,32,03,04,301,22,7*78
$GAGSV,3,3,09,05,04,256,31,7*48
$GAGSV,2,1,08,24,72,331,38,12,69,150,41,31,49,110,43,10,49,187,47,1*73
$GAGSV,2,2,08,33,39,048,34,11,23,201,42,25,20,306,39,03,04,301,23,1*76
$GBGSV,2,1,08,45,60,169,48,29,59,045,43,26,54,300,44,36,11,147,49,1*75
$GBGSV,2,2,08,44,10,236,42,24,07,318,35,30,06,053,32,58,,,16,1*4B
$GBGSV,2,1,07,45,60,169,44,29,59,045,33,26,54,300,41,36,11,147,41,5*78
$GBGSV,2,2,07,44,10,236,34,24,07,318,39,30,06,053,37,5*42
$GNGGA,185817.000,4005.098650,N,10513.208310,W,2,47,0.51,1583.622,M,-20.670,M,,*7C
$GPGSV,3,1,09,19,69,022,34,06,66,162,46,22,51,105,46,24,42,277,43,1*69
$GPGSV,3,2,09,46,37,214,46,11,32,196,48,14,28,116,45,12,17,304,28,1*6C
$GPGSV,3,3,09,03,14,054,37,1*5E
$GPGSV,2,1,05,06,66,162,47,24,42,277,44,11,32,196,48,14,28,116,39,8*69
$GPGSV,2,2,05,03,14,054,37,8*5B
$GLGSV,2,1,06,86,80,251,43,76,70,332,39,75,45,141,46,85,41,031,39,1*71
$GLGSV,2,2,06,87,26,223,41,77,22,325,24,1*71
$GAGSV,3,1,09,24,72,331,39,12,69,150,37,10,49,187,44,31,49,110,37,7*75
$GAGSV,3,2,09,33,39,048,36,11,23,201,41,25,20,306,33,03,04,301,22,7*7A
$GAGSV,3,3,09,05,03,255,30,7*4D
$GAGSV,2,1,08,24,72,331,38,12,69,150,41,31,49,110,43,10,49,187,47,1*73
$GAGSV,2,2,08,33,39,048,34,11,23,201,42,25,20,306,38,03,04,301,22,1*76
$GBGSV,2,1,08,45,60,169,48,29,59,045,43,26,54,300,44,36,11,147,49,1*75
$GBGSV,2,2,08,44,10,236,44,24,07,318,35,30,06,053,30,58,,,16,1*4F
$GBGSV,2,1,07,45,60,169,44,29,59,045,33,26,54,300,41,36,11,147,40,5*79
$GBGSV,2,2,07,44,10,236,34,24,07,318,38,30,06,053,37,5*43
$GNGGA,185822.000,4005.098626,N,10513.208286,W,2,47,0.51,1583.473,M,-20.670,M,,*73
$GPGSV,3,1,09,19,69,022,34,06,66,162,46,22,51,105,46,24,42,277,43,1*69
$GPGSV,3,2,09,46,37,214,46,11,32,196,48,14,28,116,45,12,17,304,25,1*61
$GPGSV,3,3,09,03,14,054,37,1*5E
$GPGSV,2,1,05,06,66,162,47,24,42,277,44,11,32,196,48,14,28,116,39,8*69
$GPGSV,2,2,05,03,14,054,37,8*5B
$GLGSV,2,1,06,86,80,251,43,76,70,332,39,75,45,141,46,85,41,031,40,1*7F
$GLGSV,2,2,06,87,26,223,41,77,22,325,26,1*73
$GAGSV,3,1,09,24,72,331,39,12,70,148,37,10,50,188,44,31,49,110,37,7*73
$GAGSV,3,2,09,33,39,048,37,11,24,201,40,25,20,306,33,03,04,301,21,7*7E
$GAGSV,3,3,09,05,03,255,29,7*45
$GAGSV,2,1,08,24,72,331,38,12,70,148,41,10,50,188,47,31,49,110,43,1*75
$GAGSV,2,2,08,33,39,048,36,11,24,201,42,25,20,306,38,03,04,301,21,1*70
$GBGSV,2,1,08,45,60,169,48,29,59,045,43,26,54,300,44,36,11,147,49,1*75
$GBGSV,2,2,08,44,10,236,43,24,07,318,35,30,06,053,30,58,,,17,1*49
$GBGSV,2,1,07,45,60,169,44,29,59,045,32,26,54,300,41,36,11,147,40,5*78
$GBGSV,2,2,07,44,10,236,34,24,07,318,38,30,06,053,37,5*43
$GNGGA,185827.000,4005.098656,N,10513.208334,W,2,47,0.51,1583.390,M,-20.670,M,,*73
$GPGSV,3,1,09,19,69,022,33,06,66,162,46,22,51,105,46,24,42,277,43,1*6E
$GPGSV,3,2,09,46,37,214,45,11,32,196,48,14,28,116,45,12,17,304,19,1*6D
$GPGSV,3,3,09,03,14,054,38,1*51
$GPGSV,2,1,05,06,66,162,47,24,42,277,44,11,32,196,48,14,28,116,39,8*69
$GPGSV,2,2,05,03,14,054,37,8*5B
$GLGSV,2,1,06,86,80,251,42,76,70,332,38,75,45,141,46,85,41,031,40,1*7F
$GLGSV,2,2,06,87,26,223,42,77,22,325,26,1*70
$GAGSV,3,1,09,24,72,331,39,12,70,148,37,10,50,188,44,31,49,110,37,7*73
$GAGSV,3,2,09,33,39,048,37,11,24,201,40,25,20,306,33,03,04,301,20,7*7F
$GAGSV,3,3,09,05,03,255,28,7*44
$GAGSV,2,1,08,24,72,331,38,12,70,148,41,10,50,188,47,31,49,110,43,1*75
$GAGSV,2,2,08,33,39,048,36,11,24,201,41,25,20,306,38,03,04,301,19,1*78
$GBGSV,2,1,08,45,60,169,48,29,59,045,43,26,54,300,44,36,11,147,49,1*75
$GBGSV,2,2,08,44,10,236,42,24,07,318,35,30,06,053,30,58,,,17,1*48
$GBGSV,2,1,07,45,60,169,44,29,59,045,32,26,54,300,41,36,11,147,39,5*76
$GBGSV,2,2,07,44,10,236,34,24,07,318,38,30,06,053,37,5*43
$GNGGA,185832.000,4005.098698,N,10513.208412,W,2,47,0.51,1583.282,M,-20.670,M,,*74
$GPGSV,3,1,09,19,69,022,33,06,66,162,46,22,51,105,46,24,42,277,43,1*6E
$GPGSV,3,2,09,46,37,214,46,11,32,196,48,14,28,116,45,12,17,304,17,1*60
$GPGSV,3,3,09,03,14,054,38,1*51
$GPGSV,2,1,05,06,66,162,47,24,42,277,44,11,32,196,48,14,28,116,39,8*69
$GPGSV,2,2,05,03,14,054,37,8*5B
$GLGSV,2,1,06,86,80,251,42,76,70,332,37,75,45,141,46,85,41,031,40,1*70
$GLGSV,2,2,06,87,26,223,42,77,22,325,24,1*72
$GAGSV,3,1,09,24,72,331,39,12,70,148,37,10,50,188,44,31,49,110,37,7*73
$GAGSV,3,2,09,33,39,048,37,11,24,201,40,25,20,306,33,03,04,301,19,7*75
$GAGSV,3,3,09,05,03,255,27,7*4B
$GAGSV,2,1,08,24,72,331,38,12,70,148,41,10,50,188,47,31,49,110,43,1*75
$GAGSV,2,2,08,33,39,048,36,11,24,201,41,25,20,306,38,03,04,301,19,1*78
$GBGSV,2,1,08,45,60,169,48,29,59,045,43,26,54,300,44,36,11,147,48,1*74
$GBGSV,2,2,08,44,10,236,43,24,07,318,34,30,06,053,29,58,,,17,1*40
$GBGSV,2,1,07,45,60,169,44,29,59,045,32,26,54,300,41,36,11,147,39,5*76
$GBGSV,2,2,07,44,10,236,35,24,07,318,38,30,06,053,37,5*42
$GNGGA,185837.000,4005.098794,N,10513.208544,W,2,47,0.51,1583.309,M,-20.670,M,,*7C
$GPGSV,3,1,09,19,69,022,32,06,66,162,46,22,51,105,46,24,42,277,43,1*6F
$GPGSV,3,2,09,46,37,214,45,11,32,196,48,14,28,116,45,12,17,304,22,1*65
$GPGSV,3,3,09,03,14,054,38,1*51
$GPGSV,2,1,05,06,66,162,47,24,42,277,44,11,32,196,48,14,28,116,39,8*69
$GPGSV,2,2,05,03,14,054,37,8*5B
$GLGSV,2,1,06,86,80,251,42,76,70,332,38,75,45,141,46,85,41,031,40,1*7F
$GLGSV,2,2,06,87,26,223,42,77,22,325,24,1*72
$GAGSV,3,1,09,24,73,332,39,12,70,148,37,10,50,188,44,31,49,110,37,7*71
$GAGSV,3,2,09,33,39,048,37,11,24,201,40,25,21,306,34,03,04,301,19,7*73
$GAGSV,3,3,09,05,03,255,25,7*49
$GAGSV,2,1,08,24,73,332,38,12,70,148,41,10,50,188,47,31,49,110,43,1*77
$GAGSV,2,2,08,33,39,048,37,11,24,201,41,25,21,306,38,03,04,301,19,1*78
$GBGSV,2,1,08,45,60,169,48,29,59,045,42,26,54,300,44,36,11,147,48,1*75
$GBGSV,2,2,08,44,10,236,43,24,07,318,34,30,06,053,31,58,,,17,1*49
$GBGSV,2,1,07,45,60,169,45,29,59,045,33,26,54,300,41,36,11,147,39,5*76
$GBGSV,2,2,07,44,10,236,35,24,07,318,38,30,06,053,37,5*42
$GNGGA,185842.000,4005.098872,N,10513.208580,W,2,47,0.51,1583.332,M,-20.670,M,,*79
$GPGSV,3,1,09,19,69,022,32,06,66,162,46,22,51,105,46,24,42,277,43,1*6F
$GPGSV,3,2,09,46,37,214,46,11,32,196,48,14,28,116,45,12,17,304,26,1*62
$GPGSV,3,3,09,03,14,054,38,1*51
$GPGSV,2,1,05,06,66,162,47,24,42,277,44,11,32,196,48,14,28,116,40,8*67
$GPGSV,2,2,05,03,14,054,37,8*5B
$GLGSV,2,1,06,86,80,251,42,76,70,332,38,75,45,141,45,85,41,031,41,1*7D
$GLGSV,2,2,06,87,26,223,42,77,22,325,24,1*72
$GAGSV,3,1,09,24,73,332,38,12,70,148,37,10,50,188,44,31,49,111,37,7*71
$GAGSV,3,2,09,33,38,047,37,11,24,201,40,25,21,306,34,03,04,301,19,7*7D
$GAGSV,3,3,09,05,03,255,25,7*49
$GAGSV,2,1,08,24,73,332,38,12,70,148,41,10,50,188,47,31,49,111,44,1*71
$GAGSV,2,2,08,33,38,047,37,11,24,201,41,25,21,306,38,03,04,301,18,1*77
$GBGSV,2,1,08,45,60,169,48,29,59,045,41,26,54,300,44,36,11,147,48,1*76
$GBGSV,2,2,08,44,10,236,44,24,07,318,33,30,06,053,31,58,,,17,1*49
$GBGSV,2,1,07,45,60,169,45,29,59,045,33,26,54,300,41,36,11,147,38,5*77
$GBGSV,2,2,07,44,10,236,35,24,07,318,37,30,06,053,37,5*4D
$GNGGA,185847.000,4005.098908,N,10513.208574,W,2,47,0.51,1583.460,M,-20.670,M,,*7B
$GPGSV,3,1,09,19,69,022,32,06,66,162,46,22,51,105,45,24,42,277,43,1*6C
$GPGSV,3,2,09,46,37,214,46,11,32,196,48,14,28,116,45,12,17,304,26,1*62
$GPGSV,3,3,09,03,14,054,38,1*51
$GPGSV,2,1,05,06,66,162,47,24,42,277,44,11,32,196,48,14,28,116,40,8*67
$GPGSV,2,2,05,03,14,054,36,8*5A
$GLGSV,2,1,06,86,80,251,42,76,70,332,37,75,45,141,45,85,41,031,42,1*71
$GLGSV,2,2,06,87,26,223,42,77,22,325,24,1*72
$GAGSV,3,1,09,24,73,332,38,12,70,148,37,10,50,188,44,31,49,111,37,7*71
$GAGSV,3,2,09,33,38,047,37,11,24,201,40,25,21,306,34,03,04,301,19,7*7D
$GAGSV,3,3,09,05,03,255,21,7*4D
$GAGSV,2,1,08,24,73,332,38,12,70,148,41,10,50,188,47,31,49,111,44,1*71
$GAGSV,2,2,08,33,38,047,37,11,24,201,41,25,21,306,38,03,04,301,17,1*78
$GBGSV,2,1,08,45,60,169,48,29,59,045,41,26,54,300,44,36,11,147,48,1*76
$GBGSV,2,2,08,44,10,236,43,24,07,318,33,30,06,053,31,58,,,17,1*4E
$GBGSV,2,1,07,45,60,169,45,29,59,045,33,26,54,300,41,36,11,147,37,5*78
$GBGSV,2,2,07,44,10,236,35,24,07,318,37,30,06,053,37,5*4D
$GNGGA,185852.000,4005.098902,N,10513.208520,W,2,47,0.51,1583.627,M,-20.669,M,,*7D
$GPGSV,3,1,09,19,69,022,31,06,66,162,46,22,51,105,44,24,42,277,43,1*6E
$GPGSV,3,2,09,46,37,214,45,11,32,196,48,14,28,116,45,12,17,304,29,1*6E
$GPGSV,3,3,09,03,14,054,38,1*51
$GPGSV,2,1,05,06,66,162,47,24,42,277,44,11,32,196,48,14,28,116,40,8*67
$GPGSV,2,2,05,03,14,054,36,8*5A
$GLGSV,2,1,06,86,80,251,42,76,70,332,37,75,45,141,46,85,41,031,42,1*72
$GLGSV,2,2,06,87,26,223,42,77,22,325,22,1*74
$GAGSV,3,1,09,24,73,332,38,12,70,148,37,10,50,188,44,31,49,111,37,7*71
$GAGSV,3,2,09,33,38,047,37,11,24,201,40,25,21,306,35,03,04,301,19,7*7C
$GAGSV,3,3,09,05,03,255,21,7*4D
$GAGSV,2,1,08,24,73,332,38,12,70,148,41,10,50,188,47,31,49,111,44,1*71
$GAGSV,2,2,08,33,38,047,37,11,24,201,41,25,21,306,38,03,04,301,17,1*78
$GBGSV,2,1,08,45,60,169,48,29,59,045,41,26,54,300,44,36,11,147,48,1*76
$GBGSV,2,2,08,44,10,236,43,24,07,318,34,30,06,053,32,58,,,16,1*4B
$GBGSV,2,1,07,45,60,169,45,29,59,045,34,26,54,300,41,36,11,147,37,5*7F
$GBGSV,2,2,07,44,10,236,35,24,07,318,37,30,06,053,37,5*4D
$GNGGA,185857.000,4005.098902,N,10513.208454,W,2,47,0.51,1583.684,M,-20.670,M,,*7B
$GPGSV,3,1,09,19,69,022,32,06,66,162,46,22,51,105,44,24,42,277,43,1*6D
$GPGSV,3,2,09,46,37,214,45,11,32,196,48,14,28,116,45,12,17,304,33,1*65
$GPGSV,3,3,09,03,14,054,37,1*5E
$GPGSV,2,1,05,06,66,162,47,24,42,277,44,11,32,196,48,14,28,116,40,8*67
$GPGSV,2,2,05,03,14,054,35,8*59
$GLGSV,2,1,06,86,80,251,42,76,72,331,39,75,43,142,46,85,41,031,42,1*78
$GLGSV,2,2,06,87,26,223,42,77,22,325,22,1*74
$GAGSV,3,1,09,24,73,332,38,12,70,148,37,10,50,188,44,31,49,111,37,7*71
$GAGSV,3,2,09,33,38,047,37,11,24,201,40,25,21,306,35,03,04,301,19,7*7C
$GAGSV,3,3,09,05,03,255,20,7*4C
$GAGSV,2,1,08,24,73,332,38,12,70,148,41,10,50,188,47,31,49,111,44,1*71
$GAGSV,2,2,08,33,38,047,37,11,24,201,41,25,21,306,39,03,04,301,18,1*76
$GBGSV,2,1,08,45,60,169,48,29,59,045,41,26,54,300,44,36,11,147,48,1*76
$GBGSV,2,2,08,44,10,236,43,24,07,318,34,30,06,053,32,58,,,16,1*4B
$GBGSV,2,1,07,45,60,169,45,29,59,045,34,26,54,300,41,36,11,147,36,5*7E
$GBGSV,2,2,07,44,10,236,35,24,07,318,37,30,06,053,37,5*4D
$GNGGA,185902.000,4005.098836,N,10513.208400,W,2,47,0.51,1583.603,M,-20.670,M,,*72
$GPGSV,3,1,09,19,69,022,34,06,66,162,46,22,51,105,44,24,42,277,43,1*6B
$GPGSV,3,2,09,46,37,214,46,11,32,196,48,14,28,116,45,12,17,304,33,1*66
$GPGSV,3,3,09,03,14,054,38,1*51
$GPGSV,2,1,05,06,66,162,47,24,42,277,44,11,32,196,48,14,28,116,40,8*67
$GPGSV,2,2,05,03,14,054,35,8*59
$GLGSV,2,1,06,86,80,251,42,76,72,331,39,75,43,142,46,85,41,031,42,1*78
$GLGSV,2,2,06,87,26,223,42,77,24,325,22,1*72
$GAGSV,3,1,09,24,73,332,38,12,70,148,37,10,50,188,44,31,49,111,38,7*7E
$GAGSV,3,2,09,33,38,047,38,11,24,201,40,25,21,306,35,03,04,301,17,7*7D
$GAGSV,3,3,09,05,03,255,19,7*46
$GAGSV,2,1,08,24,73,332,38,12,70,148,41,10,50,188,47,31,49,111,44,1*71
$GAGSV,2,2,08,33,38,047,37,11,24,201,41,25,21,306,40,03,04,301,18,1*78
$GBGSV,2,1,08,45,60,169,48,29,59,045,41,26,54,300,44,36,11,147,47,1*79
$GBGSV,2,2,08,44,10,236,43,24,07,318,35,30,06,053,32,58,,,16,1*4A
$GBGSV,2,1,07,45,60,169,45,29,59,045,34,26,54,300,41,36,11,147,36,5*7E
$GBGSV,2,2,07,44,10,236,35,24,07,318,37,30,06,053,37,5*4D
$GNGGA,185907.000,4005.098788,N,10513.208406,W,2,47,0.51,1583.593,M,-20.670,M,,*71
$GPGSV,3,1,09,19,69,022,35,06,66,162,46,22,51,105,44,24,42,277,43,1*6A
$GPGSV,3,2,09,46,37,214,46,11,32,196,48,14,28,116,45,12,17,304,33,1*66
$GPGSV,3,3,09,03,14,054,38,1*51
$GPGSV,2,1,05,06,66,162,47,24,42,277,44,11,32,196,48,14,28,116,41,8*66
$GPGSV,2,2,05,03,14,054,35,8*59
$GLGSV,2,1,06,86,81,259,41,76,72,331,39,75,43,142,46,85,40,032,43,1*71
$GLGSV,2,2,06,87,26,223,43,77,24,325,21,1*70
$GAGSV,3,1,09,24,73,332,38,12,70,148,37,10,50,188,44,31,49,111,38,7*7E
$GAGSV,3,2,09,33,38,047,38,11,24,201,40,25,21,306,36,03,04,301,17,7*7E
$GAGSV,3,3,09,05,03,255,19,7*46
$GAGSV,2,1,08,24,73,332,38,12,70,148,41,10,50,188,47,31,49,111,44,1*71
$GAGSV,2,2,08,33,38,047,37,11,24,201,41,25,21,306,39,03,04,301,17,1*79
$GBGSV,2,1,08,45,60,169,47,29,59,045,41,26,54,300,44,36,11,147,47,1*76
$GBGSV,2,2,08,44,10,236,45,24,07,318,32,30,06,053,32,58,,,16,1*4B
$GBGSV,2,1,07,45,60,169,45,29,59,045,34,26,54,300,41,36,11,147,35,5*7D
$GBGSV,2,2,07,44,10,236,35,24,07,318,34,30,06,053,37,5*4E
$GNGGA,185912.000,4005.098752,N,10513.208436,W,2,47,0.51,1583.532,M,-20.670,M,,*7A
$GPGSV,3,1,09,19,69,022,35,06,66,162,46,22,51,105,44,24,42,277,43,1*6A
$GPGSV,3,2,09,46,37,214,46,11,32,196,48,14,28,116,44,12,17,304,31,1*65
$GPGSV,3,3,09,03,14,054,39,1*50
$GPGSV,2,1,05,06,66,162,47,24,42,277,44,11,32,196,48,14,28,116,41,8*66
$GPGSV,2,2,05,03,14,054,34,8*58
$GLGSV,2,1,06,86,81,259,41,76,72,331,37,75,43,142,45,85,40,032,43,1*7C
$GLGSV,2,2,06,87,28,224,43,77,24,325,21,1*79
$GAGSV,3,1,09,24,73,332,38,12,70,148,37,10,50,188,44,31,49,111,38,7*7E
$GAGSV,3,2,09,33,38,047,38,11,24,201,40,25,21,306,36,03,04,301,17,7*7E
$GAGSV,3,3,09,05,03,255,18,7*47
$GAGSV,2,1,08,24,73,332,38,12,70,148,41,10,50,188,47,31,49,111,44,1*71
$GAGSV,2,2,08,33,38,047,37,11,24,201,40,25,21,306,39,03,04,301,15,1*7A
$GBGSV,2,1,08,45,60,169,47,29,59,045,41,26,54,300,44,36,11,147,47,1*76
$GBGSV,2,2,08,44,10,236,45,24,07,318,33,30,06,053,32,58,,,16,1*4A
$GBGSV,2,1,07,45,60,169,45,29,59,045,34,26,54,300,41,36,11,147,34,5*7C
$GBGSV,2,2,07,44,10,236,35,24,07,318,36,30,06,053,37,5*4C
$GNGGA,185917.000,4005.098746,N,10513.208472,W,2,47,0.51,1583.544,M,-20.670,M,,*7B
$GPGSV,3,1,09,19,69,022,35,06,66,162,46,22,51,105,44,24,42,277,43,1*6A
$GPGSV,3,2,09,46,37,214,46,11,32,196,48,14,28,116,44,12,17,304,30,1*64
$GPGSV,3,3,09,03,14,054,39,1*50
$GPGSV,2,1,05,06,66,162,47,24,42,277,44,11,32,196,48,14,28,116,41,8*66
$GPGSV,2,2,05,03,14,054,34,8*58
$GLGSV,2,1,06,86,81,259,42,76,72,331,35,75,43,142,45,85,40,032,43,1*7D
$GLGSV,2,2,06,87,28,224,43,77,24,325,20,1*78
$GAGSV,3,1,09,24,73,332,38,12,70,148,36,10,50,188,44,31,49,111,38,7*7F
$GAGSV,3,2,09,33,38,047,38,11,24,201,40,25,21,306,36,03,04,301,15,7*7C
$GAGSV,3,3,09,05,03,255,18,7*47
$GAGSV,2,1,08,24,73,332,38,12,70,148,40,10,50,188,47,31,49,111,44,1*70
$GAGSV,2,2,08,33,38,047,37,11,24,201,40,25,21,306,39,03,04,301,16,1*79
$GBGSV,2,1,08,45,60,169,47,29,59,045,41,26,54,300,44,36,11,147,47,1*76
$GBGSV,2,2,08,44,10,236,45,24,07,318,35,30,06,053,32,58,,,17,1*4D
$GBGSV,2,1,07,45,60,169,45,29,59,045,34,26,54,300,41,36,11,147,34,5*7C
$GBGSV,2,2,07,44,10,236,36,24,07,318,37,30,06,053,37,5*4E
$GNGGA,185922.000,4005.098740,N,10513.208466,W,2,47,0.51,1583.567,M,-20.670,M,,*7F
$GPGSV,3,1,09,19,69,022,34,06,66,162,46,22,51,105,44,24,42,277,43,1*6B
$GPGSV,3,2,09,46,37,214,45,11,32,196,48,14,28,116,44,12,17,304,30,1*67
$GPGSV,3,3,09,03,14,054,39,1*50
$GPGSV,2,1,05,06,66,162,47,24,42,277,44,11,32,196,48,14,28,116,41,8*66
$GPGSV,2,2,05,03,14,054,34,8*58
$GLGSV,2,1,06,86,81,259,42,76,72,331,36,75,43,142,45,85,40,032,43,1*7E
$GLGSV,2,2,06,87,28,224,43,77,24,325,20,1*78
$GAGSV,3,1,09,24,73,332,38,12,70,148,36,10,50,188,44,31,49,111,38,7*7F
$GAGSV,3,2,09,33,38,047,38,11,24,201,40,25,21,306,36,03,04,301,15,7*7C
$GAGSV,3,3,09,05,03,255,20,7*4C
$GAGSV,2,1,07,24,73,332,38,12,70,148,40,10,50,188,47,31,49,111,44,1*7F
$GAGSV,2,2,07,33,38,047,37,11,24,201,40,25,21,306,39,1*44
$GBGSV,2,1,08,45,60,169,47,29,59,045,41,26,54,300,44,36,11,147,46,1*77
$GBGSV,2,2,08,44,10,236,45,24,07,318,35,30,06,053,31,58,,,17,1*4E
$GBGSV,2,1,07,45,60,169,45,29,59,045,34,26,54,300,41,36,11,147,33,5*7B
$GBGSV,2,2,07,44,10,236,36,24,07,318,37,30,06,053,37,5*4E
$GNGGA,185927.000,4005.098722,N,10513.208424,W,2,47,0.51,1583.581,M,-20.670,M,,*70
$GPGSV,3,1,09,19,69,022,32,06,66,162,46,22,51,105,44,24,42,277,43,1*6D
$GPGSV,3,2,09,46,37,214,45,11,32,196,48,14,28,116,44,12,17,304,31,1*66
$GPGSV,3,3,09,03,14,054,39,1*50
$GPGSV,2,1,05,06,66,162,47,24,42,277,44,11,32,196,48,14,28,116,41,8*66
$GPGSV,2,2,05,03,14,054,34,8*58
$GLGSV,2,1,06,86,81,259,42,76,72,331,37,75,43,142,45,85,40,032,43,1*7F
$GLGSV,2,2,06,87,28,224,43,77,24,325,18,1*73
$GAGSV,3,1,09,24,73,332,38,12,70,148,36,10,50,188,44,31,49,111,38,7*7F
$GAGSV,3,2,09,33,38,047,38,11,24,201,40,25,21,306,36,03,04,301,15,7*7C
$GAGSV,3,3,09,05,03,255,20,7*4C
$GAGSV,2,1,07,24,73,332,38,12,70,148,40,10,50,188,47,31,49,111,45,1*7E
$GAGSV,2,2,07,33,38,047,37,11,24,201,40,25,21,306,39,1*44
$GBGSV,2,1,08,45,60,169,47,29,59,045,41,26,54,300,44,36,11,147,46,1*77
$GBGSV,2,2,08,44,10,236,45,24,07,318,36,30,06,053,33,58,,,17,1*4F
$GBGSV,2,1,07,45,60,169,45,29,59,045,34,26,54,300,41,36,11,147,32,5*7A
$GBGSV,2,2,07,44,10,236,36,24,07,318,37,30,06,053,37,5*4E
$GNGGA,185932.000,4005.098752,N,10513.208418,W,2,47,0.51,1583.617,M,-20.670,M,,*70
$GPGSV,3,1,09,19,69,022,30,06,66,162,46,22,51,105,44,24,42,277,43,1*6F
$GPGSV,3,2,09,46,37,214,45,11,32,196,48,14,28,116,44,12,17,304,31,1*66
$GPGSV,3,3,09,03,14,054,38,1*51
$GPGSV,2,1,05,06,66,162,47,24,42,277,44,11,32,196,48,14,28,116,42,8*65
$GPGSV,2,2,05,03,14,054,34,8*58
$GLGSV,2,1,06,86,81,259,42,76,72,331,38,75,43,142,45,85,40,032,43,1*70
$GLGSV,2,2,06,87,28,224,43,77,24,325,18,1*73
$GAGSV,3,1,09,24,73,332,38,12,70,148,37,10,50,188,44,31,49,111,38,7*7E
$GAGSV,3,2,09,33,38,047,38,11,24,201,40,25,21,306,36,03,04,301,14,7*7D
$GAGSV,3,3,09,05,03,255,19,7*46
$GAGSV,2,1,07,24,73,332,38,12,70,148,40,10,50,188,47,31,49,111,45,1*7E
$GAGSV,2,2,07,33,38,047,38,11,24,201,40,25,21,306,39,1*4B
$GBGSV,2,1,08,45,60,169,47,29,59,045,41,26,54,300,44,36,11,147,46,1*77
$GBGSV,2,2,08,44,10,236,46,24,07,318,36,30,06,053,32,58,,,17,1*4D
$GBGSV,2,1,07,45,60,169,45,29,59,045,33,26,54,300,41,36,11,147,32,5*7D
$GBGSV,2,2,07,44,10,236,37,24,07,318,37,30,06,053,37,5*4F
$GNGGA,185937.000,4005.098752,N,10513.208412,W,2,47,0.51,1583.791,M,-20.669,M,,*78
$GPGSV,3,1,09,19,69,022,29,06,66,162,46,22,51,105,44,24,42,277,43,1*67
$GPGSV,3,2,09,46,37,214,45,11,32,196,48,14,28,116,44,12,17,304,32,1*65
$GPGSV,3,3,09,03,14,054,37,1*5E
$GPGSV,2,1,05,06,66,162,47,24,42,277,44,11,32,196,48,14,28,116,42,8*65
$GPGSV,2,2,05,03,14,054,34,8*58
$GLGSV,2,1,06,86,81,259,42,76,72,331,38,75,43,142,45,85,40,032,43,1*70
$GLGSV,2,2,06,87,28,224,43,77,24,325,20,1*78
$GAGSV,3,1,09,24,73,332,38,12,70,148,37,10,50,188,44,31,49,111,39,7*7F
$GAGSV,3,2,09,33,38,047,38,11,24,201,40,25,21,306,36,03,04,301,14,7*7D
$GAGSV,3,3,09,05,03,255,19,7*46
$GAGSV,2,1,07,24,73,332,38,12,70,148,40,10,50,188,47,31,49,111,45,1*7E
$GAGSV,2,2,07,33,38,047,38,11,24,201,40,25,21,306,39,1*4B
$GBGSV,2,1,08,45,60,169,47,29,59,045,41,26,55,299,44,36,11,147,46,1*77
$GBGSV,2,2,08,44,10,236,47,24,08,318,37,30,06,053,32,58,,,17,1*42
$GBGSV,2,1,07,45,60,169,45,29,59,045,32,26,55,299,41,36,11,147,32,5*7C
$GBGSV,2,2,07,44,10,236,37,24,08,318,36,30,06,053,36,5*40
$GNGGA,185942.000,4005.098746,N,10513.208376,W,2,47,0.51,1583.867,M,-20.670,M,,*74
$GPGSV,3,1,09,19,69,022,28,06,66,162,46,22,51,105,44,24,42,277,43,1*66
$GPGSV,3,2,09,46,37,214,45,11,32,196,48,14,28,116,44,12,17,304,32,1*65
$GPGSV,3,3,09,03,14,054,37,1*5E
$GPGSV,2,1,05,06,66,162,47,24,42,277,44,11,32,196,48,14,28,116,42,8*65
$GPGSV,2,2,05,03,14,054,34,8*58
$GLGSV,2,1,06,86,81,259,42,76,72,331,38,75,43,142,44,85,40,032,43,1*71
$GLGSV,2,2,06,87,28,224,44,77,24,325,20,1*7F
$GAGSV,3,1,09,24,73,332,39,12,70,148,37,10,50,188,44,31,49,111,39,7*7E
$GAGSV,3,2,09,33,38,047,38,11,24,201,40,25,21,306,36,03,04,301,10,7*79
$GAGSV,3,3,09,05,03,255,19,7*46
$GAGSV,2,1,07,24,73,332,38,12,70,148,40,10,50,188,47,31,49,111,45,1*7E
$GAGSV,2,2,07,33,38,047,38,11,24,201,40,25,21,306,40,1*45
$GBGSV,2,1,08,45,60,169,47,29,58,045,41,26,55,299,44,36,11,147,45,1*75
$GBGSV,2,2,08,44,10,236,47,24,08,318,37,30,05,053,32,58,,,17,1*41
$GBGSV,2,1,07,45,60,169,45,29,58,045,32,26,55,299,41,36,11,147,32,5*7D
$GBGSV,2,2,07,44,10,236,37,24,08,318,36,30,05,053,36,5*43
$GNGGA,185947.000,4005.098746,N,10513.208340,W,2,47,0.51,1583.967,M,-20.670,M,,*75
$GPGSV,3,1,09,19,69,022,28,06,66,162,46,22,51,105,44,24,42,277,43,1*66
$GPGSV,3,2,09,46,37,214,46,11,32,196,48,14,28,116,44,12,17,304,32,1*66
$GPGSV,3,3,09,03,14,054,39,1*50
$GPGSV,2,1,05,06,66,162,47,24,42,277,44,11,32,196,48,14,28,116,42,8*65
$GPGSV,2,2,05,03,14,054,34,8*58
$GLGSV,2,1,06,86,81,259,42,76,72,331,39,75,43,142,43,85,40,032,43,1*77
$GLGSV,2,2,06,87,28,224,44,77,24,325,20,1*7F
$GAGSV,3,1,09,24,73,332,39,12,70,148,37,10,50,188,44,31,49,111,39,7*7E
$GAGSV,3,2,09,33,38,047,38,11,24,201,40,25,21,306,36,03,04,301,10,7*79
$GAGSV,3,3,09,05,03,255,20,7*4C
$GAGSV,2,1,07,24,73,332,38,12,70,148,40,10,50,188,47,31,49,111,45,1*7E
$GAGSV,2,2,07,33,38,047,38,11,24,201,39,25,21,306,40,1*4B
$GBGSV,2,1,08,45,60,169,47,29,58,045,41,26,55,299,44,36,10,148,45,1*7B
$GBGSV,2,2,08,44,10,236,47,24,08,318,37,30,05,053,31,58,,,17,1*42
$GBGSV,2,1,07,45,60,169,45,29,58,045,31,26,55,299,41,36,10,148,32,5*70
$GBGSV,2,2,07,44,10,236,37,24,08,318,34,30,05,053,35,5*42
$GNGGA,185952.000,4005.098728,N,10513.208328,W,2,47,0.51,1584.078,M,-20.670,M,,*77
$GPGSV,3,1,09,19,69,022,29,06,66,162,46,22,51,105,44,24,42,277,43,1*67
$GPGSV,3,2,09,46,37,214,46,11,32,196,48,14,28,116,44,12,17,304,31,1*65
$GPGSV,3,3,09,03,14,054,39,1*50
$GPGSV,2,1,05,06,66,162,47,24,42,277,44,11,32,196,48,14,28,116,42,8*65
$GPGSV,2,2,05,03,14,054,35,8*59
$GLGSV,2,1,06,86,81,259,42,76,72,331,39,75,43,142,43,85,40,032,43,1*77
$GLGSV,2,2,06,87,28,224,43,77,24,325,22,1*7A
$GAGSV,3,1,09,24,73,332,39,12,70,148,37,10,50,188,44,31,49,111,39,7*7E
$GAGSV,3,2,09,33,38,047,38,11,24,201,40,25,21,306,37,03,04,301,10,7*78
$GAGSV,3,3,09,05,03,255,22,7*4E
$GAGSV,2,1,07,24,73,332,38,12,70,148,40,10,50,188,47,31,49,111,45,1*7E
$GAGSV,2,2,07,33,38,047,38,11,24,201,39,25,21,306,40,1*4B
$GBGSV,2,1,08,45,60,169,47,29,58,045,41,26,55,299,44,36,10,148,45,1*7B
$GBGSV,2,2,08,44,10,236,47,24,08,318,37,30,05,053,31,58,,,17,1*42
$GBGSV,2,1,07,45,60,169,46,29,58,045,31,26,55,299,41,36,10,148,32,5*73
$GBGSV,2,2,07,44,10,236,37,24,08,318,34,30,05,053,36,5*41
$GNGGA,185957.000,4005.098734,N,10513.208370,W,2,47,0.51,1584.203,M,-20.669,M,,*74
$GPGSV,3,1,09,19,69,022,29,06,66,162,46,22,51,105,44,24,42,277,43,1*67
$GPGSV,3,2,09,46,37,214,46,11,32,196,48,14,28,116,44,12,17,304,33,1*67
$GPGSV,3,3,09,03,14,054,39,1*50
$GPGSV,2,1,05,06,66,162,47,24,42,277,44,11,32,196,48,14,28,116,42,8*65
$GPGSV,2,2,05,03,14,054,35,8*59
$GLGSV,2,1,06,86,81,259,42,76,72,331,37,75,43,142,45,85,40,032,43,1*7F
$GLGSV,2,2,06,87,28,224,43,77,24,325,21,1*79
$GAGSV,3,1,09,24,73,332,39,12,70,148,37,10,50,188,44,31,49,111,39,7*7E
$GAGSV,3,2,09,33,38,047,38,11,24,201,40,25,21,306,37,03,04,301,11,7*79
$GAGSV,3,3,09,05,03,255,21,7*4D
$GAGSV,2,1,07,24,73,332,38,12,70,148,40,10,50,188,47,31,49,111,45,1*7E
$GAGSV,2,2,07,33,38,047,38,11,24,201,39,25,21,306,40,1*4B
$GBGSV,2,1,08,45,59,169,47,29,58,045,41,26,55,299,44,44,11,237,47,1*7C
$GBGSV,2,2,08,36,10,148,45,24,08,318,38,30,05,053,31,58,,,17,1*40
$GBGSV,2,1,07,45,59,169,46,29,58,045,31,26,55,299,41,44,11,237,38,5*7C
$GBGSV,2,2,07,36,10,148,32,24,08,318,34,30,05,053,35,5*48
$GNGGA,190002.000,4005.098758,N,10513.208364,W,2,47,0.51,1584.360,M,-20.670,M,,*7A
$GPGSV,3,1,09,19,69,022,28,06,66,162,46,22,51,105,44,24,42,277,43,1*66
$GPGSV,3,2,09,46,37,214,46,11,32,196,48,14,28,116,43,12,17,304,35,1*66
$GPGSV,3,3,09,03,14,054,39,1*50
$GPGSV,2,1,05,06,66,162,47,24,42,277,44,11,32,196,48,14,28,116,42,8*65
$GPGSV,2,2,05,03,14,054,35,8*59
$GLGSV,2,1,06,86,81,259,41,76,72,331,36,75,43,142,45,85,40,032,43,1*7D
$GLGSV,2,2,06,87,28,224,44,77,24,325,20,1*7F
$GAGSV,3,1,09,24,73,332,38,12,70,148,36,10,50,188,44,31,49,111,40,7*70
$GAGSV,3,2,09,33,38,047,38,11,24,201,40,25,21,306,37,03,04,301,11,7*79
$GAGSV,3,3,09,05,03,255,20,7*4C
$GAGSV,2,1,07,24,73,332,38,12,70,148,40,10,50,188,47,31,49,111,45,1*7E
$GAGSV,2,2,07,33,38,047,39,11,24,201,39,25,21,306,40,1*4A
$GBGSV,3,1,09,45,59,169,46,29,58,045,41,35,57,244,47,26,55,299,44,1*7D
$GBGSV,3,2,09,44,11,237,47,36,10,148,45,24,08,318,38,30,05,053,29,1*77
$GBGSV,3,3,09,58,,,17,1*74
$GBGSV,2,1,08,45,59,169,46,29,58,045,31,35,57,244,42,26,55,299,41,5*7E
$GBGSV,2,2,08,44,11,237,38,36,10,148,33,24,08,318,34,30,05,053,35,5*7B
$GNGGA,190007.000,4005.098776,N,10513.208394,W,2,47,0.51,1584.502,M,-20.670,M,,*7E
$GPGSV,3,1,09,19,69,022,26,06,66,162,46,22,51,105,44,24,42,277,43,1*68
$GPGSV,3,2,09,46,37,214,46,11,32,196,48,14,28,116,43,12,17,304,35,1*66
$GPGSV,3,3,09,03,14,054,39,1*50
$GPGSV,2,1,05,06,66,162,47,24,42,277,44,11,32,196,48,14,28,116,42,8*65
$GPGSV,2,2,05,03,14,054,34,8*58
$GLGSV,2,1,06,86,81,259,41,76,72,331,36,75,43,142,44,85,40,032,42,1*7D
$GLGSV,2,2,06,87,28,224,44,77,24,325,22,1*7D
$GAGSV,3,1,09,24,73,332,37,12,70,148,36,10,50,188,44,31,49,111,40,7*7F
$GAGSV,3,2,09,33,38,047,38,11,24,201,40,25,21,306,37,03,04,301,09,7*70
$GAGSV,3,3,09,05,03,255,19,7*46
$GAGSV,2,1,07,24,73,332,38,12,70,148,40,10,50,188,47,31,49,111,45,1*7E
$GAGSV,2,2,07,33,38,047,39,11,24,201,39,25,21,306,40,1*4A
$GBGSV,3,1,09,45,59,169,45,29,58,045,41,35,57,244,47,26,55,299,44,1*7E
$GBGSV,3,2,09,44,11,237,47,36,10,148,44,24,08,318,38,30,05,053,29,1*76
$GBGSV,3,3,09,58,,,17,1*74
$GBGSV,2,1,08,45,59,169,46,29,58,045,32,35,57,244,41,26,55,299,41,5*7E
$GBGSV,2,2,08,44,11,237,38,36,10,148,33,24,08,318,33,30,05,053,35,5*7C
$GNGGA,190012.000,4005.098806,N,10513.208430,W,2,47,0.51,1584.573,M,-20.669,M,,*75
$GPGSV,3,1,09,19,69,022,25,06,66,162,46,22,51,105,44,24,42,277,43,1*6B
$GPGSV,3,2,09,46,37,214,46,11,32,196,48,14,28,116,43,12,17,304,35,1*66
$GPGSV,3,3,09,03,14,054,38,1*51
$GPGSV,2,1,05,06,66,162,47,24,42,277,44,11,32,196,48,14,28,116,42,8*65
$GPGSV,2,2,05,03,14,054,34,8*58
$GLGSV,2,1,06,86,81,259,41,76,72,331,37,75,43,142,44,85,40,032,43,1*7D
$GLGSV,2,2,06,87,28,224,45,77,24,325,22,1*7C
$GAGSV,3,1,09,24,73,332,36,12,70,148,36,10,50,188,44,31,49,111,40,7*7E
$GAGSV,3,2,09,33,38,047,38,11,24,201,40,25,21,306,37,03,04,301,09,7*70
$GAGSV,3,3,09,05,03,255,18,7*47
$GAGSV,2,1,07,24,73,332,38,12,70,148,40,10,50,188,47,31,49,111,45,1*7E
$GAGSV,2,2,07,33,38,047,39,11,24,201,39,25,21,306,40,1*4A
$GBGSV,3,1,09,45,59,169,45,29,58,045,41,35,57,244,47,26,55,299,44,1*7E
$GBGSV,3,2,09,44,11,237,47,36,10,148,44,24,08,318,38,30,05,053,28,1*77
$GBGSV,3,3,09,58,,,17,1*74
$GBGSV,2,1,08,45,59,169,46,29,58,045,31,35,57,244,42,26,55,299,41,5*7E
$GBGSV,2,2,08,44,11,237,38,36,10,148,34,24,08,318,32,30,05,053,35,5*7A
$GNGGA,190017.000,4005.098836,N,10513.208424,W,2,47,0.51,1584.596,M,-20.670,M,,*75
$GPGSV,3,1,09,19,69,022,25,06,66,162,46,22,51,105,44,24,42,277,43,1*6B
$GPGSV,3,2,09,46,37,214,46,11,32,196,48,14,28,116,43,12,17,304,35,1*66
$GPGSV,3,3,09,03,14,053,38,1*56
$GPGSV,2,1,05,06,66,162,46,24,42,277,43,11,32,196,47,14,28,116,42,8*6C
$GPGSV,2,2,05,03,14,053,34,8*5F
$GLGSV,2,1,06,86,81,259,42,76,72,331,36,75,43,142,44,85,40,032,43,1*7F
$GLGSV,2,2,06,87,28,224,45,77,24,325,21,1*7F
$GAGSV,3,1,09,24,73,332,36,12,70,148,36,10,50,188,44,31,49,111,40,7*7E
$GAGSV,3,2,09,33,38,047,39,11,24,201,41,25,21,306,37,03,04,301,10,7*78
$GAGSV,3,3,09,05,03,255,12,7*4D
$GAGSV,2,1,07,24,73,332,37,12,70,148,39,10,50,188,46,31,49,111,44,1*7F
$GAGSV,2,2,07,33,38,047,38,11,24,201,38,25,21,306,39,1*44
$GBGSV,3,1,09,45,59,169,45,29,58,045,40,26,55,299,43,44,11,237,48,1*77
$GBGSV,3,2,09,36,10,148,44,24,08,318,38,30,05,053,28,58,,,17,1*49
$GBGSV,3,3,09,35,,,47,1*7A
$GBGSV,2,1,08,45,59,169,45,29,58,045,31,26,55,299,40,44,11,237,37,5*7E
$GBGSV,2,2,08,36,10,148,34,24,08,318,31,30,05,053,34,35,,,40,5*47
$GNGGA,190022.000,4005.098854,N,10513.208460,W,2,46,0.51,1584.589,M,-20.669,M,,*70
$GPGSV,3,1,09,19,69,022,26,06,68,161,46,22,51,105,44,24,42,277,43,1*65
$GPGSV,3,2,09,46,37,214,46,11,32,196,48,14,28,116,43,12,17,304,33,1*60
$GPGSV,3,3,09,03,14,053,38,1*56
$GPGSV,2,1,05,06,68,161,47,24,42,277,44,11,32,196,48,14,28,116,43,8*69
$GPGSV,2,2,05,03,14,053,34,8*5F
$GLGSV,2,1,06,86,81,259,42,76,72,331,38,75,43,142,43,85,40,032,43,1*76
$GLGSV,2,2,06,87,28,224,45,77,24,325,22,1*7C
$GAGSV,3,1,09,24,73,332,36,12,70,148,36,10,50,188,44,31,49,111,40,7*7E
$GAGSV,3,2,09,33,38,047,39,11,24,201,41,25,21,306,37,03,04,301,09,7*70
$GAGSV,3,3,09,05,03,255,12,7*4D
$GAGSV,2,1,07,24,73,332,38,12,70,148,40,10,50,188,46,31,49,111,45,1*7F
$GAGSV,2,2,07,33,38,047,38,11,24,201,38,25,21,306,40,1*4A
$GBGSV,3,1,09,45,59,169,45,29,58,045,40,26,55,299,43,44,11,237,47,1*78
$GBGSV,3,2,09,36,10,148,44,24,08,318,38,30,05,053,29,58,,,17,1*48
$GBGSV,3,3,09,35,,,47,1*7A
$GBGSV,2,1,08,45,59,169,46,29,58,045,32,26,55,299,41,44,11,237,38,5*70
$GBGSV,2,2,08,36,10,148,36,24,08,318,30,30,05,053,34,35,,,42,5*46
$GNGGA,190027.000,4005.098836,N,10513.208442,W,2,46,0.51,1584.584,M,-20.669,M,,*7C
$GPGSV,3,1,09,19,69,022,26,06,68,161,46,22,51,105,42,24,42,277,43,1*63
$GPGSV,3,2,09,46,37,214,46,11,34,196,48,14,27,117,43,12,18,305,33,1*66
$GPGSV,3,3,09,03,14,053,38,1*56
$GPGSV,2,1,05,06,68,161,47,24,42,277,44,11,34,196,47,14,27,117,43,8*6E
$GPGSV,2,2,05,03,14,053,34,8*5F
$GLGSV,2,1,06,86,81,259,42,76,72,331,37,75,43,142,43,85,40,032,44,1*7E
$GLGSV,2,2,06,87,28,224,45,77,24,325,25,1*7B
$GAGSV,3,1,09,24,73,332,36,12,70,148,36,10,50,188,43,31,49,111,40,7*79
$GAGSV,3,2,09,33,38,047,39,11,24,201,41,25,21,306,37,03,04,301,09,7*70
$GAGSV,3,3,09,05,03,255,18,7*47
$GAGSV,2,1,07,24,73,332,38,12,70,148,40,10,50,188,46,31,49,111,45,1*7F
$GAGSV,2,2,07,33,38,047,38,11,24,201,38,25,21,306,40,1*4A
$GBGSV,3,1,09,45,59,169,45,29,58,045,39,26,55,299,43,44,11,237,48,1*79
$GBGSV,3,2,09,36,10,148,44,24,08,318,38,30,05,053,30,58,,,17,1*40
$GBGSV,3,3,09,35,,,47,1*7A
$GBGSV,2,1,08,45,59,169,46,29,58,045,32,26,55,299,41,44,11,237,38,5*70
$GBGSV,2,2,08,36,10,148,36,24,08,318,30,30,05,053,34,35,,,41,5*45
$GNGGA,190032.000,4005.098848,N,10513.208382,W,2,47,0.51,1584.670,M,-20.670,M,,*7B
$GPGSV,3,1,09,06,68,161,46,19,68,024,25,22,51,105,42,24,42,277,43,1*67
$GPGSV,3,2,09,46,37,214,46,11,34,196,48,14,27,117,43,12,18,305,33,1*66
$GPGSV,3,3,09,03,14,053,39,1*57
$GPGSV,2,1,05,06,68,161,47,24,42,277,44,11,34,196,48,14,27,117,43,8*61
$GPGSV,2,2,05,03,14,053,35,8*5E
$GLGSV,2,1,06,86,81,259,42,76,72,331,36,75,43,142,43,85,40,032,44,1*7F
$GLGSV,2,2,06,87,28,224,45,77,24,325,26,1*78
$GAGSV,3,1,09,24,73,332,36,12,70,148,36,10,50,188,43,31,49,111,40,7*79
$GAGSV,3,2,09,33,38,047,40,11,24,201,41,25,21,306,37,03,04,301,08,7*7F
$GAGSV,3,3,09,05,03,255,19,7*46
$GAGSV,2,1,07,24,73,332,38,12,70,148,40,10,50,188,46,31,49,111,45,1*7F
$GAGSV,2,2,07,33,38,047,38,11,24,201,38,25,21,306,40,1*4A
$GBGSV,3,1,09,45,59,169,45,29,58,045,39,26,55,299,43,44,11,237,48,1*79
$GBGSV,3,2,09,36,10,148,44,24,08,318,38,30,05,053,32,58,,,17,1*42
$GBGSV,3,3,09,35,,,47,1*7A
$GBGSV,2,1,08,45,59,169,46,29,58,045,33,26,55,299,41,44,11,237,39,5*70
$GBGSV,2,2,08,36,10,148,37,24,08,318,29,30,05,053,35,35,,,41,5*4D
$GNGGA,190037.000,4005.098860,N,10513.208316,W,2,46,0.51,1584.792,M,-20.670,M,,*75
$GPGSV,3,1,09,19,68,024,27,06,68,161,46,22,50,106,42,24,42,276,43,1*66
$GPGSV,3,2,09,46,37,214,46,11,34,196,47,14,27,117,42,12,18,305,34,1*6F
$GPGSV,3,3,09,03,14,053,39,1*57
$GPGSV,2,1,05,06,68,161,47,24,42,276,44,11,34,196,48,14,27,117,43,8*60
$GPGSV,2,2,05,03,14,053,35,8*5E
$GLGSV,2,1,06,86,81,259,41,76,72,331,37,75,43,142,42,85,40,032,44,1*7C
$GLGSV,2,2,06,87,28,224,45,77,24,325,25,1*7B
$GAGSV,3,1,09,24,73,332,37,12,70,148,36,10,50,188,43,31,49,111,40,7*78
$GAGSV,3,2,09,33,38,047,40,11,24,201,41,25,21,306,38,03,04,301,08,7*70
$GAGSV,3,3,09,05,03,255,18,7*47
$GAGSV,2,1,07,24,73,332,38,12,70,148,40,10,50,188,46,31,49,111,45,1*7F
$GAGSV,2,2,07,33,38,047,38,11,24,201,38,25,21,306,40,1*4A
$GBGSV,2,1,08,45,59,169,45,29,58,045,39,26,55,299,43,44,11,237,48,1*79
$GBGSV,2,2,08,36,10,148,44,24,08,318,38,30,05,053,33,58,,,17,1*43
$GBGSV,2,1,07,45,59,169,46,29,58,045,33,26,55,299,41,44,11,237,39,5*7F
$GBGSV,2,2,07,36,10,148,37,24,08,318,28,30,05,053,35,5*40
$GNGGA,190042.000,4005.098866,N,10513.208340,W,2,47,0.51,1584.825,M,-20.670,M,,*70
$GPGSV,3,1,09,19,68,024,27,06,68,161,46,22,50,106,42,24,42,276,43,1*66
$GPGSV,3,2,09,46,37,214,45,11,34,196,47,14,27,117,42,12,18,305,34,1*6C
$GPGSV,3,3,09,03,14,053,39,1*57
$GPGSV,2,1,05,06,68,161,47,24,42,276,44,11,34,196,48,14,27,117,43,8*60
$GPGSV,2,2,05,03,14,053,34,8*5F
$GLGSV,2,1,06,86,81,259,41,76,72,331,38,75,43,142,42,85,40,032,44,1*73
$GLGSV,2,2,06,87,28,224,45,77,24,325,22,1*7C
$GAGSV,3,1,09,24,73,332,37,12,70,148,36,10,50,188,43,31,49,111,41,7*79
$GAGSV,3,2,09,33,38,047,41,11,24,201,42,25,21,306,38,03,04,301,08,7*72
$GAGSV,3,3,09,05,03,255,15,7*4A
$GAGSV,2,1,07,24,73,332,38,12,70,148,40,10,50,188,46,31,49,111,45,1*7F
$GAGSV,2,2,07,33,38,047,38,11,24,201,38,25,21,306,40,1*4A
$GBGSV,2,1,08,45,59,169,45,29,58,045,39,26,55,299,43,44,11,237,48,1*79
$GBGSV,2,2,08,36,10,148,44,24,08,318,38,30,05,053,32,58,,,17,1*42
$GBGSV,2,1,07,45,59,169,46,29,58,045,33,26,55,299,41,44,11,237,39,5*7F
$GBGSV,2,2,07,36,10,148,38,24,08,318,27,30,05,053,35,5*40
$GNGGA,190047.000,4005.098848,N,10513.208388,W,2,46,0.51,1584.813,M,-20.670,M,,*79
$GPGSV,3,1,09,19,68,024,24,06,68,161,46,22,50,106,42,24,42,276,43,1*65
$GPGSV,3,2,09,46,37,214,46,11,34,196,47,14,27,117,42,12,18,305,35,1*6E
$GPGSV,3,3,09,03,14,053,38,1*56
$GPGSV,2,1,05,06,68,161,47,24,42,276,44,11,34,196,48,14,27,117,43,8*60
$GPGSV,2,2,05,03,14,053,34,8*5F
$GLGSV,2,1,06,86,81,259,41,76,72,331,38,75,43,142,42,85,40,032,44,1*73
$GLGSV,2,2,06,87,28,224,45,77,24,325,25,1*7B
$GAGSV,3,1,09,24,73,332,37,12,70,148,36,10,50,188,43,31,49,111,41,7*79
$GAGSV,3,2,09,33,38,047,42,11,24,201,42,25,21,306,38,03,04,301,07,7*7E
$GAGSV,3,3,09,05,03,255,11,7*4E
$GAGSV,2,1,07,24,73,332,38,12,70,148,40,10,50,188,46,31,49,111,45,1*7F
$GAGSV,2,2,07,33,38,047,38,11,24,201,38,25,21,306,40,1*4A
$GBGSV,2,1,08,45,59,169,44,29,58,045,39,26,55,299,43,44,11,237,48,1*78
$GBGSV,2,2,08,36,10,148,44,24,08,318,38,30,05,053,34,58,,,17,1*44
$GBGSV,2,1,07,45,59,169,46,29,58,045,33,26,55,299,41,44,11,237,39,5*7F
$GBGSV,2,2,07,36,10,148,38,24,08,318,27,30,05,053,35,5*40
$GNGGA,190052.000,4005.098806,N,10513.208448,W,2,45,0.52,1584.767,M,-20.670,M,,*70
$GPGSV,3,1,09,19,68,024,20,06,68,161,46,22,50,106,42,24,42,276,43,1*61
$GPGSV,3,2,09,46,37,214,45,11,34,196,47,14,27,117,42,12,18,305,35,1*6D
$GPGSV,3,3,09,03,14,053,37,1*59
$GPGSV,2,1,05,06,68,161,47,24,42,276,44,11,34,196,48,14,27,117,43,8*60
$GPGSV,2,2,05,03,14,053,34,8*5F
$GLGSV,2,1,06,86,81,259,41,76,72,331,38,75,43,142,42,85,40,032,44,1*73
$GLGSV,2,2,06,87,28,224,45,77,24,325,27,1*79
$GAGSV,3,1,09,24,73,332,38,12,70,148,35,10,50,188,43,31,49,111,41,7*75
$GAGSV,3,2,09,33,38,047,42,11,24,201,42,25,21,306,38,03,04,301,10,7*78
$GAGSV,3,3,09,05,03,255,09,7*47
$GAGSV,2,1,07,24,73,332,38,12,70,148,40,10,50,188,46,31,49,111,45,1*7F
$GAGSV,2,2,07,33,38,047,39,11,24,201,38,25,21,306,40,1*4B
$GBGSV,2,1,08,45,59,169,44,29,58,045,39,26,55,299,43,44,11,237,48,1*78
$GBGSV,2,2,08,36,10,148,44,24,08,318,38,30,05,053,34,58,,,17,1*44
$GBGSV,2,1,07,45,59,169,46,29,58,045,34,26,55,299,41,44,11,237,39,5*78
$GBGSV,2,2,07,36,10,148,39,24,08,318,26,30,05,053,35,5*40
$GNGGA,190057.000,4005.098782,N,10513.208502,W,2,46,0.51,1584.737,M,-20.670,M,,*7C
$GPGSV,3,1,09,19,68,024,23,06,68,161,46,22,50,106,42,24,42,276,43,1*62
$GPGSV,3,2,09,46,37,214,46,11,34,196,47,14,27,117,42,12,18,305,35,1*6E
$GPGSV,3,3,09,03,14,053,37,1*59
$GPGSV,2,1,05,06,68,161,47,24,42,276,44,11,34,196,48,14,27,117,43,8*60
$GPGSV,2,2,05,03,14,053,34,8*5F
$GLGSV,2,1,06,86,81,259,42,76,72,331,37,75,43,142,41,85,40,032,43,1*7B
$GLGSV,2,2,06,87,28,224,45,77,24,325,26,1*78
$GAGSV,3,1,09,24,73,332,38,12,70,148,35,10,50,188,43,31,49,111,42,7*76
$GAGSV,3,2,09,33,38,047,42,11,24,201,42,25,21,306,38,03,03,301,10,7*7F
$GAGSV,3,3,09,05,02,254,10,7*4F
$GAGSV,2,1,07,24,73,332,38,12,70,148,40,10,50,188,46,31,49,111,45,1*7F
$GAGSV,2,2,07,33,38,047,39,11,24,201,38,25,21,306,40,1*4B
$GBGSV,2,1,08,45,59,169,44,29,58,045,39,26,55,299,43,44,11,237,49,1*79
$GBGSV,2,2,08,36,10,148,44,24,08,318,38,30,05,053,34,58,,,17,1*44
$GBGSV,2,1,07,45,59,169,46,29,58,045,34,26,55,299,41,44,11,237,40,5*76
$GBGSV,2,2,07,36,10,148,40,24,08,318,25,30,05,053,35,5*4D
$GNGGA,190102.000,4005.098788,N,10513.208508,W,2,46,0.51,1584.741,M,-20.670,M,,*7C
$GPGSV,3,1,09,19,68,024,26,06,68,161,46,22,50,106,42,24,42,276,43,1*67
$GPGSV,3,2,09,46,37,214,46,11,34,196,47,14,27,117,41,12,18,305,35,1*6D
$GPGSV,3,3,09,03,14,053,37,1*59
$GPGSV,2,1,05,06,68,161,47,24,42,276,44,11,34,196,48,14,27,117,43,8*60
$GPGSV,2,2,05,03,14,053,34,8*5F
$GLGSV,2,1,06,86,81,259,42,76,72,331,36,75,43,142,41,85,40,032,43,1*7A
$GLGSV,2,2,06,87,28,224,45,77,24,325,26,1*78
$GAGSV,3,1,09,24,73,332,38,12,70,148,35,10,52,188,43,31,49,111,42,7*74
$GAGSV,3,2,09,33,38,047,42,11,25,201,42,25,21,306,37,03,03,301,09,7*79
$GAGSV,3,3,09,05,02,254,07,7*49
$GAGSV,2,1,07,24,73,332,38,12,70,148,40,10,52,188,46,31,49,111,45,1*7D
$GAGSV,2,2,07,33,38,047,39,11,25,201,38,25,21,306,40,1*4A
$GBGSV,2,1,08,45,59,169,44,29,58,045,40,26,55,299,43,44,11,237,49,1*77
$GBGSV,2,2,08,36,10,148,45,24,08,318,38,30,05,053,35,58,,,17,1*44
$GBGSV,2,1,07,45,59,169,46,29,58,045,34,26,55,299,41,44,11,237,40,5*76
$GBGSV,2,2,07,36,10,148,40,24,08,318,24,30,05,053,35,5*4C
$GNGGA,190107.000,4005.098794,N,10513.208496,W,2,47,0.51,1584.698,M,-20.670,M,,*76
$GPGSV,3,1,09,19,68,024,29,06,68,161,46,22,50,106,42,24,42,276,43,1*68
$GPGSV,3,2,09,46,37,214,46,11,34,196,47,14,27,117,41,12,18,305,35,1*6D
$GPGSV,3,3,09,03,14,053,38,1*56
$GPGSV,2,1,05,06,68,161,47,24,42,276,44,11,34,196,47,14,27,117,43,8*6F
$GPGSV,2,2,05,03,14,053,34,8*5F
$GLGSV,2,1,06,86,81,259,42,76,72,331,36,75,43,142,41,85,40,032,43,1*7A
$GLGSV,2,2,06,87,28,224,45,77,24,325,26,1*78
$GAGSV,3,1,09,24,73,332,38,12,71,147,36,10,52,188,43,31,49,111,42,7*79
$GAGSV,3,2,09,33,38,047,42,11,25,201,42,25,21,306,37,03,03,301,08,7*78
$GAGSV,3,3,09,05,02,254,08,7*46
$GAGSV,2,1,07,24,73,332,38,12,71,147,39,10,52,188,46,31,49,111,45,1*7D
$GAGSV,2,2,07,33,38,047,40,11,25,201,37,25,21,306,40,1*4B
$GBGSV,2,1,08,45,59,169,44,29,58,045,41,26,55,299,43,44,11,237,49,1*76
$GBGSV,2,2,08,36,10,148,45,24,08,318,38,30,05,053,35,58,,,17,1*44
$GBGSV,2,1,07,45,59,169,46,29,58,045,33,26,55,299,40,44,11,237,40,5*70
$GBGSV,2,2,07,36,10,148,40,24,08,318,24,30,05,053,35,5*4C
$GNGGA,190112.000,4005.098794,N,10513.208526,W,2,47,0.51,1584.588,M,-20.670,M,,*7A
