$PAIR001,062,0*3F
$PAIR001,062,0*3F
$PAIR001,062,0*3F
$PAIR001,062,0*3F
$PAIR001,062,0*3F
$PAIR001,062,0*3F
$PAIR001,062,0*3F
$PAIR001,062,0*3F
$PAIR001,062,0*3F
$GNGGA,142637.000,4005.098536,N,10513.207716,W,2,56,0.40,1584.638,M,-20.670,M,,*79
$GPGSV,4,1,13,07,78,043,40,30,57,313,43,08,46,061,39,14,43,260,40,1*6A
$GPGSV,4,2,13,46,37,214,46,09,34,181,47,22,23,250,47,21,15,109,44,1*6C
$GPGSV,4,3,13,27,15,041,41,13,14,320,35,02,12,124,46,05,05,299,20,1*64
$GPGSV,4,4,13,04,02,159,50,1*58
$GPGSV,2,1,06,30,57,313,35,08,46,061,39,14,43,260,43,09,34,181,46,8*6C
$GPGSV,2,2,06,27,15,041,38,04,02,159,49,8*62
$GLGSV,3,1,10,74,53,321,37,73,49,041,38,72,45,280,46,83,33,072,29,1*74
$GLGSV,3,2,10,71,32,216,49,84,18,140,36,82,15,029,29,65,12,334,27,1*7D
$GLGSV,3,3,10,75,11,278,39,80,05,076,39,1*7A
$GAGSV,2,1,08,04,60,220,44,31,48,263,41,09,40,304,37,21,20,059,37,7*71
$GAGSV,2,2,08,19,16,165,40,26,12,106,40,13,11,055,38,24,01,249,,7*77
$GAGSV,2,1,07,04,60,220,41,31,48,263,41,09,40,304,18,21,20,059,37,1*70
$GAGSV,2,2,07,19,16,165,39,26,12,106,34,13,11,055,39,1*4A
$GBGSV,4,1,14,36,62,313,38,57,55,283,,46,52,067,35,27,37,081,47,1*7F
$GBGSV,4,2,14,30,34,145,46,22,32,271,44,19,21,213,50,45,15,281,42,1*70
$GBGSV,4,3,14,28,12,039,43,21,12,321,27,08,06,332,29,37,03,090,40,1*78
$GBGSV,4,4,14,38,03,321,10,13,02,346,17,1*7D
$GBGSV,3,1,11,36,62,313,40,46,52,067,32,27,37,081,43,30,34,145,44,5*7A
$GBGSV,3,2,11,22,32,271,36,19,21,213,43,45,15,281,21,21,12,321,25,5*75
$GBGSV,3,3,11,28,12,039,40,37,03,090,31,38,03,321,16,5*46
$GNGGA,142642.000,4005.098524,N,10513.207794,W,2,59,0.40,1584.486,M,-20.669,M,,*72
$GPGSV,4,1,13,07,78,043,40,30,57,313,43,08,46,061,38,14,43,260,40,1*6B
$GPGSV,4,2,13,46,37,214,46,09,34,181,47,22,23,250,47,21,15,109,44,1*6C
$GPGSV,4,3,13,27,15,041,41,13,14,320,33,02,12,124,45,05,05,299,30,1*60
$GPGSV,4,4,13,04,02,159,50,1*58
$GPGSV,2,1,06,30,57,313,35,08,46,061,39,14,43,260,43,09,34,181,46,8*6C
$GPGSV,2,2,06,27,15,041,38,04,02,159,49,8*62
$GLGSV,3,1,10,74,53,321,37,73,49,041,37,72,45,280,46,83,33,072,29,1*7B
$GLGSV,3,2,10,71,32,216,49,84,18,140,36,82,15,029,27,65,12,334,29,1*7D
$GLGSV,3,3,10,75,11,278,39,80,05,076,39,1*7A
$GAGSV,2,1,08,04,60,220,44,31,48,263,41,09,40,304,37,21,20,059,35,7*73
$GAGSV,2,2,08,19,16,165,40,26,12,106,40,13,11,055,38,24,01,249,,7*77
$GAGSV,2,1,07,04,60,220,41,31,48,263,41,09,40,304,18,21,20,059,37,1*70
$GAGSV,2,2,07,19,16,165,38,26,12,106,34,13,11,055,39,1*4B
$GBGSV,4,1,14,36,62,313,38,57,55,283,,46,52,067,35,27,37,081,47,1*7F
$GBGSV,4,2,14,30,34,145,46,22,32,271,44,19,21,213,50,45,15,281,42,1*70
$GBGSV,4,3,14,28,12,039,43,21,12,321,27,08,06,332,29,37,03,090,40,1*78
$GBGSV,4,4,14,38,03,321,14,13,02,345,17,1*7A
$GBGSV,3,1,11,36,62,313,40,46,52,067,32,27,37,081,43,30,34,145,44,5*7A
$GBGSV,3,2,11,22,32,271,36,19,21,213,43,45,15,281,20,21,12,321,24,5*75
$GBGSV,3,3,11,28,12,039,40,37,03,090,31,38,03,321,17,5*47
$GNGGA,142647.000,4005.098518,N,10513.207812,W,2,57,0.40,1584.497,M,-20.670,M,,*7F
$GPGSV,4,1,13,07,78,043,40,30,57,313,43,08,46,061,38,14,43,260,40,1*6B
$GPGSV,4,2,13,46,37,214,46,09,34,181,47,22,23,250,47,21,15,109,44,1*6C
$GPGSV,4,3,13,27,15,041,41,13,14,320,32,02,12,124,45,05,05,299,31,1*60
$GPGSV,4,4,13,04,02,159,50,1*58
$GPGSV,2,1,06,30,57,313,34,08,46,061,38,14,43,260,43,09,34,181,47,8*6D
$GPGSV,2,2,06,27,15,041,38,04,02,159,49,8*62
$GLGSV,3,1,10,74,53,321,37,73,49,041,37,72,45,280,45,83,33,072,28,1*79
$GLGSV,3,2,10,71,32,216,49,84,18,140,36,82,15,029,31,65,12,334,33,1*71
$GLGSV,3,3,10,75,11,278,39,80,05,076,39,1*7A
$GAGSV,2,1,08,04,60,220,44,31,48,263,41,09,40,304,37,21,20,059,35,7*73
$GAGSV,2,2,08,19,16,165,40,26,12,106,40,13,11,055,38,24,01,249,,7*77
$GAGSV,2,1,07,04,60,220,40,31,48,263,41,09,40,304,22,21,20,059,37,1*78
$GAGSV,2,2,07,19,16,165,38,26,12,106,34,13,11,055,40,1*45
$GBGSV,4,1,14,36,62,313,38,57,55,283,,46,52,067,35,27,37,081,47,1*7F
$GBGSV,4,2,14,30,34,145,46,22,32,271,44,19,20,213,50,45,15,281,42,1*71
$GBGSV,4,3,14,28,12,039,44,21,12,321,23,08,06,332,28,37,03,090,40,1*7A
$GBGSV,4,4,14,38,03,321,15,13,02,345,17,1*7B
$GBGSV,3,1,11,36,62,313,39,46,52,067,31,27,37,081,43,30,34,145,44,5*77
$GBGSV,3,2,11,22,32,271,36,19,20,213,43,45,15,281,19,21,12,321,23,5*79
$GBGSV,3,3,11,28,12,039,40,37,03,090,31,38,03,321,17,5*47
$GNGGA,142652.000,4005.098506,N,10513.207860,W,2,57,0.40,1584.519,M,-20.670,M,,*76
$GPGSV,4,1,13,07,78,043,40,30,57,313,43,08,46,061,38,14,43,260,40,1*6B
$GPGSV,4,2,13,46,37,214,46,09,34,181,47,22,23,250,47,21,15,109,44,1*6C
$GPGSV,4,3,13,27,15,041,41,13,14,320,32,02,12,124,45,05,05,299,26,1*66
$GPGSV,4,4,13,04,02,159,50,1*58
$GPGSV,2,1,06,30,57,313,34,08,46,061,38,14,43,260,43,09,34,181,47,8*6D
$GPGSV,2,2,06,27,15,041,38,04,02,159,50,8*6A
$GLGSV,3,1,10,74,53,321,37,73,49,041,37,72,45,280,45,83,33,072,27,1*76
$GLGSV,3,2,10,71,32,216,49,84,18,140,36,82,15,029,31,65,12,334,33,1*71
$GLGSV,3,3,10,75,11,278,39,80,05,076,39,1*7A
$GAGSV,2,1,08,04,60,220,44,31,48,263,41,09,40,304,37,21,20,059,34,7*72
$GAGSV,2,2,08,19,16,165,40,26,12,106,40,13,11,055,38,24,01,249,,7*77
$GAGSV,2,1,07,04,60,220,41,31,48,263,41,09,40,304,21,21,20,059,37,1*7A
$GAGSV,2,2,07,19,16,165,38,26,12,106,34,13,11,055,40,1*45
$GBGSV,4,1,14,36,62,313,38,57,55,283,,46,52,067,35,27,37,081,47,1*7F
$GBGSV,4,2,14,30,34,145,46,22,32,270,44,19,20,213,50,45,15,281,42,1*70
$GBGSV,4,3,14,28,12,039,44,21,12,320,23,08,06,332,28,37,03,090,40,1*7B
$GBGSV,4,4,14,38,03,321,15,13,02,345,17,1*7B
$GBGSV,3,1,11,36,62,313,40,46,52,067,32,27,37,081,43,30,34,145,44,5*7A
$GBGSV,3,2,11,22,32,270,36,19,20,213,43,45,15,281,18,21,12,320,23,5*78
$GBGSV,3,3,11,28,12,039,40,37,03,090,32,38,03,321,18,5*4B
$GNGGA,142657.000,4005.098518,N,10513.207902,W,2,58,0.40,1584.513,M,-20.669,M,,*74
$GPGSV,4,1,13,07,78,043,40,30,57,313,43,08,46,061,40,14,43,260,41,1*65
$GPGSV,4,2,13,46,37,214,46,09,34,181,47,22,23,250,47,27,15,041,41,1*62
$GPGSV,4,3,13,21,15,109,44,13,14,320,32,02,12,124,45,05,05,299,30,1*6F
$GPGSV,4,4,13,04,02,159,50,1*58
$GPGSV,2,1,06,30,57,313,34,08,46,061,38,14,43,260,43,09,34,181,47,8*6D
$GPGSV,2,2,06,27,15,041,39,04,02,159,49,8*63
$GLGSV,3,1,10,74,53,321,36,73,49,041,37,72,45,280,45,83,33,072,27,1*77
$GLGSV,3,2,10,71,32,216,49,84,18,140,36,82,15,029,33,65,12,334,33,1*73
$GLGSV,3,3,10,75,11,278,40,80,05,076,39,1*74
$GAGSV,2,1,08,04,60,220,44,31,48,263,41,09,40,304,37,21,20,059,34,7*72
$GAGSV,2,2,08,19,16,165,40,26,12,106,41,13,11,055,38,24,01,249,,7*76
$GAGSV,2,1,07,04,60,220,41,31,48,263,41,09,40,304,22,21,20,059,37,1*79
$GAGSV,2,2,07,19,16,165,38,26,12,106,35,13,11,055,40,1*44
$GBGSV,4,1,15,36,62,313,38,57,55,283,,46,52,067,35,27,37,080,47,1*7F
$GBGSV,4,2,15,30,35,144,46,22,32,270,44,19,20,213,50,45,15,281,42,1*71
$GBGSV,4,3,15,21,12,320,20,28,11,038,44,08,06,332,29,37,03,090,39,1*74
$GBGSV,4,4,15,38,03,321,14,13,02,345,18,29,01,186,52,1*46
$GBGSV,3,1,11,36,62,313,40,46,52,067,33,27,37,080,43,30,35,144,44,5*7A
$GBGSV,3,2,11,22,32,270,36,19,20,213,44,45,15,281,17,21,12,320,22,5*71
$GBGSV,3,3,11,28,11,038,40,37,03,090,32,38,03,321,18,5*49
$GNGGA,142702.000,4005.098488,N,10513.207980,W,2,58,0.40,1584.431,M,-20.670,M,,*7E
$GPGSV,4,1,13,07,78,043,40,30,57,313,43,08,46,061,41,14,43,260,41,1*64
$GPGSV,4,2,13,46,37,214,46,09,34,181,47,22,23,250,47,27,15,041,41,1*62
$GPGSV,4,3,13,21,15,109,44,13,14,320,34,02,12,124,45,05,05,299,32,1*6B
$GPGSV,4,4,13,04,02,159,50,1*58
$GPGSV,2,1,06,30,57,313,34,08,46,061,38,14,43,260,43,09,34,181,47,8*6D
$GPGSV,2,2,06,27,15,041,40,04,02,159,48,8*6C
$GLGSV,3,1,10,74,53,321,36,73,49,041,37,72,45,280,44,83,33,072,29,1*78
$GLGSV,3,2,10,71,32,216,49,84,18,140,36,82,15,029,33,65,12,334,33,1*73
$GLGSV,3,3,10,75,11,278,40,80,05,076,39,1*74
$GAGSV,2,1,08,04,60,220,44,31,48,263,41,09,40,304,37,21,20,059,34,7*72
$GAGSV,2,2,08,19,16,165,40,26,12,106,41,13,11,055,38,24,01,249,,7*76
$GAGSV,2,1,07,04,60,220,42,31,48,263,41,09,40,304,22,21,20,059,37,1*7A
$GAGSV,2,2,07,19,16,165,38,26,12,106,35,13,11,055,40,1*44
$GBGSV,4,1,15,36,62,313,38,57,55,283,,46,52,067,36,27,37,080,47,1*7C
$GBGSV,4,2,15,30,35,144,46,22,32,270,44,19,20,213,50,45,15,281,42,1*71
$GBGSV,4,3,15,21,12,320,14,28,11,038,44,08,06,332,29,37,03,090,39,1*73
$GBGSV,4,4,15,38,03,321,,13,02,345,19,29,01,186,52,1*42
$GBGSV,3,1,12,36,62,313,40,46,52,067,33,27,37,080,44,30,35,144,45,5*7F
$GBGSV,3,2,12,22,32,270,36,19,20,213,44,45,15,281,17,21,12,320,19,5*7A
$GBGSV,3,3,12,28,11,038,40,37,03,090,33,38,03,321,18,29,01,186,47,5*7D
$GNGGA,142707.000,4005.098500,N,10513.207986,W,2,59,0.40,1584.540,M,-20.670,M,,*7A
$GPGSV,4,1,13,07,78,043,40,30,57,313,43,08,46,061,41,14,43,260,41,1*64
$GPGSV,4,2,13,46,37,214,46,09,34,181,47,22,23,250,47,27,15,041,41,1*62
$GPGSV,4,3,13,21,15,109,44,13,14,320,35,02,12,124,45,05,05,299,34,1*6C
$GPGSV,4,4,13,04,02,159,50,1*58
$GPGSV,2,1,06,30,57,313,34,08,46,061,37,14,43,260,43,09,34,181,47,8*62
$GPGSV,2,2,06,27,15,041,39,04,02,159,48,8*62
$GLGSV,3,1,10,74,53,321,37,73,49,041,37,72,45,280,45,83,33,072,29,1*78
$GLGSV,3,2,10,71,32,216,49,84,18,140,35,82,15,029,33,65,12,334,33,1*70
$GLGSV,3,3,10,75,11,278,41,80,05,076,38,1*74
$GAGSV,2,1,08,04,60,220,44,31,48,263,41,09,40,304,37,21,20,059,35,7*73
$GAGSV,2,2,08,19,16,165,40,26,12,106,41,13,11,055,38,24,01,249,,7*76
$GAGSV,2,1,07,04,60,220,41,31,48,263,41,09,40,304,21,21,20,059,37,1*7A
$GAGSV,2,2,07,19,16,165,38,26,12,106,35,13,11,055,40,1*44
$GBGSV,4,1,15,36,63,314,38,57,55,283,,46,52,067,37,27,37,080,47,1*7B
$GBGSV,4,2,15,30,35,144,46,22,32,270,44,19,20,213,50,45,15,281,42,1*71
$GBGSV,4,3,15,21,12,320,18,28,11,038,44,08,06,332,30,37,03,090,39,1*77
$GBGSV,4,4,15,38,03,320,,13,02,345,19,29,01,186,52,1*43
$GBGSV,3,1,12,36,63,314,40,46,52,067,33,27,37,080,44,30,35,144,44,5*78
$GBGSV,3,2,12,22,32,270,36,19,20,213,44,45,15,281,16,21,12,320,18,5*7A
$GBGSV,3,3,12,28,11,038,40,37,03,090,34,38,03,320,18,29,01,186,48,5*74
$GNGGA,142712.000,4005.098500,N,10513.207914,W,2,59,0.40,1584.674,M,-20.669,M,,*79
$GPGSV,4,1,13,07,78,043,40,30,57,313,43,08,46,061,41,14,43,260,42,1*67
$GPGSV,4,2,13,46,37,214,46,09,34,181,47,22,23,250,47,27,15,041,42,1*61
$GPGSV,4,3,13,21,15,109,44,13,14,320,35,02,12,124,44,05,05,299,33,1*6A
$GPGSV,4,4,13,04,02,159,50,1*58
$GPGSV,2,1,06,30,57,313,34,08,46,061,37,14,43,260,43,09,34,181,47,8*62
$GPGSV,2,2,06,27,15,041,39,04,02,159,48,8*62
$GLGSV,3,1,10,74,53,321,37,73,49,041,37,72,45,280,45,83,33,072,29,1*78
$GLGSV,3,2,10,71,32,216,49,84,18,140,35,82,15,029,35,65,12,334,31,1*74
$GLGSV,3,3,10,75,11,278,42,80,05,076,37,1*78
$GAGSV,2,1,08,04,60,220,44,31,48,263,41,09,40,304,37,21,20,059,35,7*73
$GAGSV,2,2,08,19,16,165,40,26,12,106,41,13,11,055,38,24,01,249,,7*76
$GAGSV,2,1,07,04,60,220,41,31,48,263,41,09,40,304,22,21,20,059,38,1*76
$GAGSV,2,2,07,19,16,165,38,26,12,106,35,13,11,055,40,1*44
$GBGSV,4,1,15,36,63,314,38,57,55,283,,46,52,067,38,27,37,080,47,1*74
$GBGSV,4,2,15,30,35,144,46,22,32,270,44,19,20,213,50,45,15,282,42,1*72
$GBGSV,4,3,15,21,12,320,22,28,11,038,44,08,06,332,30,37,03,090,39,1*7E
$GBGSV,4,4,15,38,03,320,,13,02,345,19,29,01,186,51,1*40
$GBGSV,3,1,12,36,63,314,40,46,52,067,33,27,37,080,44,30,35,144,44,5*78
$GBGSV,3,2,12,22,32,270,36,19,20,213,44,45,15,282,14,21,12,320,17,5*74
$GBGSV,3,3,12,28,11,038,40,37,03,090,33,38,03,320,18,29,01,186,49,5*72
$GNGGA,142717.000,4005.098512,N,10513.207848,W,2,58,0.40,1584.635,M,-20.669,M,,*73
$GPGSV,4,1,13,07,78,043,40,30,57,313,43,08,46,061,41,14,43,260,42,1*67
$GPGSV,4,2,13,46,37,214,46,09,34,181,47,22,23,250,47,27,15,041,42,1*61
$GPGSV,4,3,13,21,15,109,44,13,14,320,35,02,12,124,44,05,05,299,31,1*68
$GPGSV,4,4,13,04,02,159,50,1*58
$GPGSV,2,1,06,30,57,313,33,08,46,061,37,14,43,260,43,09,34,181,47,8*65
$GPGSV,2,2,06,27,15,041,39,04,02,159,48,8*62
$GLGSV,3,1,10,74,53,321,37,73,49,041,37,72,45,280,45,83,33,072,29,1*78
$GLGSV,3,2,10,71,32,216,49,84,18,140,35,82,15,029,36,65,12,334,29,1*7E
$GLGSV,3,3,10,75,11,278,42,80,05,076,36,1*79
$GAGSV,2,1,08,04,60,220,44,31,48,263,41,09,40,304,37,21,20,059,36,7*70
$GAGSV,2,2,08,19,16,165,40,26,12,106,41,13,11,055,38,24,01,249,,7*76
$GAGSV,2,1,07,04,60,220,41,31,48,263,41,09,40,304,22,21,20,059,38,1*76
$GAGSV,2,2,07,19,16,165,38,26,12,106,35,13,11,055,40,1*44
$GBGSV,4,1,15,36,63,314,38,57,55,283,,46,51,069,38,27,37,080,47,1*79
$GBGSV,4,2,15,30,35,144,46,22,32,270,44,19,20,213,50,45,15,282,42,1*72
$GBGSV,4,3,15,21,12,320,24,28,11,038,44,08,06,332,30,37,03,090,39,1*78
$GBGSV,4,4,15,38,03,320,,13,02,345,19,29,01,186,51,1*40
$GBGSV,3,1,11,36,63,314,40,46,51,069,33,27,37,080,44,30,35,144,44,5*76
$GBGSV,3,2,11,22,32,270,36,19,20,213,44,21,12,320,13,28,11,038,39,5*70
$GBGSV,3,3,11,37,03,090,33,38,03,320,17,29,01,186,48,5*4A
$GNGGA,142722.000,4005.098536,N,10513.207830,W,2,57,0.40,1584.551,M,-20.670,M,,*7A
$GPGSV,4,1,13,07,78,043,40,30,57,313,43,08,46,061,41,14,43,260,42,1*67
$GPGSV,4,2,13,46,37,214,46,09,34,181,47,22,23,250,47,27,15,041,43,1*60
$GPGSV,4,3,13,21,15,109,44,13,14,320,35,02,12,124,44,05,05,299,31,1*68
$GPGSV,4,4,13,04,02,159,50,1*58
$GPGSV,2,1,06,30,57,313,33,08,46,061,37,14,43,260,43,09,34,181,47,8*65
$GPGSV,2,2,06,27,15,041,39,04,02,159,48,8*62
$GLGSV,3,1,10,74,53,321,38,73,49,041,36,72,45,280,45,83,33,072,28,1*77
$GLGSV,3,2,10,71,32,216,49,84,18,140,35,82,15,029,36,65,12,334,26,1*71
$GLGSV,3,3,10,75,11,278,42,80,05,076,37,1*78
$GAGSV,2,1,08,04,60,220,44,31,48,263,41,09,40,304,37,21,20,059,36,7*70
$GAGSV,2,2,08,19,16,165,41,26,12,106,41,13,11,055,38,24,01,249,,7*77
$GAGSV,2,1,07,04,60,220,41,31,48,263,41,09,40,304,25,21,20,059,38,1*71
$GAGSV,2,2,07,19,16,165,38,26,12,106,36,13,11,055,40,1*47
$GBGSV,4,1,15,36,63,314,38,57,55,283,,46,51,069,38,27,37,080,47,1*79
$GBGSV,4,2,15,30,35,144,46,22,32,270,44,19,20,213,50,45,15,282,42,1*72
$GBGSV,4,3,15,21,12,320,28,28,11,038,44,08,06,332,30,37,03,090,39,1*74
$GBGSV,4,4,15,38,03,320,,13,02,345,19,29,01,186,51,1*40
$GBGSV,3,1,10,36,63,314,40,46,51,069,33,27,37,080,44,30,35,144,44,5*77
$GBGSV,3,2,10,22,32,270,36,19,20,213,44,28,11,038,39,37,03,090,34,5*7B
$GBGSV,3,3,10,38,03,320,17,29,01,186,48,5*75
$GNGGA,142727.000,4005.098542,N,10513.207860,W,2,57,0.40,1584.477,M,-20.670,M,,*7C
$GPGSV,4,1,13,07,78,043,40,30,57,313,43,08,46,061,40,14,43,260,42,1*66
$GPGSV,4,2,13,46,37,214,46,09,34,181,47,22,23,250,47,27,15,041,43,1*60
$GPGSV,4,3,13,21,15,109,44,13,14,320,32,02,12,124,44,05,05,299,31,1*6F
$GPGSV,4,4,13,04,02,159,50,1*58
$GPGSV,2,1,06,30,57,313,33,08,46,061,37,14,43,260,43,09,34,181,47,8*65
$GPGSV,2,2,06,27,15,041,39,04,02,159,48,8*62
$GLGSV,3,1,10,74,53,321,38,73,49,041,36,72,45,280,45,83,33,072,27,1*78
$GLGSV,3,2,10,71,32,216,49,84,18,140,35,82,15,029,34,65,12,334,27,1*72
$GLGSV,3,3,10,75,11,278,42,80,05,076,38,1*77
$GAGSV,2,1,08,04,60,220,44,31,48,263,41,09,40,304,37,21,20,059,37,7*71
$GAGSV,2,2,08,19,16,165,41,26,12,106,41,13,11,055,38,24,01,249,,7*77
$GAGSV,2,1,07,04,60,220,42,31,48,263,41,09,40,304,27,21,20,059,39,1*71
$GAGSV,2,2,07,19,16,165,38,26,12,106,36,13,11,055,40,1*47
$GBGSV,4,1,15,36,63,314,38,57,56,281,,46,51,069,38,27,37,080,47,1*78
$GBGSV,4,2,15,30,35,144,46,22,32,270,45,19,20,213,50,45,15,282,42,1*73
$GBGSV,4,3,15,21,12,320,31,28,11,038,44,08,06,332,30,37,03,090,39,1*7C
$GBGSV,4,4,15,38,03,320,20,13,02,345,19,29,01,186,51,1*42
$GBGSV,3,1,10,36,63,314,40,46,51,069,34,27,37,080,44,30,35,144,44,5*70
$GBGSV,3,2,10,22,32,270,36,19,20,213,44,28,11,038,40,37,03,090,34,5*75
$GBGSV,3,3,10,38,03,320,17,29,01,186,50,5*7C
$GNGGA,142732.000,4005.098542,N,10513.207884,W,2,57,0.40,1584.309,M,-20.670,M,,*7C
$GPGSV,4,1,13,07,78,043,40,30,57,313,43,08,46,061,40,14,43,260,42,1*66
$GPGSV,4,2,13,46,37,214,46,09,34,181,47,22,23,250,47,27,15,041,43,1*60
$GPGSV,4,3,13,21,15,109,44,13,14,320,31,02,13,123,44,05,05,299,30,1*6B
$GPGSV,4,4,13,04,02,159,50,1*58
$GPGSV,2,1,06,30,57,313,32,08,46,061,37,14,43,260,43,09,34,181,47,8*64
$GPGSV,2,2,06,27,15,041,39,04,02,159,48,8*62
$GLGSV,3,1,10,74,53,321,38,73,49,041,36,72,45,280,45,83,33,072,27,1*78
$GLGSV,3,2,10,71,32,216,49,84,18,140,35,82,15,029,32,65,12,334,28,1*7B
$GLGSV,3,3,10,75,11,278,40,80,05,076,38,1*75
$GAGSV,2,1,08,04,60,220,44,31,48,263,41,09,40,304,37,21,20,059,37,7*71
$GAGSV,2,2,08,19,16,165,41,26,12,106,41,13,11,055,38,24,01,249,,7*77
$GAGSV,2,1,07,04,60,220,42,31,48,263,41,09,40,304,28,21,20,059,39,1*7E
$GAGSV,2,2,07,19,16,165,38,26,12,106,36,13,11,055,40,1*47
$GBGSV,4,1,15,36,63,314,38,57,56,281,,46,51,069,38,27,37,080,47,1*78
$GBGSV,4,2,15,30,35,144,46,22,32,270,45,19,20,213,50,45,15,282,42,1*73
$GBGSV,4,3,15,21,12,320,31,28,11,038,44,08,06,332,30,37,03,090,38,1*7D
$GBGSV,4,4,15,38,03,320,18,13,02,345,19,29,01,186,51,1*49
$GBGSV,3,1,10,36,63,314,40,46,51,069,34,27,37,080,44,30,35,144,44,5*70
$GBGSV,3,2,10,22,32,270,36,19,20,213,44,28,11,038,40,37,03,090,34,5*75
$GBGSV,3,3,10,38,03,320,17,29,01,186,49,5*74
$GNGGA,142737.000,4005.098518,N,10513.207824,W,2,57,0.40,1584.149,M,-20.670,M,,*7A
$GPGSV,4,1,13,07,78,049,40,30,57,313,43,08,46,061,41,14,43,260,42,1*6D
$GPGSV,4,2,13,46,37,214,46,09,34,181,47,22,23,250,47,27,15,041,43,1*60
$GPGSV,4,3,13,21,15,109,44,13,14,320,31,02,13,123,43,05,05,298,32,1*6F
$GPGSV,4,4,13,04,01,159,49,1*53
$GPGSV,2,1,06,30,57,313,32,08,46,061,37,14,43,260,43,09,34,181,47,8*64
$GPGSV,2,2,06,27,15,041,39,04,01,159,48,8*61
$GLGSV,3,1,10,74,53,321,38,73,49,041,37,72,45,280,45,83,33,072,28,1*76
$GLGSV,3,2,10,71,32,216,49,84,18,140,34,82,15,029,29,65,12,334,31,1*78
$GLGSV,3,3,10,75,11,278,40,80,05,076,38,1*75
$GAGSV,2,1,08,04,60,220,44,31,48,263,41,09,40,304,36,21,20,059,37,7*70
$GAGSV,2,2,08,19,16,165,41,26,12,106,41,13,11,055,38,24,01,249,,7*77
$GAGSV,2,1,07,04,60,220,42,31,48,263,41,09,40,304,28,21,20,059,39,1*7E
$GAGSV,2,2,07,19,16,165,38,26,12,106,36,13,11,055,40,1*47
$GBGSV,4,1,15,36,63,314,38,57,56,281,,46,51,069,38,27,37,080,47,1*78
$GBGSV,4,2,15,30,35,144,46,22,32,270,45,19,20,213,50,45,15,282,42,1*73
$GBGSV,4,3,15,21,12,320,31,28,11,038,44,08,06,332,30,37,03,090,37,1*72
$GBGSV,4,4,15,38,03,320,13,13,02,345,20,29,01,186,51,1*48
$GBGSV,3,1,10,36,63,314,40,46,51,069,35,27,37,080,44,30,35,144,44,5*71
$GBGSV,3,2,10,22,32,270,36,19,20,213,45,28,11,038,40,37,03,090,34,5*74
$GBGSV,3,3,10,38,03,320,17,29,01,186,49,5*74
$GNGGA,142742.000,4005.098494,N,10513.207782,W,2,57,0.40,1584.091,M,-20.669,M,,*72
$GPGSV,4,1,13,07,78,049,40,30,57,313,43,08,46,060,41,14,43,260,42,1*6C
$GPGSV,4,2,13,46,37,214,46,09,33,181,47,22,23,250,47,27,15,041,42,1*66
$GPGSV,4,3,13,21,15,109,44,13,14,320,30,02,13,123,43,05,05,298,33,1*6F
$GPGSV,4,4,13,04,01,159,49,1*53
$GPGSV,2,1,06,30,57,313,32,08,46,060,37,14,43,260,43,09,33,181,47,8*62
$GPGSV,2,2,06,27,15,041,39,04,01,159,48,8*61
$GLGSV,3,1,10,74,53,321,38,73,49,041,37,72,45,280,44,83,33,072,28,1*77
$GLGSV,3,2,10,71,32,216,49,84,18,140,34,82,15,029,28,65,12,334,32,1*7A
$GLGSV,3,3,10,75,11,278,41,80,05,076,38,1*74
$GAGSV,2,1,08,04,60,220,44,31,48,263,41,09,40,304,36,21,20,059,37,7*70
$GAGSV,2,2,08,19,16,165,41,26,12,106,41,13,11,055,38,24,01,249,,7*77
$GAGSV,2,1,07,04,60,220,42,31,48,263,41,09,40,304,29,21,20,059,39,1*7F
$GAGSV,2,2,07,19,16,165,37,26,12,106,36,13,11,055,40,1*48
$GBGSV,4,1,15,36,63,314,38,57,56,281,,46,51,069,38,27,37,080,47,1*78
$GBGSV,4,2,15,30,35,144,46,22,32,270,45,19,20,213,50,45,15,282,42,1*73
$GBGSV,4,3,15,21,12,320,31,28,11,038,44,08,06,332,30,37,03,090,36,1*73
$GBGSV,4,4,15,38,03,320,12,13,02,345,20,29,01,186,51,1*49
$GBGSV,3,1,10,36,63,314,40,46,51,069,35,27,37,080,44,30,35,144,44,5*71
$GBGSV,3,2,10,22,32,270,36,19,20,213,45,28,11,038,40,37,03,090,34,5*74
$GBGSV,3,3,10,38,03,320,17,29,01,186,49,5*74
$GNGGA,142747.000,4005.098488,N,10513.207818,W,2,57,0.40,1584.092,M,-20.670,M,,*7D
$GPGSV,4,1,13,07,78,049,40,30,57,313,43,08,46,060,42,14,44,261,42,1*69
$GPGSV,4,2,13,46,37,214,46,09,33,181,47,22,23,250,47,21,15,109,44,1*6B
$GPGSV,4,3,13,27,15,041,42,13,15,320,29,02,13,123,43,05,05,298,31,1*69
$GPGSV,4,4,13,04,01,159,50,1*5B
$GPGSV,2,1,06,30,57,313,32,08,46,060,37,14,44,261,43,09,33,181,47,8*64
$GPGSV,2,2,06,27,15,041,39,04,01,159,48,8*61
$GLGSV,3,1,10,74,53,321,38,73,49,041,37,72,45,280,44,83,33,072,28,1*77
$GLGSV,3,2,10,71,32,216,48,84,18,140,34,82,15,029,28,65,12,334,33,1*7A
$GLGSV,3,3,10,75,11,278,42,80,05,076,38,1*77
$GAGSV,2,1,08,04,60,220,44,31,48,263,41,09,40,304,36,21,20,059,37,7*70
$GAGSV,2,2,08,19,16,165,41,26,12,106,41,13,11,055,38,24,01,249,,7*77
$GAGSV,2,1,07,04,60,220,42,31,48,263,41,09,40,304,29,21,20,059,38,1*7E
$GAGSV,2,2,07,19,16,165,37,26,12,106,36,13,11,055,40,1*48
$GBGSV,4,1,15,36,63,314,38,57,56,281,,46,51,069,38,27,37,080,47,1*78
$GBGSV,4,2,15,30,35,144,46,22,32,270,45,19,20,213,50,45,15,282,42,1*73
$GBGSV,4,3,15,21,12,320,31,28,11,038,44,08,06,332,30,37,03,090,35,1*70
$GBGSV,4,4,15,38,03,320,14,13,02,345,20,29,01,186,51,1*4F
$GBGSV,3,1,10,36,63,314,40,46,51,069,35,27,37,080,44,30,35,144,44,5*71
$GBGSV,3,2,10,22,32,270,36,19,20,213,45,28,11,038,40,37,03,090,34,5*74
$GBGSV,3,3,10,38,03,320,17,29,01,186,49,5*74
$GNGGA,142752.000,4005.098458,N,10513.207836,W,2,58,0.40,1584.051,M,-20.670,M,,*78
$GPGSV,4,1,13,07,78,049,41,30,57,313,43,08,46,060,42,14,44,261,42,1*68
$GPGSV,4,2,13,46,37,214,46,09,33,181,47,22,24,251,47,21,16,108,44,1*6F
$GPGSV,4,3,13,27,15,041,42,13,15,320,25,02,13,123,43,05,05,298,34,1*60
$GPGSV,4,4,13,04,01,159,50,1*5B
$GPGSV,2,1,06,30,57,313,32,08,46,060,37,14,44,261,43,09,33,181,47,8*64
$GPGSV,2,2,06,27,15,041,39,04,01,159,48,8*61
$GLGSV,3,1,10,74,53,321,38,73,49,041,37,72,45,280,45,83,33,072,28,1*76
$GLGSV,3,2,10,71,32,216,48,84,18,140,34,82,15,029,32,65,12,334,32,1*70
$GLGSV,3,3,10,75,11,278,43,80,05,076,38,1*76
$GAGSV,2,1,08,04,60,220,44,31,48,263,41,09,40,304,36,21,20,059,37,7*70
$GAGSV,2,2,08,19,16,165,41,26,12,106,41,13,11,055,38,24,01,249,,7*77
$GAGSV,2,1,07,04,60,220,42,31,48,263,41,09,40,304,28,21,20,059,38,1*7F
$GAGSV,2,2,07,19,16,165,37,26,12,106,37,13,11,055,41,1*48
$GBGSV,4,1,15,36,63,314,38,57,56,281,,46,51,069,38,27,37,080,47,1*78
$GBGSV,4,2,15,30,35,144,46,22,32,270,45,19,20,213,50,45,15,282,43,1*72
$GBGSV,4,3,15,21,12,320,32,28,11,038,44,08,06,332,30,37,03,090,33,1*75
$GBGSV,4,4,15,38,03,320,12,13,02,345,20,29,01,186,51,1*49
$GBGSV,3,1,11,36,63,314,40,46,51,069,35,27,37,080,44,30,35,144,44,5*70
$GBGSV,3,2,11,22,32,270,36,19,20,213,45,45,15,282,24,28,11,038,40,5*77
$GBGSV,3,3,11,37,03,090,35,38,03,320,17,29,01,186,48,5*4C
$GNGGA,142757.000,4005.098476,N,10513.207896,W,2,57,0.41,1584.084,M,-20.670,M,,*7D
$GPGSV,4,1,13,07,78,049,41,30,57,313,43,08,46,060,42,14,44,261,42,1*68
$GPGSV,4,2,13,46,37,214,46,09,33,181,47,22,24,251,47,21,16,108,44,1*6F
$GPGSV,4,3,13,13,15,320,19,27,14,040,42,02,13,123,42,05,05,298,35,1*6F
$GPGSV,4,4,13,04,01,159,49,1*53
$GPGSV,2,1,06,30,57,313,31,08,46,060,37,14,44,261,43,09,33,181,47,8*67
$GPGSV,2,2,06,27,14,040,39,04,01,159,48,8*61
$GLGSV,3,1,10,74,53,321,38,73,49,041,37,72,45,280,45,83,33,072,27,1*79
$GLGSV,3,2,10,71,32,216,48,84,18,140,34,82,15,029,35,65,12,334,31,1*74
$GLGSV,3,3,10,75,11,278,43,80,05,076,39,1*77
$GAGSV,2,1,08,04,60,220,44,31,48,263,41,09,40,304,36,21,20,059,37,7*70
$GAGSV,2,2,08,19,16,165,41,26,12,106,41,13,11,055,38,24,01,249,,7*77
$GAGSV,2,1,07,04,60,220,42,31,48,263,42,09,40,304,28,21,20,059,38,1*7C
$GAGSV,2,2,07,19,16,165,37,26,12,106,37,13,11,055,41,1*48
$GBGSV,4,1,15,36,63,314,39,57,56,281,,46,51,069,38,27,37,080,47,1*79
$GBGSV,4,2,15,30,35,144,46,22,32,270,45,19,20,213,50,45,15,282,43,1*72
$GBGSV,4,3,15,21,12,320,32,28,11,038,44,08,06,332,30,37,03,090,32,1*74
$GBGSV,4,4,15,38,03,320,13,13,02,345,20,29,01,186,51,1*48
$GBGSV,3,1,11,36,63,314,40,46,51,069,35,27,37,080,44,30,35,144,44,5*70
$GBGSV,3,2,11,22,32,270,36,19,20,213,45,45,15,282,23,28,11,038,40,5*70
$GBGSV,3,3,11,37,03,090,35,38,03,320,17,29,01,186,48,5*4C
$GNGGA,142802.000,4005.098542,N,10513.207932,W,2,57,0.41,1584.164,M,-20.670,M,,*74
$GPGSV,4,1,13,07,78,049,41,30,58,314,43,08,46,060,42,14,44,261,43,1*61
$GPGSV,4,2,13,46,37,214,46,09,33,181,47,22,24,251,47,21,16,108,44,1*6F
$GPGSV,4,3,13,13,15,320,17,27,14,040,43,02,13,123,42,05,05,298,35,1*60
$GPGSV,4,4,13,04,01,159,49,1*53
$GPGSV,2,1,06,30,58,314,30,08,46,060,36,14,44,261,43,09,33,181,47,8*6F
$GPGSV,2,2,06,27,14,040,38,04,01,159,48,8*60
$GLGSV,3,1,10,74,53,321,37,73,49,041,37,72,45,280,45,83,33,072,28,1*79
$GLGSV,3,2,10,71,32,216,48,84,18,140,34,82,15,029,37,65,12,334,30,1*77
$GLGSV,3,3,10,75,11,278,43,80,05,076,39,1*77
$GAGSV,2,1,08,04,60,220,44,31,48,263,41,09,40,304,36,21,20,059,37,7*70
$GAGSV,2,2,08,19,16,165,42,26,12,106,41,13,11,055,38,24,01,249,,7*74
$GAGSV,2,1,07,04,60,220,42,31,48,263,42,09,40,304,26,21,20,059,38,1*72
$GAGSV,2,2,07,19,16,165,36,26,12,106,37,13,11,055,41,1*49
$GBGSV,4,1,15,36,63,314,39,57,56,281,,46,51,069,38,27,37,080,47,1*79
$GBGSV,4,2,15,30,35,144,46,22,32,270,45,19,20,213,50,45,15,282,43,1*72
$GBGSV,4,3,15,21,12,320,29,28,11,038,44,08,06,332,30,37,03,090,29,1*74
$GBGSV,4,4,15,38,03,320,,13,02,345,20,29,01,186,51,1*4A
$GBGSV,3,1,11,36,63,314,40,46,51,069,35,27,37,080,44,30,35,144,44,5*70
$GBGSV,3,2,11,22,32,270,35,19,20,213,45,45,15,282,23,28,11,038,40,5*73
$GBGSV,3,3,11,37,03,090,35,38,03,320,16,29,01,186,48,5*4D
$GNGGA,142807.000,4005.098578,N,10513.207932,W,2,58,0.40,1584.393,M,-20.670,M,,*7C
$GPGSV,4,1,13,07,78,049,40,30,58,314,43,08,46,060,42,14,44,261,43,1*60
$GPGSV,4,2,13,46,37,214,46,09,33,181,47,22,24,251,47,21,16,108,44,1*6F
$GPGSV,4,3,13,13,15,320,22,27,14,040,43,02,13,123,42,05,05,298,35,1*66
$GPGSV,4,4,13,04,01,159,49,1*53
$GPGSV,2,1,06,30,58,314,32,08,46,060,36,14,44,261,43,09,33,181,47,8*6D
$GPGSV,2,2,06,27,14,040,38,04,01,159,48,8*60
$GLGSV,3,1,10,74,53,321,37,73,49,041,37,72,45,280,45,83,33,072,27,1*76
$GLGSV,3,2,10,71,32,216,48,84,18,140,34,82,15,029,39,65,12,334,32,1*7B
$GLGSV,3,3,10,75,11,278,43,80,05,076,40,1*79
$GAGSV,2,1,08,04,60,220,44,31,48,263,41,09,40,304,37,21,20,059,37,7*71
$GAGSV,2,2,08,19,16,165,42,26,12,106,41,13,11,055,39,24,01,249,,7*75
$GAGSV,2,1,07,04,60,220,42,31,48,263,42,09,40,304,26,21,20,059,39,1*73
$GAGSV,2,2,07,19,16,165,36,26,12,106,37,13,11,055,41,1*49
$GBGSV,4,1,15,36,63,314,39,57,56,281,,46,51,069,38,27,37,080,47,1*79
$GBGSV,4,2,15,30,35,144,46,22,32,270,45,19,20,213,50,45,15,282,43,1*72
$GBGSV,4,3,15,21,12,320,24,28,11,038,44,08,06,332,31,37,03,090,27,1*76
$GBGSV,4,4,15,38,03,320,,13,02,345,22,29,01,186,51,1*48
$GBGSV,3,1,11,36,63,314,40,46,51,069,35,27,37,080,44,30,35,144,44,5*70
$GBGSV,3,2,11,22,32,270,36,19,20,213,45,45,15,282,25,28,11,038,40,5*76
$GBGSV,3,3,11,37,03,090,35,38,03,320,16,29,01,186,49,5*4C
$GNGGA,142812.000,4005.098584,N,10513.207854,W,2,59,0.40,1584.465,M,-20.670,M,,*75
$GPGSV,4,1,13,07,78,049,40,30,58,314,43,08,46,060,42,14,44,261,43,1*60
$GPGSV,4,2,13,46,37,214,46,09,33,181,47,22,24,251,47,21,16,108,44,1*6F
$GPGSV,4,3,13,13,15,320,27,27,14,040,43,02,13,123,42,05,05,298,35,1*63
$GPGSV,4,4,13,04,01,159,49,1*53
$GPGSV,2,1,06,30,58,314,31,08,46,060,35,14,44,261,42,09,33,181,46,8*6D
$GPGSV,2,2,06,27,14,040,37,04,01,159,48,8*6F
$GLGSV,3,1,10,74,53,321,37,73,49,041,37,72,45,280,45,83,33,072,27,1*76
$GLGSV,3,2,10,71,32,216,48,84,18,140,34,82,15,029,40,65,12,334,32,1*75
$GLGSV,3,3,10,75,11,278,43,80,05,076,40,1*79
$GAGSV,2,1,08,04,60,220,44,31,48,263,41,09,40,304,37,21,20,059,36,7*70
$GAGSV,2,2,08,19,16,165,42,26,12,106,41,13,11,055,39,24,01,249,,7*75
$GAGSV,2,1,07,04,60,220,42,31,48,263,41,09,40,304,26,21,20,059,39,1*70
$GAGSV,2,2,07,19,16,165,36,26,12,106,37,13,11,055,40,1*48
$GBGSV,4,1,15,36,63,314,39,57,56,281,,46,51,069,38,27,37,080,47,1*79
$GBGSV,4,2,15,30,35,144,46,22,32,270,45,19,20,213,50,45,15,282,43,1*72
$GBGSV,4,3,15,21,12,320,25,28,11,038,44,08,06,332,31,37,03,090,25,1*75
$GBGSV,4,4,15,38,03,320,,13,02,345,21,29,01,186,51,1*4B
$GBGSV,3,1,12,36,63,314,40,46,51,069,35,27,37,080,44,30,35,144,44,5*73
$GBGSV,3,2,12,22,32,270,35,19,20,213,45,45,15,282,25,21,12,320,17,5*74
$GBGSV,3,3,12,28,11,038,39,37,03,090,34,38,03,320,15,29,01,186,49,5*76
$GNGGA,142817.000,4005.098614,N,10513.207854,W,2,59,0.40,1584.455,M,-20.670,M,,*79
$GPGSV,4,1,13,07,78,049,40,30,58,314,43,08,46,060,42,14,44,261,43,1*60
$GPGSV,4,2,13,46,37,214,46,09,33,181,47,22,24,251,47,21,16,108,44,1*6F
$GPGSV,4,3,13,13,15,320,28,27,14,040,42,02,13,123,41,05,05,298,35,1*6E
$GPGSV,4,4,13,04,01,159,51,1*5A
$GPGSV,2,1,06,30,58,314,31,08,46,060,35,14,44,261,42,09,33,181,46,8*6D
$GPGSV,2,2,06,27,14,040,37,04,01,159,48,8*6F
$GLGSV,3,1,10,74,53,321,37,73,49,041,37,72,45,280,45,83,33,072,28,1*79
$GLGSV,3,2,10,71,32,216,47,84,18,140,33,82,15,029,41,65,12,334,33,1*7D
$GLGSV,3,3,10,75,11,278,43,80,05,076,39,1*77
$GAGSV,2,1,08,04,59,219,44,31,48,263,41,09,40,304,37,21,20,059,35,7*73
$GAGSV,2,2,08,19,16,165,42,26,12,106,41,13,11,055,39,24,01,249,,7*75
$GAGSV,2,1,07,04,59,219,42,31,48,263,41,09,40,304,26,21,20,059,39,1*70
$GAGSV,2,2,07,19,16,165,36,26,12,106,37,13,11,055,40,1*48
$GBGSV,4,1,15,36,63,314,38,57,56,281,,46,51,069,38,27,37,080,47,1*78
$GBGSV,4,2,15,30,35,144,46,22,32,270,45,19,20,213,50,45,15,282,43,1*72
$GBGSV,4,3,15,21,12,320,27,28,11,038,44,08,06,332,31,37,03,090,26,1*74
$GBGSV,4,4,15,38,03,320,18,13,02,345,21,29,01,186,51,1*42
$GBGSV,3,1,12,36,63,314,40,46,51,069,35,27,37,080,44,30,35,144,44,5*73
$GBGSV,3,2,12,22,32,270,35,19,20,213,45,45,15,282,26,21,12,320,17,5*77
$GBGSV,3,3,12,28,11,038,40,37,03,090,35,38,03,320,16,29,01,186,49,5*7A
$GNGGA,142822.000,4005.098596,N,10513.207920,W,2,59,0.40,1584.390,M,-20.670,M,,*7A
$GPGSV,4,1,13,07,78,049,40,30,58,314,43,08,46,060,42,14,44,261,43,1*60
$GPGSV,4,2,13,46,37,214,46,09,33,181,46,22,24,251,47,21,16,108,43,1*69
$GPGSV,4,3,13,13,15,320,29,27,14,040,42,02,13,123,40,05,05,298,34,1*6F
$GPGSV,4,4,13,04,01,159,51,1*5A
$GPGSV,2,1,06,30,58,314,30,08,46,060,35,14,44,261,41,09,33,181,46,8*6F
$GPGSV,2,2,06,27,14,040,36,04,01,159,48,8*6E
$GLGSV,3,1,10,74,53,321,37,73,49,041,39,72,45,280,45,83,33,072,28,1*77
$GLGSV,3,2,10,71,32,216,47,84,18,140,33,82,15,029,41,65,12,334,34,1*7A
$GLGSV,3,3,10,75,11,278,43,80,05,076,40,1*79
$GAGSV,2,1,07,04,59,219,44,31,48,263,41,09,41,303,37,21,20,059,34,7*7B
$GAGSV,2,2,07,19,16,165,42,26,12,106,41,13,11,054,39,7*43
$GAGSV,2,1,07,04,59,219,41,31,48,263,41,09,41,303,26,21,20,059,39,1*75
$GAGSV,2,2,07,19,16,165,35,26,12,106,37,13,11,054,40,1*4A
$GBGSV,4,1,15,36,63,314,38,57,56,281,,46,51,069,39,27,37,080,47,1*79
$GBGSV,4,2,15,30,35,144,46,22,32,270,45,19,20,213,50,45,15,282,43,1*72
$GBGSV,4,3,15,21,12,320,29,28,11,038,44,08,06,332,31,37,03,090,28,1*74
$GBGSV,4,4,15,38,03,320,19,13,02,345,21,29,01,186,51,1*43
$GBGSV,3,1,12,36,63,314,40,46,51,069,35,27,37,080,43,30,35,144,43,5*73
$GBGSV,3,2,12,22,32,270,35,19,20,213,45,45,15,282,27,21,12,320,17,5*76
$GBGSV,3,3,12,28,11,038,40,37,03,090,34,38,03,320,15,29,01,186,49,5*78
$GNGGA,142827.000,4005.098572,N,10513.208022,W,2,59,0.40,1584.293,M,-20.670,M,,*73
$GPGSV,4,1,13,07,78,049,40,30,58,314,43,08,46,060,42,14,44,261,43,1*60
$GPGSV,4,2,13,46,37,214,46,09,33,181,46,22,24,251,47,21,16,108,43,1*69
$GPGSV,4,3,13,13,15,320,29,27,14,040,42,02,13,123,39,05,05,298,34,1*61
$GPGSV,4,4,13,04,01,159,51,1*5A
$GPGSV,2,1,06,30,58,314,30,08,46,060,35,14,44,261,41,09,33,181,46,8*6F
$GPGSV,2,2,06,27,14,040,36,04,01,159,48,8*6E
$GLGSV,3,1,10,74,53,321,38,73,49,041,39,72,45,280,45,83,33,072,28,1*78
$GLGSV,3,2,10,71,32,216,47,84,18,140,33,82,15,029,41,65,12,334,35,1*7B
$GLGSV,3,3,10,75,11,278,43,80,05,076,39,1*77
$GAGSV,2,1,08,04,59,219,44,31,48,263,41,09,41,303,37,21,20,059,34,7*74
$GAGSV,2,2,08,19,16,165,42,26,12,106,41,13,11,054,39,24,01,249,,7*74
$GAGSV,2,1,07,04,59,219,41,31,48,263,41,09,41,303,27,21,20,059,39,1*74
$GAGSV,2,2,07,19,16,165,35,26,12,106,37,13,11,054,40,1*4A
$GBGSV,4,1,14,36,63,314,38,46,51,069,39,27,37,080,47,30,35,144,46,1*74
$GBGSV,4,2,14,22,32,270,45,19,20,213,50,45,15,282,43,21,12,320,30,1*77
$GBGSV,4,3,14,28,11,038,44,08,06,332,31,37,03,090,28,38,03,320,19,1*7E
$GBGSV,4,4,14,13,02,345,21,29,01,186,50,1*72
$GBGSV,3,1,12,36,63,314,40,46,51,069,35,27,37,080,43,30,35,144,43,5*73
$GBGSV,3,2,12,22,32,270,35,19,20,213,45,45,15,282,29,21,12,320,15,5*7A
$GBGSV,3,3,12,28,11,038,40,37,03,090,34,38,03,320,13,29,01,186,49,5*7E
$GNGGA,142832.000,4005.098536,N,10513.208046,W,2,59,0.40,1584.167,M,-20.669,M,,*75
$GPGSV,4,1,13,07,78,049,41,30,58,314,43,08,46,060,42,14,44,261,43,1*61
$GPGSV,4,2,13,46,37,214,46,09,33,181,46,22,24,251,47,21,16,108,43,1*69
$GPGSV,4,3,13,13,15,320,29,27,14,040,42,02,13,123,39,05,05,298,35,1*60
$GPGSV,4,4,13,04,01,159,51,1*5A
$GPGSV,2,1,06,30,58,314,30,08,46,060,35,14,44,261,41,09,33,181,46,8*6F
$GPGSV,2,2,06,27,14,040,35,04,01,159,47,8*62
$GLGSV,3,1,10,74,53,321,38,73,49,041,39,72,45,280,45,83,33,072,27,1*77
$GLGSV,3,2,10,71,32,216,47,84,18,140,32,82,15,029,40,65,12,334,35,1*7B
$GLGSV,3,3,10,75,11,278,43,80,05,076,37,1*79
$GAGSV,2,1,08,04,59,219,44,31,48,263,41,09,41,303,37,21,20,060,34,7*7E
$GAGSV,2,2,08,19,15,165,42,26,12,106,41,13,11,054,39,24,01,249,,7*77
$GAGSV,2,1,07,04,59,219,41,31,48,263,41,09,41,303,28,21,20,060,39,1*71
$GAGSV,2,2,07,19,15,165,35,26,12,106,37,13,11,054,40,1*49
$GBGSV,4,1,15,36,63,314,39,57,56,281,,46,51,069,39,27,37,080,47,1*78
$GBGSV,4,2,15,30,35,144,46,22,32,270,45,19,20,213,50,45,15,282,43,1*72
$GBGSV,4,3,15,21,12,320,30,28,11,038,44,08,06,332,31,37,03,090,27,1*73
$GBGSV,4,4,15,38,03,320,18,13,02,345,21,29,01,186,50,1*43
$GBGSV,3,1,12,36,63,314,40,46,51,069,35,27,37,080,43,30,35,144,43,5*73
$GBGSV,3,2,12,22,32,270,35,19,20,213,45,45,15,282,29,21,12,320,16,5*79
$GBGSV,3,3,12,28,11,038,40,37,03,090,35,38,03,320,14,29,01,186,49,5*78
$GNGGA,142837.000,4005.098500,N,10513.207950,W,2,58,0.40,1584.070,M,-20.669,M,,*72
$GPGSV,4,1,13,07,78,049,41,30,58,314,43,08,46,060,42,14,44,261,43,1*61
$GPGSV,4,2,13,46,37,214,46,09,33,181,46,22,24,251,47,21,16,108,43,1*69
$GPGSV,4,3,13,13,15,320,29,27,14,040,42,02,13,123,39,05,05,298,36,1*63
$GPGSV,4,4,13,04,01,159,49,1*53
$GPGSV,2,1,06,30,58,314,30,08,46,060,35,14,44,261,41,09,33,181,46,8*6F
$GPGSV,2,2,06,27,14,040,35,04,01,159,45,8*60
$GLGSV,3,1,10,74,53,321,38,73,49,041,40,72,45,280,45,83,33,072,27,1*79
$GLGSV,3,2,10,71,32,216,47,84,18,140,32,82,15,029,39,65,12,334,35,1*75
$GLGSV,3,3,10,75,11,278,43,80,05,076,37,1*79
$GAGSV,2,1,08,04,59,219,44,31,48,263,41,09,41,303,37,21,20,060,34,7*7E
$GAGSV,2,2,08,19,15,165,42,26,13,105,41,13,11,054,39,24,02,249,,7*76
$GAGSV,2,1,07,04,59,219,41,31,48,263,41,09,41,303,28,21,20,060,39,1*71
$GAGSV,2,2,07,19,15,165,35,26,13,105,37,13,11,054,40,1*4B
$GBGSV,4,1,16,36,63,314,39,57,56,281,,46,51,069,39,27,37,080,47,1*7B
$GBGSV,4,2,16,30,35,144,46,22,32,270,46,19,20,213,50,45,15,282,43,1*72
$GBGSV,4,3,16,21,12,320,31,28,11,038,44,08,06,332,31,38,03,320,15,1*77
$GBGSV,4,4,16,37,03,090,25,13,02,345,21,29,01,186,49,63,,,28,1*4E
$GBGSV,3,1,10,36,63,314,40,46,51,069,36,27,37,080,43,30,35,144,43,5*72
$GBGSV,3,2,10,22,32,270,35,19,20,213,45,45,15,282,29,28,11,038,40,5*78
$GBGSV,3,3,10,37,03,090,35,29,01,186,49,5*73
$GNGGA,142842.000,4005.098470,N,10513.207860,W,2,58,0.40,1584.080,M,-20.670,M,,*73
$GPGSV,4,1,13,07,78,049,41,30,58,314,43,08,46,060,42,14,44,261,43,1*61
$GPGSV,4,2,13,46,37,214,46,09,33,181,46,22,24,251,47,21,16,108,43,1*69
$GPGSV,4,3,13,13,15,320,28,27,14,040,42,02,13,123,39,05,05,298,35,1*61
$GPGSV,4,4,13,04,01,159,46,1*5C
$GPGSV,2,1,06,30,58,314,30,08,46,060,35,14,44,261,41,09,33,181,46,8*6F
$GPGSV,2,2,06,27,14,040,35,04,01,159,44,8*61
$GLGSV,3,1,10,74,53,321,37,73,49,041,40,72,45,280,45,83,33,072,26,1*77
$GLGSV,3,2,10,71,32,216,47,84,18,140,32,82,15,029,39,65,12,334,35,1*75
$GLGSV,3,3,10,75,11,278,43,80,05,076,37,1*79
$GAGSV,2,1,08,04,59,219,44,31,49,264,41,09,41,303,38,21,20,060,35,7*76
$GAGSV,2,2,08,19,15,165,42,26,13,105,41,13,11,054,39,24,02,249,,7*76
$GAGSV,2,1,07,04,59,219,41,31,49,264,41,09,41,303,30,21,20,060,39,1*7E
$GAGSV,2,2,07,19,15,165,34,26,13,105,38,13,11,054,40,1*45
$GBGSV,4,1,16,36,63,314,39,57,56,281,,46,51,069,39,27,37,080,47,1*7B
$GBGSV,4,2,16,30,35,144,46,22,32,270,46,19,20,213,50,45,15,282,43,1*72
$GBGSV,4,3,16,21,12,320,31,28,11,038,44,08,06,332,31,38,03,320,12,1*70
$GBGSV,4,4,16,37,03,090,22,13,02,345,22,29,01,186,49,63,,,26,1*44
$GBGSV,3,1,10,36,63,314,40,46,51,069,36,27,37,080,43,30,35,144,43,5*72
$GBGSV,3,2,10,22,32,270,35,19,20,213,45,45,15,282,30,28,11,038,40,5*70
$GBGSV,3,3,10,37,03,090,36,29,01,186,49,5*70
$GNGGA,142847.000,4005.098458,N,10513.207872,W,2,58,0.40,1584.108,M,-20.670,M,,*7E
$GPGSV,4,1,13,07,78,049,41,30,58,314,43,08,46,060,42,14,44,261,44,1*66
$GPGSV,4,2,13,46,37,214,46,09,33,181,46,22,24,251,47,21,16,108,43,1*69
$GPGSV,4,3,13,13,15,320,28,27,14,040,42,02,13,123,40,05,05,298,34,1*6E
$GPGSV,4,4,13,04,01,159,45,1*5F
$GPGSV,2,1,06,30,58,314,30,08,46,060,35,14,44,261,41,09,33,181,47,8*6E
$GPGSV,2,2,06,27,14,040,35,04,01,159,40,8*65
$GLGSV,3,1,10,74,53,321,37,73,49,041,40,72,45,280,45,83,33,072,27,1*76
$GLGSV,3,2,10,71,32,216,47,84,18,140,32,82,15,029,39,65,13,333,37,1*71
$GLGSV,3,3,10,75,11,278,43,80,05,076,37,1*79
$GAGSV,2,1,08,04,59,219,44,31,49,264,41,09,41,303,38,21,20,060,35,7*76
$GAGSV,2,2,08,19,15,165,42,26,13,105,41,13,11,054,39,24,02,249,,7*76
$GAGSV,2,1,07,04,59,219,42,31,49,264,41,09,41,303,30,21,20,060,39,1*7D
$GAGSV,2,2,07,19,15,165,34,26,13,105,38,13,11,054,40,1*45
$GBGSV,4,1,16,36,63,314,39,57,56,281,,46,51,069,39,27,37,080,47,1*7B
$GBGSV,4,2,16,30,35,144,46,22,32,270,46,19,20,213,50,45,15,282,43,1*72
$GBGSV,4,3,16,21,12,320,29,28,11,038,44,08,06,332,31,38,03,320,16,1*7D
$GBGSV,4,4,16,37,03,090,18,13,02,345,21,29,01,186,49,63,,,26,1*4E
$GBGSV,3,1,10,36,63,314,40,46,51,069,37,27,37,080,44,30,35,144,44,5*73
$GBGSV,3,2,10,22,32,270,35,19,20,213,46,45,15,282,31,28,11,038,40,5*72
$GBGSV,3,3,10,37,03,090,37,29,01,186,49,5*71
$GNGGA,142852.000,4005.098434,N,10513.207986,W,2,58,0.40,1584.104,M,-20.670,M,,*76
$GPGSV,4,1,13,07,78,049,41,30,58,314,43,08,46,060,43,14,44,261,44,1*67
$GPGSV,4,2,13,46,37,214,46,09,33,181,46,22,24,251,47,21,16,108,43,1*69
$GPGSV,4,3,13,13,15,320,28,27,14,040,42,02,13,123,40,05,05,298,35,1*6F
$GPGSV,4,4,13,04,01,159,43,1*59
$GPGSV,2,1,06,30,58,314,30,08,46,060,35,14,44,261,41,09,33,181,47,8*6E
$GPGSV,2,2,06,27,14,040,35,04,01,159,39,8*6B
$GLGSV,3,1,10,74,53,321,37,73,49,041,41,72,45,280,45,83,33,072,26,1*76
$GLGSV,3,2,10,71,31,215,47,84,18,140,32,82,15,029,39,65,13,333,38,1*7E
$GLGSV,3,3,10,75,11,278,43,80,05,076,36,1*78
$GAGSV,2,1,08,04,59,219,44,31,49,264,41,09,41,303,38,21,20,060,36,7*75
$GAGSV,2,2,08,19,15,165,43,26,13,105,41,13,11,054,40,24,02,249,,7*79
$GAGSV,2,1,07,04,59,219,42,31,49,264,41,09,41,303,30,21,20,060,39,1*7D
$GAGSV,2,2,07,19,15,165,33,26,13,105,38,13,11,054,40,1*42
$GBGSV,4,1,14,36,63,314,39,46,51,069,38,27,37,080,47,30,35,144,46,1*74
$GBGSV,4,2,14,22,32,270,46,19,20,213,50,45,15,282,43,21,12,320,27,1*72
$GBGSV,4,3,14,28,11,038,44,08,06,332,31,37,03,090,19,38,03,320,17,1*72
$GBGSV,4,4,14,13,02,345,21,29,01,186,47,1*74
$GBGSV,3,1,11,36,63,314,40,46,51,069,37,27,37,080,44,30,35,144,44,5*72
$GBGSV,3,2,11,22,32,270,34,19,20,213,46,45,15,282,31,28,11,038,40,5*72
$GBGSV,3,3,11,37,03,090,37,38,03,320,16,29,01,186,49,5*4E
$GNGGA,142857.000,4005.098404,N,10513.208100,W,2,58,0.40,1584.026,M,-20.669,M,,*70
$GPGSV,4,1,13,07,78,049,41,30,58,314,43,08,46,060,43,14,44,261,44,1*67
$GPGSV,4,2,13,46,37,214,46,09,33,181,46,22,24,251,47,21,16,108,43,1*69
$GPGSV,4,3,13,13,15,320,29,27,14,040,42,02,13,123,40,05,05,298,37,1*6C
$GPGSV,4,4,13,04,01,159,42,1*58
$GPGSV,2,1,06,30,58,314,31,08,46,060,35,14,44,261,41,09,33,181,47,8*6F
$GPGSV,2,2,06,27,14,040,35,04,01,159,37,8*65
$GLGSV,3,1,10,74,53,323,36,73,48,043,41,72,44,278,46,83,33,072,27,1*72
$GLGSV,3,2,10,71,31,215,47,84,18,140,32,82,15,029,39,65,13,333,38,1*7E
$GLGSV,3,3,10,75,12,279,43,80,05,076,37,1*7B
$GAGSV,2,1,08,04,59,219,44,31,49,264,41,09,41,303,38,21,20,060,36,7*75
$GAGSV,2,2,08,19,15,165,43,26,13,105,41,13,11,054,40,24,02,249,,7*79
$GAGSV,2,1,07,04,59,219,42,31,49,264,41,09,41,303,31,21,20,060,39,1*7C
$GAGSV,2,2,07,19,15,165,33,26,13,105,38,13,11,054,40,1*42
$GBGSV,4,1,16,36,63,314,39,57,56,281,,46,51,069,38,27,37,080,47,1*7A
$GBGSV,4,2,16,30,35,144,46,22,32,270,46,19,20,213,50,45,15,282,43,1*72
$GBGSV,4,3,16,21,12,320,26,28,11,038,43,08,06,332,31,38,03,320,18,1*7B
$GBGSV,4,4,16,37,03,090,22,13,02,345,21,29,01,186,47,63,,,30,1*4E
$GBGSV,3,1,11,36,63,314,40,46,51,069,37,27,37,080,44,30,35,144,43,5*75
$GBGSV,3,2,11,22,32,270,34,19,20,213,46,45,15,282,31,28,11,038,40,5*72
$GBGSV,3,3,11,37,03,090,37,38,03,320,15,29,01,186,49,5*4D
$GNGGA,142902.000,4005.098434,N,10513.208154,W,2,57,0.40,1583.881,M,-20.670,M,,*76
$GPGSV,4,1,13,07,78,049,41,30,58,314,43,08,46,060,43,14,44,261,44,1*67
$GPGSV,4,2,13,46,37,214,46,09,33,181,46,22,24,251,47,21,16,108,43,1*69
$GPGSV,4,3,13,13,15,320,28,27,14,040,42,02,13,123,40,05,05,298,39,1*63
$GPGSV,4,4,13,04,01,159,41,1*5B
$GPGSV,2,1,06,30,58,314,30,08,46,060,34,14,44,261,41,09,33,181,46,8*6E
$GPGSV,2,2,06,27,14,040,35,04,01,159,36,8*64
$GLGSV,3,1,10,74,53,323,36,73,48,043,41,72,44,278,46,83,33,072,28,1*7D
$GLGSV,3,2,10,71,31,215,47,84,18,140,32,82,15,029,39,65,13,333,38,1*7E
$GLGSV,3,3,10,75,12,279,43,80,04,077,37,1*7B
$GAGSV,2,1,08,04,59,219,44,31,49,264,41,09,41,303,38,21,20,060,36,7*75
$GAGSV,2,2,08,19,15,165,43,26,13,105,41,13,11,054,40,24,02,249,,7*79
$GAGSV,2,1,07,04,59,219,42,31,49,264,41,09,41,303,31,21,20,060,39,1*7C
$GAGSV,2,2,07,19,15,165,32,26,13,105,38,13,11,054,40,1*43
$GBGSV,4,1,16,36,63,314,39,57,56,281,,46,51,069,38,27,37,080,47,1*7A
$GBGSV,4,2,16,30,35,144,46,22,32,270,46,19,20,213,50,45,15,282,43,1*72
$GBGSV,4,3,16,21,12,320,26,28,11,038,43,08,06,332,31,38,03,320,17,1*74
$GBGSV,4,4,16,37,03,090,19,13,02,345,21,29,01,186,46,63,,,29,1*4F
$GBGSV,3,1,11,36,63,314,39,46,51,069,37,27,37,080,44,30,35,144,43,5*7B
$GBGSV,3,2,11,22,32,270,34,19,20,213,46,45,15,282,32,28,11,038,39,5*7F
$GBGSV,3,3,11,37,03,090,36,38,03,320,15,29,01,186,48,5*4D
$GNGGA,142907.000,4005.098476,N,10513.208166,W,2,58,0.40,1583.804,M,-20.670,M,,*76
$GPGSV,4,1,13,07,78,049,41,30,58,314,43,08,46,060,43,14,44,261,44,1*67
$GPGSV,4,2,13,46,37,214,46,09,33,181,46,22,24,251,47,21,16,108,43,1*69
$GPGSV,4,3,13,13,15,320,25,27,14,040,41,02,13,123,40,05,05,298,40,1*63
$GPGSV,4,4,13,04,01,159,38,1*55
$GPGSV,2,1,06,30,58,314,30,08,46,060,33,14,44,261,41,09,33,181,46,8*69
$GPGSV,2,2,06,27,14,040,35,04,01,159,35,8*67
$GLGSV,3,1,10,74,53,323,36,73,48,043,41,72,44,278,44,83,33,070,29,1*7C
$GLGSV,3,2,10,71,31,215,46,84,19,139,31,82,15,028,40,65,13,333,38,1*7C
$GLGSV,3,3,10,75,12,279,44,80,04,077,36,1*7D
$GAGSV,2,1,08,04,59,219,44,31,49,264,41,09,41,303,38,21,20,060,36,7*75
$GAGSV,2,2,08,19,15,165,43,26,13,105,41,13,11,054,40,24,02,249,,7*79
$GAGSV,2,1,07,04,59,219,42,31,49,264,41,09,41,303,31,21,20,060,39,1*7C
$GAGSV,2,2,07,19,15,165,32,26,13,105,38,13,11,054,40,1*43
$GBGSV,4,1,16,36,63,314,39,57,56,281,,46,51,069,38,27,37,080,48,1*75
$GBGSV,4,2,16,30,35,144,46,22,32,270,46,19,20,213,50,45,15,282,43,1*72
$GBGSV,4,3,16,21,12,320,24,28,11,038,43,08,06,332,31,38,03,320,11,1*70
$GBGSV,4,4,16,37,03,090,20,13,02,345,21,29,01,186,46,63,,,29,1*45
$GBGSV,3,1,12,36,63,314,39,46,51,069,37,27,37,080,44,30,35,144,43,5*78
$GBGSV,3,2,12,22,32,270,34,19,20,213,46,45,15,282,32,21,12,320,20,5*74
$GBGSV,3,3,12,28,11,038,39,37,03,090,36,38,03,320,15,29,01,186,48,5*75
$GNGGA,142912.000,4005.098458,N,10513.208124,W,2,57,0.40,1583.865,M,-20.670,M,,*70
$GPGSV,4,1,13,07,78,049,41,30,58,314,43,08,46,060,43,14,44,261,44,1*67
$GPGSV,4,2,13,46,37,214,46,09,33,181,46,22,24,251,46,21,16,108,43,1*68
$GPGSV,4,3,13,13,15,320,22,27,14,040,41,02,13,123,39,05,05,298,41,1*6B
$GPGSV,4,4,13,04,01,159,37,1*5A
$GPGSV,2,1,06,30,58,314,30,08,46,060,33,14,44,261,41,09,33,181,46,8*69
$GPGSV,2,2,06,27,14,040,34,04,01,159,34,8*67
$GLGSV,3,1,10,74,53,323,37,73,48,043,41,72,44,278,44,83,33,070,28,1*7C
$GLGSV,3,2,10,71,31,215,45,84,19,139,30,82,15,028,41,65,13,333,36,1*71
$GLGSV,3,3,10,75,12,279,44,80,04,077,36,1*7D
$GAGSV,2,1,08,04,59,219,44,31,49,264,41,09,41,303,38,21,20,060,37,7*74
$GAGSV,2,2,08,19,15,165,43,26,13,105,41,13,11,054,40,24,02,249,,7*79
$GAGSV,2,1,07,04,59,219,42,31,49,264,41,09,41,303,32,21,20,060,39,1*7F
$GAGSV,2,2,07,19,15,165,32,26,13,105,38,13,11,054,40,1*43
$GBGSV,4,1,16,36,63,314,39,57,56,281,,46,51,069,38,27,37,080,48,1*75
$GBGSV,4,2,16,30,35,144,46,22,32,270,46,19,20,213,50,45,15,282,42,1*73
$GBGSV,4,3,16,21,12,320,19,28,11,038,43,08,06,332,31,38,03,320,14,1*7B
$GBGSV,4,4,16,37,03,090,18,13,02,345,21,29,01,186,47,63,,,29,1*4F
$GBGSV,3,1,12,36,63,314,39,46,51,069,37,27,37,080,44,30,35,144,43,5*78
$GBGSV,3,2,12,22,32,270,35,19,20,213,46,45,15,282,32,21,12,320,23,5*76
$GBGSV,3,3,12,28,11,038,39,37,03,090,37,38,03,320,12,29,01,186,48,5*73
$GNGGA,142917.000,4005.098398,N,10513.208076,W,2,58,0.40,1583.898,M,-20.670,M,,*75
$GPGSV,4,1,13,07,78,049,41,30,58,314,43,08,46,060,43,14,44,261,44,1*67
$GPGSV,4,2,13,46,37,214,46,09,33,181,46,22,24,251,46,21,16,108,43,1*68
$GPGSV,4,3,13,13,15,320,22,27,14,040,41,02,13,123,38,05,05,298,41,1*6A
$GPGSV,4,4,13,04,01,159,36,1*5B
$GPGSV,2,1,06,30,58,314,31,08,46,060,32,14,44,261,41,09,33,181,46,8*69
$GPGSV,2,2,06,27,14,040,33,04,01,159,33,8*67
$GLGSV,3,1,10,74,53,323,37,73,48,043,41,72,44,278,44,83,33,070,28,1*7C
$GLGSV,3,2,10,71,31,215,45,84,19,139,30,82,15,028,41,65,13,333,33,1*74
$GLGSV,3,3,10,75,12,279,45,80,04,077,36,1*7C
$GAGSV,2,1,08,04,59,219,44,31,49,264,41,09,41,303,38,21,20,060,37,7*74
$GAGSV,2,2,08,19,15,165,43,26,13,105,41,13,11,054,40,24,02,249,,7*79
$GAGSV,2,1,07,04,59,219,42,31,49,264,41,09,41,303,32,21,20,060,39,1*7F
$GAGSV,2,2,07,19,15,165,32,26,13,105,39,13,11,054,40,1*42
$GBGSV,4,1,15,36,63,314,39,46,51,069,38,27,37,080,48,30,35,144,46,1*7A
$GBGSV,4,2,15,22,32,270,46,19,20,213,50,45,15,282,42,21,12,320,19,1*7F
$GBGSV,4,3,15,28,11,038,42,08,06,332,31,38,03,320,17,37,03,090,19,1*75
$GBGSV,4,4,15,13,02,345,21,29,01,186,46,63,,,29,1*7A
$GBGSV,3,1,11,36,63,314,39,46,51,069,37,27,37,080,44,30,35,144,43,5*7B
$GBGSV,3,2,11,22,32,270,35,19,20,213,46,45,15,282,32,21,12,320,24,5*72
$GBGSV,3,3,11,28,11,038,39,37,03,090,37,29,01,186,48,5*4A
$GNGGA,142922.000,4005.098350,N,10513.208076,W,2,58,0.40,1583.807,M,-20.670,M,,*71
$GPGSV,4,1,13,07,78,049,41,30,58,314,43,08,46,060,43,14,44,261,44,1*67
$GPGSV,4,2,13,46,37,214,46,09,33,181,46,22,24,251,46,21,16,108,43,1*68
$GPGSV,4,3,13,13,15,320,24,27,14,040,41,02,13,123,38,05,05,298,41,1*6C
$GPGSV,4,4,13,04,01,159,32,1*5F
$GPGSV,2,1,06,30,58,314,31,08,46,060,32,14,44,261,41,09,33,181,46,8*69
$GPGSV,2,2,06,27,14,040,32,04,01,159,30,8*65
$GLGSV,3,1,10,74,53,323,37,73,48,043,41,72,44,278,44,83,33,070,27,1*73
$GLGSV,3,2,10,71,31,215,45,84,19,139,30,82,15,028,42,65,13,333,33,1*77
$GLGSV,3,3,10,75,12,279,45,80,04,077,36,1*7C
$GAGSV,2,1,08,04,59,219,44,31,49,264,41,09,41,303,38,21,20,060,37,7*74
$GAGSV,2,2,08,19,15,165,43,26,13,105,41,13,11,054,40,24,02,249,,7*79
$GAGSV,2,1,07,04,59,219,42,31,49,264,41,09,41,303,32,21,20,060,39,1*7F
$GAGSV,2,2,07,19,15,165,31,26,13,105,39,13,11,054,40,1*41
$GBGSV,4,1,16,36,63,314,39,57,56,281,,46,51,069,39,27,37,080,48,1*74
$GBGSV,4,2,16,30,35,144,46,22,32,270,46,19,20,213,50,45,15,282,42,1*73
$GBGSV,4,3,16,21,12,320,21,28,11,038,41,08,06,332,31,38,03,320,18,1*7E
$GBGSV,4,4,16,37,03,090,21,13,02,345,20,29,01,186,47,63,,,29,1*44
$GBGSV,3,1,11,36,63,314,39,46,51,069,37,27,37,080,44,30,35,144,43,5*7B
$GBGSV,3,2,11,22,32,270,35,19,20,213,46,45,15,282,32,21,12,320,27,5*71
$GBGSV,3,3,11,28,11,038,39,37,03,090,37,29,01,186,47,5*45
$GNGGA,142927.000,4005.098362,N,10513.208088,W,2,57,0.40,1583.728,M,-20.670,M,,*79
$GPGSV,4,1,13,07,78,049,41,30,58,314,43,08,46,060,43,14,44,261,44,1*67
$GPGSV,4,2,13,46,37,214,46,09,33,181,46,22,24,251,46,21,16,108,43,1*68
$GPGSV,4,3,13,13,15,320,24,27,14,040,41,02,13,123,38,05,05,298,41,1*6C
$GPGSV,4,4,13,04,01,159,30,1*5D
$GPGSV,2,1,06,30,58,314,31,08,46,060,32,14,44,261,40,09,33,181,46,8*68
$GPGSV,2,2,06,27,14,040,30,04,01,159,29,8*6F
$GLGSV,3,1,10,74,53,323,37,73,48,043,41,72,44,278,44,83,33,070,27,1*73
$GLGSV,3,2,10,71,31,215,45,84,19,139,31,82,15,028,42,65,13,333,33,1*76
$GLGSV,3,3,10,75,12,279,44,80,04,077,35,1*7E
$GAGSV,2,1,08,04,59,219,44,31,49,264,41,09,41,303,38,21,20,060,36,7*75
$GAGSV,2,2,08,19,15,165,43,26,13,105,41,13,11,054,40,24,02,249,,7*79
$GAGSV,2,1,07,04,59,219,42,31,49,264,41,09,41,303,32,21,20,060,39,1*7F
$GAGSV,2,2,07,19,15,165,31,26,13,105,39,13,11,054,40,1*41
$GBGSV,4,1,15,36,63,314,39,46,51,069,39,27,37,080,48,30,35,144,46,1*7B
$GBGSV,4,2,15,22,32,270,46,19,20,213,50,45,15,282,42,21,12,320,19,1*7F
$GBGSV,4,3,15,28,11,038,41,08,06,332,31,38,03,320,17,37,03,090,19,1*76
$GBGSV,4,4,15,13,02,345,20,29,01,186,46,63,,,29,1*7B
$GBGSV,3,1,11,36,63,314,40,46,51,069,38,27,37,080,43,30,35,144,43,5*7D
$GBGSV,3,2,11,22,32,270,35,19,20,213,46,45,15,282,34,21,12,320,29,5*79
$GBGSV,3,3,11,28,11,038,39,37,03,090,37,29,01,186,48,5*4A
$GNGGA,142932.000,4005.098380,N,10513.208136,W,2,58,0.40,1583.707,M,-20.670,M,,*77
$GPGSV,4,1,13,07,78,049,41,30,58,314,43,08,46,060,43,14,44,261,44,1*67
$GPGSV,4,2,13,46,37,214,46,09,33,181,46,22,24,251,45,21,16,108,43,1*6B
$GPGSV,4,3,13,13,15,320,26,27,14,040,41,02,13,123,39,05,05,298,39,1*60
$GPGSV,4,4,13,04,01,159,28,1*54
$GPGSV,2,1,06,30,58,314,30,08,46,060,32,14,44,261,40,09,33,181,46,8*69
$GPGSV,2,2,06,27,14,040,29,04,01,159,28,8*66
$GLGSV,3,1,10,74,53,323,37,73,48,043,42,72,44,278,45,83,33,070,27,1*71
$GLGSV,3,2,10,71,31,215,45,84,19,139,31,82,15,028,42,65,13,333,35,1*70
$GLGSV,3,3,10,75,12,279,43,80,04,077,36,1*7A
$GAGSV,2,1,08,04,59,219,44,31,49,264,42,09,41,303,38,21,20,060,36,7*76
$GAGSV,2,2,08,19,15,165,43,26,13,105,41,13,11,054,40,24,02,249,,7*79
$GAGSV,2,1,07,04,59,219,42,31,49,264,41,09,41,303,32,21,20,060,38,1*7E
$GAGSV,2,2,07,19,15,165,31,26,13,105,39,13,11,054,39,1*4F
$GBGSV,4,1,16,36,63,314,39,57,56,281,,46,51,069,40,27,37,080,48,1*7A
$GBGSV,4,2,16,30,35,144,46,22,32,269,46,19,19,212,50,45,15,282,42,1*70
$GBGSV,4,3,16,21,13,319,22,28,11,038,41,08,06,332,30,38,03,320,15,1*7A
$GBGSV,4,4,16,37,03,090,24,13,02,345,19,29,01,186,46,63,,,29,1*4A
$GBGSV,3,1,11,36,63,314,40,46,51,069,38,27,37,080,43,30,35,144,43,5*7D
$GBGSV,3,2,11,22,32,269,35,19,19,212,45,45,15,282,33,21,13,319,30,5*7D
$GBGSV,3,3,11,28,11,038,39,37,03,090,37,29,01,186,47,5*45
$GNGGA,142937.000,4005.098494,N,10513.208220,W,2,58,0.40,1583.679,M,-20.670,M,,*7C
$GPGSV,4,1,13,07,78,049,41,30,58,314,43,08,46,060,43,14,44,261,44,1*67
$GPGSV,4,2,13,46,37,214,46,09,33,181,46,22,24,251,45,21,16,108,42,1*6A
$GPGSV,4,3,13,13,15,320,27,27,14,040,41,02,13,123,39,05,05,298,35,1*6D
$GPGSV,4,4,13,04,01,159,27,1*5B
$GPGSV,2,1,06,30,58,314,31,08,46,060,32,14,44,261,40,09,33,181,46,8*68
$GPGSV,2,2,06,27,14,040,28,04,01,159,27,8*68
$GLGSV,3,1,10,74,53,323,36,73,48,043,42,72,44,278,45,83,33,070,26,1*71
$GLGSV,3,2,10,71,31,215,45,84,19,139,31,82,15,028,42,65,13,333,35,1*70
$GLGSV,3,3,10,75,12,279,44,80,04,077,36,1*7D
$GAGSV,2,1,08,04,59,219,44,31,49,264,42,09,41,303,38,21,20,060,35,7*75
$GAGSV,2,2,08,19,15,165,43,26,13,105,41,13,11,054,39,24,02,249,,7*77
$GAGSV,2,1,07,04,59,219,42,31,49,264,41,09,41,303,32,21,20,060,38,1*7E
$GAGSV,2,2,07,19,15,165,31,26,13,105,39,13,11,054,39,1*4F
$GBGSV,4,1,16,36,63,314,40,57,56,281,,46,51,069,40,27,37,078,48,1*73
$GBGSV,4,2,16,30,35,144,46,22,32,269,46,19,19,212,50,45,15,282,42,1*70
$GBGSV,4,3,16,21,13,319,23,28,11,037,41,08,06,332,30,38,03,320,12,1*73
$GBGSV,4,4,16,37,03,090,26,13,02,345,19,29,01,186,44,63,,,29,1*4A
$GBGSV,3,1,11,36,63,314,40,46,51,069,38,27,37,078,43,30,35,144,43,5*7A
$GBGSV,3,2,11,22,32,269,35,19,19,212,45,45,15,282,34,21,13,319,31,5*7B
$GBGSV,3,3,11,28,11,037,39,37,03,090,37,29,01,186,47,5*4A
$GNGGA,142942.000,4005.098536,N,10513.208244,W,2,58,0.40,1583.650,M,-20.670,M,,*7E
$GPGSV,4,1,13,07,78,049,41,30,58,314,43,08,46,060,43,14,44,261,44,1*67
$GPGSV,4,2,13,46,37,214,46,09,33,181,46,22,24,251,45,21,16,108,42,1*6A
$GPGSV,4,3,13,13,15,320,28,27,14,040,41,02,13,123,39,05,05,298,36,1*61
$GPGSV,4,4,13,04,01,159,26,1*5A
$GPGSV,2,1,06,30,58,314,31,08,46,060,31,14,44,261,40,09,33,181,46,8*6B
$GPGSV,2,2,06,27,14,040,27,04,01,159,26,8*66
$GLGSV,3,1,10,74,53,323,36,73,48,043,42,72,44,278,45,83,33,070,27,1*70
$GLGSV,3,2,10,71,31,215,45,84,19,139,31,82,15,028,41,65,13,333,38,1*7E
$GLGSV,3,3,10,75,12,279,44,80,04,077,38,1*73
$GAGSV,2,1,08,04,59,219,44,31,49,264,42,09,41,303,38,21,20,060,35,7*75
$GAGSV,2,2,08,19,15,165,43,26,13,105,41,13,11,054,39,24,02,249,,7*77
$GAGSV,2,1,07,04,59,219,42,31,49,264,41,09,41,303,32,21,20,060,38,1*7E
$GAGSV,2,2,07,19,15,165,30,26,13,105,39,13,11,054,39,1*4E
$GBGSV,4,1,16,36,63,314,40,57,56,281,,46,51,069,41,27,37,078,48,1*72
$GBGSV,4,2,16,30,36,143,46,22,32,269,46,19,19,212,50,45,15,282,42,1*74
$GBGSV,4,3,16,21,13,319,24,28,11,037,41,08,06,332,30,38,03,320,17,1*71
$GBGSV,4,4,16,37,03,090,26,29,02,186,44,13,02,345,18,63,,,29,1*48
$GBGSV,3,1,11,36,63,314,40,46,51,069,38,27,37,078,43,30,36,143,43,5*7E
$GBGSV,3,2,11,22,32,269,34,19,19,212,45,45,15,282,34,21,13,319,33,5*78
$GBGSV,3,3,11,28,11,037,39,37,03,090,37,29,02,186,47,5*49
$GNGGA,142947.000,4005.098596,N,10513.208262,W,2,58,0.40,1583.660,M,-20.669,M,,*7E
$GPGSV,4,1,13,07,78,049,41,30,58,314,43,08,46,060,43,14,44,261,44,1*67
$GPGSV,4,2,13,46,37,214,46,09,33,181,46,22,24,251,45,21,16,108,42,1*6A
$GPGSV,4,3,13,13,15,320,30,27,14,040,39,02,13,123,39,05,05,298,36,1*67
$GPGSV,4,4,13,04,01,159,24,1*58
$GPGSV,2,1,06,30,58,314,30,08,46,060,31,14,44,261,40,09,33,181,46,8*6A
$GPGSV,2,2,06,27,14,040,26,04,01,159,25,8*64
$GLGSV,3,1,10,74,53,323,36,73,48,043,42,72,44,278,45,83,33,070,27,1*70
$GLGSV,3,2,10,71,31,215,45,84,19,139,32,82,15,028,41,65,13,333,38,1*7D
$GLGSV,3,3,10,75,12,279,44,80,04,077,38,1*73
$GAGSV,2,1,08,04,59,219,44,31,49,264,42,09,41,303,38,21,20,060,35,7*75
$GAGSV,2,2,08,19,15,165,43,26,13,105,41,13,11,054,39,24,02,249,,7*77
$GAGSV,2,1,07,04,59,219,42,31,49,264,41,09,41,303,31,21,20,060,38,1*7D
$GAGSV,2,2,07,19,15,165,30,26,13,105,39,13,11,054,39,1*4E
$GBGSV,4,1,16,36,63,316,40,57,56,281,,46,51,069,41,27,37,078,48,1*70
$GBGSV,4,2,16,30,36,143,46,22,32,269,46,19,19,212,49,45,15,282,42,1*7C
$GBGSV,4,3,16,21,13,319,23,28,11,037,42,08,06,332,30,38,02,320,17,1*74
$GBGSV,4,4,16,13,02,345,18,29,02,186,42,37,02,091,32,63,,,28,1*4A
$GBGSV,3,1,11,36,63,316,40,46,51,069,38,27,37,078,43,30,36,143,43,5*7C
$GBGSV,3,2,11,22,32,269,34,19,19,212,45,45,15,282,34,21,13,319,33,5*78
$GBGSV,3,3,11,28,11,037,39,37,02,091,37,29,02,186,47,5*49
$GNGGA,142952.000,4005.098626,N,10513.208286,W,2,58,0.40,1583.552,M,-20.670,M,,*72
$GPGSV,4,1,13,07,78,049,41,30,58,314,43,08,46,060,42,14,44,261,44,1*66
$GPGSV,4,2,13,46,37,214,46,09,33,181,46,22,24,251,45,21,16,108,42,1*6A
$GPGSV,4,3,13,13,15,320,32,27,14,040,38,02,13,123,39,05,05,298,39,1*6B
$GPGSV,4,4,13,04,01,159,24,1*58
$GPGSV,2,1,06,30,58,314,30,08,46,060,30,14,44,261,40,09,33,181,46,8*6B
$GPGSV,2,2,06,27,14,040,27,04,01,159,25,8*65
$GLGSV,3,1,10,74,53,323,36,73,48,043,42,72,44,278,44,83,33,070,28,1*7E
$GLGSV,3,2,10,71,31,215,45,84,19,139,32,82,15,028,41,65,13,333,38,1*7D
$GLGSV,3,3,10,75,12,279,44,80,04,077,39,1*72
$GAGSV,2,1,08,04,59,219,44,31,49,264,42,09,41,303,38,21,20,060,35,7*75
$GAGSV,2,2,08,19,15,165,43,26,13,105,41,13,11,054,39,24,02,249,,7*77
$GAGSV,2,1,07,04,59,219,42,31,49,264,41,09,41,303,32,21,20,060,38,1*7E
$GAGSV,2,2,07,19,15,165,30,26,13,105,39,13,11,054,39,1*4E
$GBGSV,4,1,16,36,63,316,40,57,56,281,,46,51,069,41,27,37,078,48,1*70
$GBGSV,4,2,16,30,36,143,46,22,32,269,46,19,19,212,49,45,15,282,41,1*7F
$GBGSV,4,3,16,21,13,319,27,28,11,037,42,08,06,332,30,38,02,320,18,1*7F
$GBGSV,4,4,16,13,02,345,18,29,02,186,41,37,02,091,33,63,,,28,1*48
$GBGSV,3,1,11,36,63,316,40,46,51,069,38,27,37,078,43,30,36,143,43,5*7C
$GBGSV,3,2,11,22,32,269,34,19,19,212,45,45,15,282,34,21,13,319,34,5*7F
$GBGSV,3,3,11,28,11,037,39,37,02,091,37,29,02,186,46,5*48
$GNGGA,142957.000,4005.098590,N,10513.208250,W,2,58,0.40,1583.495,M,-20.670,M,,*78
$GPGSV,4,1,13,07,78,049,42,30,58,314,43,08,46,060,42,14,44,261,44,1*65
$GPGSV,4,2,13,46,37,214,46,09,33,181,46,22,24,251,44,21,16,108,42,1*6B
$GPGSV,4,3,13,13,15,320,32,27,14,040,37,02,13,123,39,05,05,298,41,1*6B
$GPGSV,4,4,13,04,01,159,23,1*5F
$GPGSV,2,1,06,30,58,314,30,08,46,060,30,14,44,261,40,09,33,181,46,8*6B
$GPGSV,2,2,06,27,14,040,26,04,01,159,25,8*64
$GLGSV,3,1,10,74,53,323,36,73,48,043,42,72,44,278,44,83,33,070,28,1*7E
$GLGSV,3,2,10,71,31,215,45,84,19,139,32,82,15,028,41,65,13,333,39,1*7C
$GLGSV,3,3,10,75,12,279,44,80,04,077,40,1*7C
$GAGSV,2,1,08,04,59,219,44,31,49,264,42,09,41,303,38,21,20,060,35,7*75
$GAGSV,2,2,08,19,15,165,43,26,13,105,41,13,11,054,39,24,02,249,,7*77
$GAGSV,2,1,07,04,59,219,42,31,49,264,40,09,41,303,32,21,20,060,38,1*7F
$GAGSV,2,2,07,19,15,165,30,26,13,105,39,13,11,054,39,1*4E
$GBGSV,4,1,16,36,63,316,40,57,56,281,,46,51,070,41,27,37,078,48,1*78
$GBGSV,4,2,16,30,36,143,46,22,32,269,46,19,19,212,48,45,16,283,41,1*7C
$GBGSV,4,3,16,21,13,319,31,28,11,037,42,08,06,332,31,38,02,320,14,1*75
$GBGSV,4,4,16,13,02,345,17,29,02,186,41,37,02,091,32,63,,,27,1*49
$GBGSV,3,1,11,36,63,316,40,46,51,070,38,27,37,078,43,30,36,143,42,5*75
$GBGSV,3,2,11,22,32,269,34,19,19,212,45,45,16,283,35,21,13,319,34,5*7C
$GBGSV,3,3,11,28,11,037,39,37,02,091,37,29,02,186,46,5*48
$GNGGA,143002.000,4005.098596,N,10513.208292,W,2,58,0.40,1583.309,M,-20.670,M,,*7A
$GPGSV,4,1,13,07,78,049,42,30,58,314,43,08,46,060,42,14,44,261,45,1*64
$GPGSV,4,2,13,46,37,214,46,09,33,181,46,22,24,251,44,21,16,108,42,1*6B
$GPGSV,4,3,13,13,15,320,33,27,14,040,37,02,13,123,39,05,05,298,41,1*6A
$GPGSV,4,4,13,04,01,159,21,1*5D
$GPGSV,2,1,06,30,58,314,31,08,46,060,30,14,44,261,39,09,33,181,46,8*64
$GPGSV,2,2,06,27,14,040,26,04,01,159,25,8*64
$GLGSV,3,1,10,74,53,323,37,73,48,043,42,72,44,278,44,83,33,070,28,1*7F
$GLGSV,3,2,10,71,31,215,46,84,19,139,32,82,15,028,41,65,13,333,39,1*7F
$GLGSV,3,3,10,75,12,279,44,80,04,077,39,1*72
$GAGSV,2,1,08,04,59,219,44,31,49,264,42,09,41,303,38,21,20,060,35,7*75
$GAGSV,2,2,08,19,15,165,43,26,13,105,41,13,11,054,39,24,02,249,,7*77
$GAGSV,2,1,07,04,59,219,42,31,49,264,40,09,41,303,32,21,20,060,38,1*7F
$GAGSV,2,2,07,19,15,165,29,26,13,105,39,13,11,054,39,1*46
$GBGSV,4,1,16,36,63,316,40,57,56,281,,46,51,070,41,27,37,078,48,1*78
$GBGSV,4,2,16,30,36,143,46,22,32,269,46,19,19,212,48,45,16,283,41,1*7C
$GBGSV,4,3,16,21,13,319,31,28,11,037,42,08,06,332,31,38,02,320,15,1*74
$GBGSV,4,4,16,13,02,345,16,29,02,186,43,37,02,091,33,63,,,27,1*4B
$GBGSV,3,1,11,36,63,316,40,46,51,070,38,27,37,078,43,30,36,143,42,5*75
$GBGSV,3,2,11,22,32,269,35,19,19,212,45,45,16,283,35,21,13,319,35,5*7C
$GBGSV,3,3,11,28,11,037,39,37,02,091,37,29,02,186,46,5*48
$GNGGA,143007.000,4005.098620,N,10513.208304,W,2,58,0.40,1583.233,M,-20.670,M,,*77
$GPGSV,4,1,13,07,78,049,42,30,58,314,43,08,46,060,42,14,44,261,45,1*64
$GPGSV,4,2,13,46,37,214,46,09,33,181,46,22,24,251,44,21,16,108,42,1*6B
$GPGSV,4,3,13,13,15,320,35,27,14,040,37,02,13,123,39,05,05,298,41,1*6C
$GPGSV,4,4,13,04,01,159,19,1*56
$GPGSV,2,1,06,30,58,314,32,08,46,060,30,14,44,261,39,09,33,181,46,8*67
$GPGSV,2,2,06,27,14,040,24,04,01,159,23,8*60
$GLGSV,3,1,10,74,53,323,36,73,48,043,42,72,44,278,44,83,33,070,28,1*7E
$GLGSV,3,2,10,71,31,215,46,84,19,139,32,82,15,028,41,65,13,333,39,1*7F
$GLGSV,3,3,10,75,12,279,44,80,04,077,39,1*72
$GAGSV,2,1,08,04,59,219,44,31,49,264,42,09,41,303,38,21,20,060,35,7*75
$GAGSV,2,2,08,19,15,165,43,26,13,105,41,13,11,054,39,24,02,249,,7*77
$GAGSV,2,1,07,04,59,219,42,31,49,264,40,09,41,303,32,21,20,060,38,1*7F
$GAGSV,2,2,07,19,15,165,28,26,13,105,39,13,11,054,39,1*47
$GBGSV,4,1,16,36,63,316,40,57,56,279,,46,51,070,40,27,37,078,48,1*7E
$GBGSV,4,2,16,30,36,143,46,22,32,269,46,19,19,212,48,45,16,283,41,1*7C
$GBGSV,4,3,16,21,13,319,31,28,11,037,42,08,06,332,31,38,02,320,18,1*79
$GBGSV,4,4,16,13,02,345,16,29,02,186,41,37,02,091,35,63,,,27,1*4F
$GBGSV,3,1,11,36,63,316,40,46,51,070,38,27,37,078,43,30,36,143,42,5*75
$GBGSV,3,2,11,22,32,269,35,19,19,212,45,45,16,283,35,21,13,319,35,5*7C
$GBGSV,3,3,11,28,11,037,39,37,02,091,37,29,02,186,45,5*4B
