$PAIR001,062,0*3F
$PAIR001,062,0*3F
$PAIR001,062,0*3F
$PAIR001,062,0*3F
$PAIR001,062,0*3F
$PAIR001,062,0*3F
$PAIR001,062,0*3F
$PAIR001,062,0*3F
$PAIR001,062,0*3F
$GNGGA,222858.000,4000.611622,N,10514.637426,W,1,14,1.21,1609.651,M,-20.634,M,,*75
$GPGSV,2,1,08,06,79,099,38,19,53,050,44,46,37,214,33,12,35,311,48,1*6C
$GPGSV,2,2,08,22,34,123,,03,08,036,25,25,04,310,41,17,,,33,1*50
$GPGSV,1,1,03,06,79,099,29,03,08,036,30,25,04,310,31,8*53
$GLGSV,2,1,05,75,76,180,37,85,69,357,46,86,46,242,28,76,38,325,47,1*7E
$GLGSV,2,2,05,68,02,014,42,1*42
$GAGSV,1,1,03,34,65,199,,30,,,41,27,,,41,7*43
$GAGSV,1,1,02,27,,,30,30,,,30,1*71
$GBGSV,1,1,02,45,61,278,33,26,14,319,45,1*74
$GBGSV,1,1,02,45,61,278,28,26,14,319,35,5*7D
$GNGGA,222859.000,4000.611880,N,10514.637444,W,1,14,1.21,1610.015,M,-20.635,M,,*79
$GPGSV,2,1,08,06,79,099,38,19,53,050,44,46,37,214,33,12,35,311,48,1*6C
$GPGSV,2,2,08,22,34,123,,03,08,036,23,25,04,310,41,17,,,33,1*56
$GPGSV,1,1,03,06,79,099,29,03,08,036,31,25,04,310,31,8*52
$GLGSV,2,1,05,75,76,180,37,85,69,357,46,86,46,242,29,76,38,325,47,1*7F
$GLGSV,2,2,05,68,02,014,42,1*42
$GAGSV,1,1,03,34,65,199,,30,,,41,27,,,41,7*43
$GAGSV,1,1,02,27,,,34,30,,,32,1*77
$GBGSV,1,1,02,45,61,278,33,26,14,319,45,1*74
$GBGSV,1,1,02,45,61,278,28,26,14,319,35,5*7D
$GNGGA,222900.000,4000.612054,N,10514.637450,W,1,14,1.21,1610.243,M,-20.635,M,,*72
$GPGSV,2,1,08,06,79,099,38,19,53,050,44,46,37,214,33,12,35,311,48,1*6C
$GPGSV,2,2,08,22,34,123,,03,08,036,22,25,04,310,41,17,,,33,1*57
$GPGSV,1,1,03,06,79,099,29,03,08,036,31,25,04,310,31,8*52
$GLGSV,2,1,05,75,76,180,36,85,69,357,46,86,46,242,30,76,38,325,47,1*76
$GLGSV,2,2,05,68,02,014,42,1*42
$GAGSV,1,1,02,27,,,41,30,,,42,7*74
$GAGSV,1,1,02,27,,,33,30,,,32,1*70
$GBGSV,1,1,02,45,61,278,32,26,14,319,45,1*75
$GBGSV,1,1,02,45,61,278,27,26,14,319,35,5*72
$GNGGA,222901.000,4000.612258,N,10514.637540,W,1,15,1.13,1610.988,M,-20.635,M,,*71
$GPGSV,2,1,08,06,79,099,38,19,53,050,44,46,37,214,33,12,35,311,48,1*6C
$GPGSV,2,2,08,22,34,123,,17,29,067,33,03,08,036,21,25,04,310,41,1*6E
$GPGSV,1,1,03,06,79,099,29,03,08,036,31,25,04,310,31,8*52
$GLGSV,2,1,05,75,76,180,36,85,69,357,46,86,46,242,31,76,38,325,47,1*77
$GLGSV,2,2,05,68,02,014,42,1*42
$GAGSV,1,1,02,30,,,42,27,,,41,7*74
$GAGSV,1,1,02,27,,,32,30,,,31,1*72
$GBGSV,1,1,02,45,61,278,31,26,14,319,45,1*76
$GBGSV,1,1,02,45,61,278,27,26,14,319,35,5*72
$GNGGA,222902.000,4000.612558,N,10514.637624,W,1,15,1.13,1611.855,M,-20.635,M,,*74
$GPGSV,2,1,08,06,79,099,38,19,53,050,44,46,37,214,33,12,35,311,48,1*6C
$GPGSV,2,2,08,22,34,123,,17,29,067,33,03,08,036,21,25,04,310,41,1*6E
$GPGSV,1,1,03,06,79,099,29,03,08,036,31,25,04,310,30,8*53
$GLGSV,2,1,05,75,76,180,35,85,69,357,46,86,46,242,32,76,38,325,47,1*77
$GLGSV,2,2,05,68,02,014,42,1*42
$GAGSV,1,1,02,30,,,42,27,,,41,7*74
$GAGSV,1,1,02,27,,,32,30,,,30,1*73
$GBGSV,1,1,02,45,61,278,31,26,14,319,45,1*76
$GBGSV,1,1,02,45,61,278,27,26,14,319,35,5*72
$GNGGA,222903.000,4000.612846,N,10514.637672,W,1,15,1.13,1612.455,M,-20.634,M,,*7A
$GPGSV,2,1,08,06,79,099,38,19,53,050,44,46,37,214,33,12,35,311,48,1*6C
$GPGSV,2,2,08,22,34,123,,17,29,067,33,03,08,036,21,25,04,310,41,1*6E
$GPGSV,1,1,03,06,79,099,29,03,08,036,31,25,04,310,30,8*53
$GLGSV,2,1,05,75,76,180,36,85,69,357,46,86,46,242,32,76,38,325,48,1*7B
$GLGSV,2,2,05,68,02,014,41,1*41
$GAGSV,1,1,02,30,,,42,27,,,41,7*74
$GAGSV,1,1,02,27,,,31,30,,,33,1*73
$GBGSV,1,1,02,45,61,278,30,26,14,319,45,1*77
$GBGSV,1,1,02,45,61,278,28,26,14,319,35,5*7D
$GNGGA,222904.000,4000.612966,N,10514.637750,W,1,15,1.13,1613.143,M,-20.635,M,,*7D
$GPGSV,2,1,08,06,79,099,38,19,53,050,44,46,37,214,33,12,35,311,47,1*63
$GPGSV,2,2,08,22,34,123,,17,29,067,33,03,08,036,21,25,04,310,42,1*6D
$GPGSV,1,1,03,06,79,099,29,03,08,036,31,25,04,310,29,8*5B
$GLGSV,2,1,05,75,76,180,36,85,69,357,46,86,46,242,32,76,38,325,48,1*7B
$GLGSV,2,2,05,68,02,014,41,1*41
$GAGSV,1,1,02,30,,,42,27,,,41,7*74
$GAGSV,1,1,02,27,,,29,30,,,30,1*79
$GBGSV,1,1,02,45,61,278,30,26,14,319,45,1*77
$GBGSV,1,1,02,45,61,278,28,26,14,319,35,5*7D
$GNGGA,222905.000,4000.613098,N,10514.637828,W,1,15,1.13,1613.804,M,-20.634,M,,*7E
$GPGSV,2,1,08,06,79,099,38,19,53,050,44,46,37,214,33,12,35,311,47,1*63
$GPGSV,2,2,08,22,34,123,,17,29,067,33,03,08,036,22,25,04,310,42,1*6E
$GPGSV,1,1,03,06,79,099,29,03,08,036,31,25,04,310,28,8*5A
$GLGSV,2,1,05,75,76,180,36,85,69,357,45,86,46,242,31,76,38,325,48,1*7B
$GLGSV,2,2,05,68,02,014,40,1*40
$GAGSV,1,1,02,30,,,42,27,,,41,7*74
$GAGSV,1,1,02,27,,,30,30,,,29,1*79
$GBGSV,1,1,02,45,61,278,30,26,14,319,45,1*77
$GBGSV,1,1,02,45,61,278,28,26,14,319,33,5*7B
$GNGGA,222906.000,4000.613374,N,10514.637906,W,1,17,1.11,1614.742,M,-20.635,M,,*7A
$GPGSV,2,1,08,06,79,099,38,19,53,050,44,46,37,214,33,12,35,311,47,1*63
$GPGSV,2,2,08,22,34,123,,17,29,067,33,03,08,036,23,25,04,310,42,1*6F
$GPGSV,1,1,03,06,79,099,29,03,08,036,31,25,04,310,28,8*5A
$GLGSV,2,1,05,75,76,180,36,85,69,357,45,86,46,242,30,76,38,325,48,1*7A
$GLGSV,2,2,05,68,02,014,41,1*41
$GAGSV,1,1,02,30,56,313,42,27,,,41,7*46
$GAGSV,1,1,02,30,56,313,30,27,,,29,1*4B
$GBGSV,1,1,02,45,61,278,30,26,14,319,45,1*77
$GBGSV,1,1,02,45,61,278,28,26,14,319,33,5*7B
$GNGGA,222907.000,4000.613692,N,10514.638014,W,1,17,1.11,1615.915,M,-20.634,M,,*7F
$GPGSV,2,1,08,06,79,099,38,19,53,050,44,46,37,214,33,12,35,311,47,1*63
$GPGSV,2,2,08,22,34,123,,17,29,067,33,03,08,036,23,25,04,310,42,1*6F
$GPGSV,1,1,03,06,79,099,28,03,08,036,30,25,04,310,29,8*5B
$GLGSV,2,1,05,75,76,180,36,85,69,357,45,86,46,242,30,76,38,325,48,1*7A
$GLGSV,2,2,05,68,02,014,41,1*41
$GAGSV,1,1,02,30,56,313,42,27,,,41,7*46
$GAGSV,1,1,02,30,56,313,28,27,,,30,1*4A
$GBGSV,1,1,02,45,61,278,31,26,14,319,45,1*76
$GBGSV,1,1,02,45,61,278,27,26,14,319,33,5*74
$GNGGA,222908.000,4000.613932,N,10514.638140,W,1,19,1.09,1616.985,M,-20.635,M,,*79
$GPGSV,2,1,08,06,79,099,38,19,53,050,44,46,37,214,33,12,35,311,47,1*63
$GPGSV,2,2,08,22,34,123,,17,29,067,33,03,08,036,23,25,04,310,42,1*6F
$GPGSV,1,1,03,06,79,099,28,03,08,036,29,25,04,310,32,8*59
$GLGSV,2,1,05,75,76,180,36,85,69,357,45,86,46,242,30,76,38,325,48,1*7A
$GLGSV,2,2,05,68,02,014,41,1*41
$GAGSV,1,1,02,30,56,313,42,27,05,310,41,7*71
$GAGSV,1,1,02,30,56,313,31,27,05,310,32,1*77
$GBGSV,1,1,02,45,61,278,33,26,14,319,45,1*74
$GBGSV,1,1,02,45,61,278,27,26,14,319,34,5*73
$GNGGA,222909.000,4000.613932,N,10514.638236,W,1,19,1.09,1616.945,M,-20.634,M,,*77
$GPGSV,2,1,08,06,79,099,38,19,53,050,44,46,37,214,33,12,35,311,47,1*63
$GPGSV,2,2,08,22,34,123,,17,29,067,33,03,08,036,23,25,04,310,42,1*6F
$GPGSV,1,1,03,06,79,099,27,03,08,036,29,25,04,310,30,8*54
$GLGSV,2,1,05,75,76,180,36,85,69,357,45,86,46,242,30,76,38,325,48,1*7A
$GLGSV,2,2,05,68,02,014,40,1*40
$GAGSV,1,1,02,30,56,313,42,27,05,310,41,7*71
$GAGSV,1,1,02,30,56,313,29,27,05,310,30,1*7C
$GBGSV,1,1,02,45,61,278,32,26,14,319,44,1*74
$GBGSV,1,1,02,45,61,278,27,26,14,319,34,5*73
$GNGGA,222910.000,4000.613872,N,10514.638392,W,1,18,1.09,1617.031,M,-20.634,M,,*7F
$GPGSV,2,1,08,06,79,099,38,19,53,050,44,46,37,214,33,12,35,311,47,1*63
$GPGSV,2,2,08,22,34,123,,17,29,067,33,03,08,036,24,25,04,310,42,1*68
$GPGSV,1,1,03,06,79,099,27,03,08,036,29,25,04,310,30,8*54
$GLGSV,2,1,05,75,76,180,36,85,69,357,45,86,46,242,30,76,38,325,48,1*7A
$GLGSV,2,2,05,68,02,014,40,1*40
$GAGSV,1,1,02,30,56,313,42,27,05,310,41,7*71
$GAGSV,1,1,01,30,56,313,30,1*46
$GBGSV,1,1,02,45,61,278,32,26,14,319,44,1*74
$GBGSV,1,1,02,45,61,278,26,26,14,319,34,5*72
$GNGGA,222911.000,4000.613962,N,10514.638500,W,1,19,1.09,1617.568,M,-20.634,M,,*7B
$GPGSV,2,1,08,06,79,099,38,19,53,050,44,46,37,214,33,12,35,311,47,1*63
$GPGSV,2,2,08,22,34,123,,17,29,067,34,03,08,036,25,25,04,310,42,1*6E
$GPGSV,1,1,03,06,79,099,28,03,08,036,29,25,04,310,32,8*59
$GLGSV,2,1,05,75,76,180,36,85,69,357,45,86,46,242,29,76,38,325,48,1*72
$GLGSV,2,2,05,68,02,014,40,1*40
$GAGSV,1,1,02,30,56,313,42,27,05,310,41,7*71
$GAGSV,1,1,02,30,56,313,33,27,05,310,32,1*75
$GBGSV,1,1,02,45,61,278,32,26,14,319,44,1*74
$GBGSV,1,1,02,45,61,278,27,26,14,319,35,5*72
$GNGGA,222912.000,4000.613686,N,10514.638656,W,1,19,1.09,1616.831,M,-20.634,M,,*7D
$GPGSV,2,1,08,06,79,099,38,19,53,050,44,46,37,214,33,12,35,311,47,1*63
$GPGSV,2,2,08,22,34,123,,17,29,067,34,03,08,036,26,25,04,310,42,1*6D
$GPGSV,1,1,03,06,79,099,27,03,08,036,29,25,04,310,30,8*54
$GLGSV,2,1,05,75,76,180,36,85,69,357,45,86,46,242,29,76,38,325,48,1*72
$GLGSV,2,2,05,68,02,014,41,1*41
$GAGSV,1,1,02,30,56,313,42,27,05,310,41,7*71
$GAGSV,1,1,02,30,56,313,31,27,05,310,30,1*75
$GBGSV,1,1,02,45,61,278,32,26,14,319,44,1*74
$GBGSV,1,1,02,45,61,278,27,26,14,319,35,5*72
$PAIR010,0,0,2302,513090*36
$PAIR010,0,3,2302,513090*35
$PAIR010,0,2,2302,513090*34
$GNGGA,222913.000,4000.613746,N,10514.638758,W,1,19,1.09,1617.116,M,-20.635,M,,*72
$GPGSV,2,1,08,06,79,099,38,19,53,050,45,46,37,214,33,12,35,311,47,1*62
$GPGSV,2,2,08,22,34,123,,17,29,067,34,03,08,036,27,25,04,310,41,1*6F
$GPGSV,1,1,03,06,79,099,27,03,08,036,29,25,04,310,31,8*55
$GLGSV,2,1,05,75,76,180,36,85,69,357,45,86,46,242,29,76,38,325,48,1*72
$GLGSV,2,2,05,68,02,014,41,1*41
$GAGSV,1,1,02,30,56,313,42,27,05,310,41,7*71
$GAGSV,1,1,02,30,56,313,31,27,05,310,31,1*74
$GBGSV,1,1,02,45,61,278,31,26,14,319,44,1*77
$GBGSV,1,1,02,45,61,278,27,26,14,319,35,5*72
$GNGGA,222914.000,4000.613680,N,10514.638704,W,1,19,1.09,1616.881,M,-20.635,M,,*71
$GPGSV,3,1,09,06,79,099,38,19,53,050,45,46,37,214,33,24,37,250,31,1*60
$GPGSV,3,2,09,12,35,311,47,22,34,123,,17,29,067,34,03,08,036,27,1*6E
$GPGSV,3,3,09,25,04,310,41,1*59
$GPGSV,1,1,03,06,79,099,27,03,08,036,29,25,04,310,31,8*55
$GLGSV,2,1,05,75,76,180,36,85,69,357,45,86,46,242,29,76,38,325,48,1*72
$GLGSV,2,2,05,68,02,014,41,1*41
$GAGSV,1,1,04,34,65,199,,30,56,313,42,27,05,310,41,36,,,34,7*40
$GAGSV,1,1,02,30,56,313,32,27,05,310,31,1*77
$GBGSV,1,1,03,45,61,278,32,26,14,319,44,30,,,44,1*76
$GBGSV,1,1,02,45,61,278,27,26,14,319,35,5*72
$GNGGA,222915.000,4000.613710,N,10514.638734,W,1,19,1.09,1616.998,M,-20.634,M,,*73
$GPGSV,3,1,09,06,79,099,38,19,53,050,45,46,37,214,33,24,37,250,33,1*62
$GPGSV,3,2,09,12,35,311,47,22,34,123,22,17,29,067,34,03,08,036,28,1*61
$GPGSV,3,3,09,25,04,310,41,1*59
$GPGSV,1,1,03,06,79,099,27,03,08,036,29,25,04,310,30,8*54
$GLGSV,2,1,06,75,76,180,36,85,69,357,44,86,46,242,28,76,38,325,48,1*71
$GLGSV,2,2,06,74,21,155,,68,02,014,41,1*73
$GAGSV,1,1,04,34,65,199,,30,56,313,42,27,05,310,41,36,,,37,7*43
$GAGSV,1,1,02,30,56,313,32,27,05,310,31,1*77
$GBGSV,2,1,05,45,61,278,32,26,14,319,44,46,03,154,,35,,,32,1*46
$GBGSV,2,2,05,30,,,44,1*70
$GBGSV,1,1,02,45,61,278,28,26,14,319,36,5*7E
$GNGGA,222916.000,4000.613698,N,10514.638740,W,1,19,1.09,1616.944,M,-20.634,M,,*73
$GPGSV,3,1,09,06,79,099,38,19,53,050,45,46,37,214,33,24,37,250,34,1*65
$GPGSV,3,2,09,12,35,311,47,22,34,123,23,17,29,067,34,03,08,036,29,1*61
$GPGSV,3,3,09,25,04,310,41,1*59
$GPGSV,1,1,04,06,79,099,26,24,37,250,39,03,08,036,29,25,04,310,30,8*6D
$GLGSV,2,1,05,75,76,180,36,85,69,357,44,86,46,242,27,76,38,325,49,1*7C
$GLGSV,2,2,05,68,02,014,40,1*40
$GAGSV,1,1,04,34,65,199,,30,56,313,42,27,05,310,41,36,,,36,7*42
$GAGSV,1,1,02,30,56,313,32,27,05,310,30,1*76
$GBGSV,2,1,05,45,61,278,32,26,14,319,44,46,03,154,,30,,,44,1*42
$GBGSV,2,2,05,35,,,32,1*74
$GBGSV,1,1,02,45,61,278,28,26,14,319,36,5*7E
$GNGGA,222917.000,4000.613704,N,10514.638746,W,1,18,1.29,1616.960,M,-20.634,M,,*75
$GPGSV,3,1,09,06,79,099,38,19,53,050,45,46,37,214,33,24,37,250,33,1*62
$GPGSV,3,2,09,12,35,311,47,22,34,123,25,17,29,067,34,03,08,036,28,1*66
$GPGSV,3,3,09,25,04,310,41,1*59
$GPGSV,1,1,04,06,79,099,25,24,37,250,39,03,08,036,29,25,04,310,30,8*6E
$GLGSV,2,1,05,75,76,180,36,85,69,357,44,86,46,242,25,76,38,325,49,1*7E
$GLGSV,2,2,05,68,02,014,40,1*40
$GAGSV,1,1,04,34,65,199,17,30,56,313,42,27,05,310,41,36,,,36,7*44
$GAGSV,1,1,01,30,56,313,32,1*44
$GBGSV,2,1,05,45,61,278,32,26,14,319,44,46,03,154,,30,,,43,1*45
$GBGSV,2,2,05,35,,,20,1*77
$GBGSV,1,1,03,45,61,278,28,26,14,319,36,30,,,37,5*78
$GNGGA,222918.000,4000.613698,N,10514.638752,W,1,19,1.29,1616.941,M,-20.634,M,,*79
$GPGSV,3,1,09,06,79,099,38,19,53,050,45,46,37,214,33,24,37,250,35,1*64
$GPGSV,3,2,09,12,35,311,46,22,34,123,24,17,29,067,34,03,08,036,29,1*67
$GPGSV,3,3,09,25,04,310,41,1*59
$GPGSV,1,1,04,06,79,099,25,24,37,250,40,03,08,036,29,25,04,310,30,8*60
$GLGSV,2,1,05,75,76,180,36,85,69,357,44,86,46,242,24,76,38,325,49,1*7F
$GLGSV,2,2,05,68,02,014,40,1*40
$GAGSV,1,1,04,34,65,199,18,30,56,313,42,27,05,310,41,36,,,36,7*4B
$GAGSV,1,1,02,30,56,313,32,27,05,310,31,1*77
$GBGSV,2,1,05,45,61,278,32,26,14,319,44,46,03,154,,30,,,43,1*45
$GBGSV,2,2,05,35,,,16,1*72
$GBGSV,1,1,03,45,61,278,28,26,14,319,37,30,,,38,5*76
$GNGGA,222919.000,4000.613698,N,10514.638758,W,1,19,1.29,1616.944,M,-20.634,M,,*77
$GPGSV,3,1,09,06,79,099,38,19,53,050,45,46,37,214,33,24,37,250,35,1*64
$GPGSV,3,2,09,12,35,311,46,22,34,123,23,17,29,067,33,03,08,036,29,1*67
$GPGSV,3,3,09,25,04,310,41,1*59
$GPGSV,1,1,04,06,79,099,25,24,37,250,40,03,08,036,29,25,04,310,30,8*60
$GLGSV,2,1,05,75,76,180,36,85,69,357,44,86,46,242,22,76,38,325,49,1*79
$GLGSV,2,2,05,68,02,014,40,1*40
$GAGSV,1,1,04,34,65,199,18,30,56,313,42,27,05,310,41,36,,,37,7*4A
$GAGSV,1,1,02,30,56,313,32,27,05,310,32,1*74
$GBGSV,2,1,05,45,61,278,32,26,14,319,44,46,03,154,,30,,,43,1*45
$GBGSV,2,2,05,35,,,14,1*70
$GBGSV,1,1,03,45,61,278,28,26,14,319,37,30,,,38,5*76
$GNGGA,222920.000,4000.613704,N,10514.638764,W,2,19,1.29,1616.948,M,-20.635,M,,*78
$GPGSV,3,1,09,06,79,099,38,19,53,050,45,46,37,214,33,24,37,250,35,1*64
$GPGSV,3,2,09,12,35,311,45,22,34,123,22,17,29,067,33,03,08,036,29,1*65
$GPGSV,3,3,09,25,04,310,41,1*59
$GPGSV,1,1,04,06,79,099,25,24,37,250,40,03,08,036,29,25,04,310,29,8*68
$GLGSV,2,1,05,75,76,180,37,85,69,357,44,86,46,242,21,76,38,325,49,1*7B
$GLGSV,2,2,05,68,02,014,40,1*40
$GAGSV,1,1,04,34,65,199,19,30,56,313,42,27,05,310,41,36,,,37,7*4B
$GAGSV,1,1,02,30,56,313,32,27,05,310,30,1*76
$GBGSV,2,1,05,45,61,278,32,26,14,319,44,46,03,154,,30,,,43,1*45
$GBGSV,2,2,05,35,,,14,1*70
$GBGSV,1,1,03,45,61,278,28,26,14,319,37,30,,,37,5*79
$GNGGA,222921.000,4000.613710,N,10514.638776,W,2,19,1.29,1616.945,M,-20.634,M,,*73
$GPGSV,3,1,09,06,79,099,38,19,53,050,45,46,37,214,33,24,37,250,35,1*64
$GPGSV,3,2,09,12,35,311,45,22,34,123,22,17,29,067,33,03,08,036,29,1*65
$GPGSV,3,3,09,25,04,310,41,1*59
$GPGSV,1,1,04,06,79,099,24,24,37,250,40,03,08,036,29,25,04,310,29,8*69
$GLGSV,2,1,05,75,76,180,37,85,69,357,44,86,46,242,20,76,38,325,49,1*7A
$GLGSV,2,2,05,68,02,014,40,1*40
$GAGSV,1,1,04,34,65,199,19,30,56,313,42,27,05,310,41,36,,,37,7*4B
$GAGSV,1,1,03,30,56,313,32,27,05,310,31,36,,,33,1*73
$GBGSV,1,1,04,45,61,278,31,26,14,319,43,30,,,43,35,,,12,1*77
$GBGSV,1,1,03,45,61,278,28,26,14,319,37,30,,,37,5*79
$GNGGA,222922.000,4000.613704,N,10514.638782,W,2,19,1.29,1616.940,M,-20.634,M,,*7B
$GPGSV,3,1,09,06,79,099,38,19,53,050,45,46,37,214,33,24,37,250,35,1*64
$GPGSV,3,2,09,12,35,311,44,22,34,123,21,17,29,067,33,03,08,036,29,1*67
$GPGSV,3,3,09,25,04,310,41,1*59
$GPGSV,1,1,04,06,79,099,25,24,37,250,40,03,08,036,30,25,04,310,29,8*60
$GLGSV,2,1,05,75,76,180,37,85,69,357,44,86,46,242,19,76,38,325,49,1*70
$GLGSV,2,2,05,68,02,014,40,1*40
$GAGSV,1,1,04,34,65,199,19,30,56,313,42,27,05,310,41,36,,,37,7*4B
$GAGSV,1,1,03,30,56,313,32,27,05,310,32,36,,,34,1*77
$GBGSV,1,1,04,45,61,278,31,26,14,319,43,30,,,43,35,,,13,1*76
$GBGSV,1,1,03,45,61,278,28,26,14,319,37,30,,,37,5*79
$GNGGA,222923.000,4000.613722,N,10514.638794,W,2,19,1.29,1616.928,M,-20.634,M,,*77
$GPGSV,3,1,09,06,79,099,38,19,53,050,45,46,37,214,33,24,37,250,35,1*64
$GPGSV,3,2,09,12,35,311,44,22,34,123,20,17,29,067,33,03,08,036,30,1*6E
$GPGSV,3,3,09,25,04,310,41,1*59
$GPGSV,1,1,04,06,79,099,25,24,37,250,40,03,08,036,30,25,04,310,29,8*60
$GLGSV,2,1,05,75,76,180,37,85,69,357,44,86,46,242,19,76,38,325,49,1*70
$GLGSV,2,2,05,68,02,014,40,1*40
$GAGSV,1,1,04,34,65,199,18,30,56,313,42,27,05,310,41,36,,,37,7*4A
$GAGSV,1,1,03,30,56,313,32,27,05,310,32,36,,,32,1*71
$GBGSV,1,1,04,45,61,278,31,26,14,319,43,30,,,43,35,,,13,1*76
$GBGSV,1,1,04,45,61,278,28,26,14,319,37,35,,,26,30,,,38,5*73
$GNGGA,222924.000,4000.613722,N,10514.638812,W,2,19,1.29,1616.929,M,-20.635,M,,*71
$GPGSV,3,1,09,06,79,099,38,19,53,050,45,46,37,214,33,24,37,250,35,1*64
$GPGSV,3,2,09,12,35,311,43,22,34,123,19,17,29,067,33,03,08,036,30,1*63
$GPGSV,3,3,09,25,04,310,40,1*58
$GPGSV,1,1,04,06,79,099,25,24,37,250,39,03,08,036,30,25,04,310,28,8*6F
$GLGSV,2,1,05,75,76,180,36,85,69,357,44,86,46,242,19,76,38,325,49,1*71
$GLGSV,2,2,05,68,02,014,40,1*40
$GAGSV,1,1,04,34,65,199,,36,56,051,37,30,56,313,42,27,05,310,41,7*74
$GAGSV,1,1,03,30,56,313,31,36,56,051,31,27,05,310,29,1*4C
$GBGSV,1,1,04,45,61,278,30,26,14,319,43,30,,,43,35,,,13,1*77
$GBGSV,1,1,03,45,61,278,27,26,14,319,36,30,,,37,5*77
$GNGGA,222925.000,4000.613734,N,10514.638830,W,2,19,1.29,1616.951,M,-20.634,M,,*79
$GPGSV,3,1,09,06,79,099,38,19,53,050,45,46,37,214,33,24,37,250,35,1*64
$GPGSV,3,2,09,12,35,311,43,22,34,123,19,17,29,067,33,03,08,036,31,1*62
$GPGSV,3,3,09,25,04,310,40,1*58
$GPGSV,1,1,04,06,79,099,26,24,37,250,40,03,08,036,31,25,04,310,28,8*63
$GLGSV,2,1,05,75,76,180,36,85,69,357,44,86,46,242,20,76,38,325,49,1*7B
$GLGSV,2,2,05,68,02,014,41,1*41
$GAGSV,1,1,04,34,65,199,,36,56,051,37,30,56,313,43,27,05,310,41,7*75
$GAGSV,1,1,03,30,56,313,32,36,56,051,34,27,05,310,33,1*41
$GBGSV,1,1,04,45,61,278,31,26,14,319,43,30,,,43,35,,,13,1*76
$GBGSV,1,1,03,45,61,278,27,26,14,319,37,30,,,37,5*76
$GNGGA,222926.000,4000.613752,N,10514.638860,W,2,19,1.29,1616.950,M,-20.634,M,,*7E
$GPGSV,3,1,09,06,79,099,38,19,53,050,45,46,37,214,34,24,37,250,35,1*63
$GPGSV,3,2,09,12,35,311,43,22,34,123,19,17,29,067,33,03,08,036,31,1*62
$GPGSV,3,3,09,25,04,310,40,1*58
$GPGSV,1,1,04,06,79,099,25,24,37,250,40,03,08,036,31,25,04,310,28,8*60
$GLGSV,2,1,05,75,76,180,36,85,69,357,44,86,46,242,22,76,38,325,49,1*79
$GLGSV,2,2,05,68,02,014,41,1*41
$GAGSV,1,1,04,34,65,199,14,36,56,051,37,30,56,313,43,27,05,310,41,7*70
$GAGSV,1,1,03,30,56,313,32,36,56,051,34,27,05,310,31,1*43
$GBGSV,1,1,04,45,61,278,31,26,14,319,43,30,,,43,35,,,13,1*76
$GBGSV,1,1,03,45,61,278,27,26,14,319,37,30,,,37,5*76
$GNGGA,222927.000,4000.613758,N,10514.638884,W,2,19,1.29,1616.947,M,-20.635,M,,*78
$GPGSV,3,1,09,06,79,099,38,19,53,050,45,46,37,214,34,24,37,250,35,1*63
$GPGSV,3,2,09,12,35,311,43,22,34,123,19,17,29,067,33,03,08,036,32,1*61
$GPGSV,3,3,09,25,04,310,40,1*58
$GPGSV,1,1,04,06,79,099,25,24,37,250,40,03,08,036,31,25,04,310,28,8*60
$GLGSV,2,1,05,75,76,180,36,85,69,357,44,86,46,242,23,76,38,325,49,1*78
$GLGSV,2,2,05,68,02,014,41,1*41
$GAGSV,1,1,04,34,65,199,12,36,56,051,37,30,56,313,43,27,05,310,41,7*76
$GAGSV,1,1,03,30,56,313,32,36,56,051,33,27,05,310,32,1*47
$GBGSV,1,1,04,45,61,278,31,26,14,319,43,30,,,43,35,,,13,1*76
$GBGSV,1,1,03,45,61,278,27,26,14,319,37,30,,,37,5*76
$GNGGA,222928.000,4000.613782,N,10514.638908,W,2,19,1.29,1616.978,M,-20.634,M,,*78
$GPGSV,3,1,09,06,79,099,38,19,53,050,45,46,37,214,34,24,37,250,36,1*60
$GPGSV,3,2,09,12,35,311,43,22,34,123,19,17,29,067,33,03,08,036,32,1*61
$GPGSV,3,3,09,25,04,310,40,1*58
$GPGSV,1,1,04,06,79,099,25,24,37,250,40,03,08,036,31,25,04,310,28,8*60
$GLGSV,2,1,05,75,76,180,36,85,69,357,43,86,46,242,24,76,38,325,49,1*78
$GLGSV,2,2,05,68,02,014,41,1*41
$GAGSV,1,1,04,34,65,199,12,36,56,051,37,30,56,313,43,27,05,310,41,7*76
$GAGSV,1,1,03,30,56,313,32,36,56,051,34,27,05,310,32,1*40
$GBGSV,1,1,04,45,61,278,31,26,14,319,43,30,,,43,35,,,13,1*76
$GBGSV,1,1,03,45,61,278,27,26,14,319,37,30,,,37,5*76
$GNGGA,222929.000,4000.613782,N,10514.638932,W,2,19,1.29,1616.983,M,-20.634,M,,*74
$GPGSV,3,1,09,06,79,099,38,19,53,050,45,46,37,214,34,24,37,250,36,1*60
$GPGSV,3,2,09,12,35,311,43,22,34,123,20,17,29,067,33,03,08,036,33,1*6A
$GPGSV,3,3,09,25,04,310,40,1*58
$GPGSV,1,1,04,06,79,099,25,24,37,250,40,03,08,036,31,25,04,310,28,8*60
$GLGSV,2,1,05,75,76,180,36,85,69,357,43,86,46,242,25,76,38,325,49,1*79
$GLGSV,2,2,05,68,02,014,41,1*41
$GAGSV,1,1,04,34,65,199,13,36,56,051,37,30,56,313,43,27,05,310,41,7*77
$GAGSV,1,1,03,30,56,313,32,36,56,051,33,27,05,310,32,1*47
$GBGSV,1,1,04,45,61,278,31,26,14,319,43,30,,,43,35,,,13,1*76
$GBGSV,1,1,03,45,61,278,27,26,14,319,37,30,,,37,5*76
$GNGGA,222930.000,4000.613812,N,10514.638956,W,2,21,1.26,1617.037,M,-20.634,M,,*7B
$GPGSV,3,1,09,06,79,099,38,19,53,050,45,46,37,214,34,24,37,250,37,1*61
$GPGSV,3,2,09,12,35,311,43,22,34,123,20,17,29,067,33,03,08,036,33,1*6A
$GPGSV,3,3,09,25,04,310,40,1*58
$GPGSV,1,1,04,06,79,099,25,24,37,250,40,03,08,036,31,25,04,310,28,8*60
$GLGSV,2,1,05,75,76,180,36,85,69,357,43,86,46,242,26,76,38,325,49,1*7A
$GLGSV,2,2,05,68,02,014,41,1*41
$GAGSV,1,1,04,34,65,199,14,36,56,051,37,30,56,313,43,27,05,310,41,7*70
$GAGSV,1,1,03,36,56,051,35,30,56,313,32,27,05,310,33,1*40
$GBGSV,1,1,04,45,61,278,31,30,46,050,43,26,14,319,43,35,,,13,1*41
$GBGSV,1,1,03,45,61,278,28,30,46,050,38,26,14,319,38,5*4E
$GNGGA,222931.000,4000.613812,N,10514.638992,W,2,21,1.26,1617.011,M,-20.634,M,,*76
$GPGSV,3,1,09,06,79,099,39,19,53,050,45,46,37,214,34,24,37,250,37,1*60
$GPGSV,3,2,09,12,35,311,43,22,34,123,21,17,29,067,33,03,08,036,33,1*6B
$GPGSV,3,3,09,25,04,310,39,1*56
$GPGSV,1,1,04,06,79,099,25,24,37,250,40,03,08,036,31,25,04,310,29,8*61
$GLGSV,2,1,05,75,76,180,36,85,69,357,43,86,46,242,26,76,38,325,49,1*7A
$GLGSV,2,2,05,68,02,014,41,1*41
$GAGSV,1,1,04,34,65,199,14,36,56,051,37,30,56,313,43,27,05,310,41,7*70
$GAGSV,1,1,03,36,56,051,34,30,56,313,32,27,05,310,33,1*41
$GBGSV,1,1,04,45,61,278,31,30,46,050,43,26,14,319,43,35,,,12,1*40
$GBGSV,1,1,03,45,61,278,28,30,46,050,38,26,14,319,38,5*4E
$GNGGA,222932.000,4000.613818,N,10514.639022,W,2,21,1.26,1617.002,M,-20.634,M,,*7E
$GPGSV,3,1,09,06,79,099,39,19,53,050,45,46,37,214,34,24,37,250,37,1*60
$GPGSV,3,2,09,12,35,311,43,22,34,123,22,17,29,067,33,03,08,036,33,1*68
$GPGSV,3,3,09,25,04,310,38,1*57
$GPGSV,1,1,04,06,79,099,25,24,37,250,40,03,08,036,31,25,04,310,29,8*61
$GLGSV,2,1,05,75,76,180,35,85,69,357,43,86,46,242,27,76,38,325,49,1*78
$GLGSV,2,2,05,68,02,013,42,1*45
$GAGSV,1,1,04,34,65,199,15,36,56,051,37,30,56,313,43,27,05,310,41,7*71
$GAGSV,1,1,03,36,56,051,34,30,56,313,32,27,05,310,33,1*41
$GBGSV,1,1,04,45,61,278,32,30,46,050,43,26,14,319,43,35,,,12,1*43
$GBGSV,1,1,03,45,61,278,28,30,46,050,38,26,14,319,38,5*4E
$GNGGA,222933.000,4000.613824,N,10514.639046,W,2,21,1.26,1617.019,M,-20.634,M,,*78
$GPGSV,3,1,09,06,79,099,39,19,53,050,45,46,37,214,34,24,37,250,37,1*60
$GPGSV,3,2,09,12,35,311,43,22,34,123,22,17,29,067,33,03,08,036,33,1*68
$GPGSV,3,3,09,25,04,310,38,1*57
$GPGSV,1,1,04,06,79,099,25,24,37,250,40,03,08,036,31,25,04,310,29,8*61
$GLGSV,2,1,05,75,76,180,35,85,69,357,43,86,46,242,25,76,38,325,49,1*7A
$GLGSV,2,2,05,68,02,013,42,1*45
$GAGSV,1,1,04,34,65,199,15,36,56,051,37,30,56,313,43,27,05,310,41,7*71
$GAGSV,1,1,03,36,56,051,34,30,56,313,31,27,05,310,31,1*40
$GBGSV,1,1,04,45,61,278,32,30,46,050,43,26,14,319,43,35,,,12,1*43
$GBGSV,1,1,03,45,61,278,28,30,46,050,37,26,14,319,37,5*4E
$GNGGA,222934.000,4000.613854,N,10514.639094,W,2,21,1.26,1617.032,M,-20.635,M,,*7F
$GPGSV,3,1,09,06,79,099,39,19,53,050,45,46,37,214,34,24,37,250,37,1*60
$GPGSV,3,2,09,12,35,311,43,22,34,123,22,17,29,067,33,03,08,036,33,1*68
$GPGSV,3,3,09,25,04,310,37,1*58
$GPGSV,1,1,04,06,79,099,25,24,37,250,40,03,08,036,31,25,04,310,29,8*61
$GLGSV,2,1,05,75,76,180,35,85,69,357,43,86,46,242,23,76,38,325,49,1*7C
$GLGSV,2,2,05,68,02,013,42,1*45
$GAGSV,1,1,04,34,65,199,15,36,56,051,37,30,56,313,43,27,05,310,42,7*72
$GAGSV,1,1,03,36,56,051,34,30,56,313,31,27,05,310,34,1*45
$GBGSV,1,1,04,45,61,278,32,30,46,050,43,26,14,319,43,35,,,12,1*43
$GBGSV,1,1,03,45,61,278,28,30,46,050,37,26,14,319,37,5*4E
$GNGGA,222935.000,4000.613866,N,10514.639106,W,2,21,1.26,1617.075,M,-20.635,M,,*76
$GPGSV,3,1,09,06,79,099,39,19,53,050,45,46,37,214,34,24,37,250,37,1*60
$GPGSV,3,2,09,12,35,311,43,22,34,123,,17,29,067,33,03,08,036,33,1*68
$GPGSV,3,3,09,25,04,310,36,1*59
$GPGSV,1,1,04,06,79,099,25,24,37,250,40,03,08,036,31,25,04,310,29,8*61
$GLGSV,2,1,05,75,76,180,35,85,69,357,43,86,46,242,22,76,38,325,49,1*7D
$GLGSV,2,2,05,68,02,013,42,1*45
$GAGSV,1,1,04,34,65,199,14,30,56,313,43,36,56,051,37,27,05,310,42,7*73
$GAGSV,1,1,03,36,56,051,34,30,56,313,31,27,05,310,32,1*43
$GBGSV,1,1,03,45,61,278,32,30,46,050,43,26,14,319,43,1*41
$GBGSV,1,1,03,45,61,278,27,30,46,050,37,26,14,319,37,5*41
$GNGGA,222936.000,4000.613884,N,10514.639142,W,2,21,1.26,1617.049,M,-20.634,M,,*77
$GPGSV,3,1,09,06,79,099,39,19,53,050,45,46,37,214,34,24,37,250,36,1*61
$GPGSV,3,2,09,12,35,311,43,22,34,123,,17,29,067,33,03,08,036,32,1*69
$GPGSV,3,3,09,25,04,310,36,1*59
$GPGSV,1,1,04,06,79,099,25,24,37,250,40,03,08,036,31,25,04,310,29,8*61
$GLGSV,2,1,05,75,76,180,35,85,69,357,43,86,46,242,21,76,38,325,50,1*76
$GLGSV,2,2,05,68,02,013,42,1*45
$GAGSV,1,1,04,34,65,199,,30,56,313,43,36,56,051,37,27,05,310,42,7*76
$GAGSV,1,1,03,36,56,051,34,30,56,313,31,27,05,310,32,1*43
$GBGSV,1,1,03,45,61,278,32,30,46,050,43,26,14,319,43,1*41
$GBGSV,1,1,03,45,61,278,27,30,46,050,37,26,14,319,37,5*41
$GNGGA,222937.000,4000.613974,N,10514.639082,W,2,23,1.10,1617.085,M,-20.634,M,,*72
$GPGSV,3,1,09,06,79,099,39,19,53,050,45,46,37,214,34,24,37,250,36,1*61
$GPGSV,3,2,09,12,35,311,44,22,34,123,,17,29,067,33,03,08,036,32,1*6E
$GPGSV,3,3,09,25,04,310,36,1*59
$GPGSV,1,1,04,06,79,099,25,24,37,250,40,03,08,036,31,25,04,310,28,8*60
$GLGSV,2,1,05,75,76,180,35,85,69,357,43,86,46,242,18,76,38,325,50,1*7C
$GLGSV,2,2,05,68,02,013,42,1*45
$GAGSV,1,1,04,34,65,199,,30,56,313,43,36,56,051,,27,05,310,42,7*72
$GAGSV,1,1,03,36,56,051,34,30,56,313,31,27,05,310,32,1*43
$GBGSV,1,1,03,45,61,278,32,30,46,050,43,26,14,319,43,1*41
$GBGSV,1,1,03,45,61,278,27,30,46,050,37,26,14,319,37,5*41
$GNGGA,222938.000,4000.614016,N,10514.638986,W,2,22,1.10,1617.026,M,-20.635,M,,*72
$GPGSV,3,1,09,06,79,099,39,19,53,050,45,46,37,214,34,24,37,250,36,1*61
$GPGSV,3,2,09,12,35,311,44,22,34,123,,17,29,067,34,03,08,036,31,1*6A
$GPGSV,3,3,09,25,04,310,36,1*59
$GPGSV,1,1,04,06,79,099,25,24,37,250,40,03,08,036,31,25,04,310,28,8*60
$GLGSV,2,1,05,75,76,180,35,85,69,357,43,86,46,242,16,76,38,325,50,1*72
$GLGSV,2,2,05,68,02,013,42,1*45
$GAGSV,1,1,03,30,56,313,44,36,56,051,37,27,05,310,42,7*43
$GAGSV,1,1,03,36,56,051,34,30,56,313,31,27,05,310,32,1*43
$GBGSV,1,1,03,45,61,278,32,30,46,050,,26,14,319,43,1*46
$GBGSV,1,1,03,45,61,278,27,30,46,050,37,26,14,319,37,5*41
$GNGGA,222939.000,4000.614070,N,10514.638890,W,2,23,1.10,1617.022,M,-20.635,M,,*70
$GPGSV,3,1,09,06,79,099,39,19,53,050,45,46,37,214,34,24,37,250,36,1*61
$GPGSV,3,2,09,12,35,311,44,22,34,123,,17,29,067,34,03,08,036,31,1*6A
$GPGSV,3,3,09,25,04,310,36,1*59
$GPGSV,1,1,04,06,79,099,25,24,37,250,40,03,08,036,31,25,04,310,27,8*6F
$GLGSV,2,1,05,75,75,180,35,85,69,357,43,86,46,242,16,76,38,325,50,1*71
$GLGSV,2,2,05,68,02,013,43,1*44
$GAGSV,1,1,04,34,65,199,,30,56,313,44,36,56,051,38,27,05,310,42,7*7E
$GAGSV,1,1,03,36,56,051,34,30,56,313,31,27,05,310,32,1*43
$GBGSV,1,1,03,45,61,278,33,30,46,050,43,26,14,319,43,1*40
$GBGSV,1,1,03,45,61,278,27,30,46,050,37,26,14,319,37,5*41
$GNGGA,222940.000,4000.614130,N,10514.638776,W,2,23,1.10,1617.007,M,-20.635,M,,*7B
$GPGSV,3,1,09,06,79,099,39,19,53,050,45,46,37,214,34,24,37,250,35,1*62
$GPGSV,3,2,09,12,35,311,44,22,34,123,,17,29,067,34,03,08,036,31,1*6A
$GPGSV,3,3,09,25,04,310,36,1*59
$GPGSV,1,1,04,06,79,099,25,24,37,250,40,03,08,036,31,25,04,310,27,8*6F
$GLGSV,2,1,06,75,75,180,35,85,69,357,43,86,46,242,20,76,39,324,50,1*77
$GLGSV,2,2,06,74,20,155,,68,02,013,43,1*77
$GAGSV,1,1,03,30,56,313,44,36,56,051,37,27,05,310,42,7*43
$GAGSV,1,1,03,36,56,051,34,30,56,313,31,27,05,310,32,1*43
$GBGSV,1,1,03,45,61,278,33,30,46,050,44,26,14,319,43,1*47
$GBGSV,1,1,03,45,61,278,27,30,46,050,37,26,14,319,37,5*41
$GNGGA,222941.000,4000.614190,N,10514.638656,W,2,23,1.10,1617.012,M,-20.634,M,,*76
$GPGSV,3,1,09,06,79,099,39,19,53,050,45,46,37,214,34,24,37,250,35,1*62
$GPGSV,3,2,09,12,35,311,45,22,34,123,,17,29,067,34,03,08,036,32,1*68
$GPGSV,3,3,09,25,04,310,36,1*59
$GPGSV,1,1,04,06,79,099,24,24,37,250,40,03,08,036,31,25,04,310,27,8*6E
$GLGSV,2,1,07,75,75,180,35,85,69,357,44,86,46,242,22,76,39,324,50,1*73
$GLGSV,2,2,07,74,20,155,,84,16,039,,68,02,013,43,1*47
$GAGSV,1,1,03,30,56,313,44,36,56,051,37,27,05,310,42,7*43
$GAGSV,1,1,03,36,56,051,34,30,56,313,31,27,05,310,32,1*43
$GBGSV,2,1,05,45,61,278,33,30,46,050,44,26,14,319,43,46,03,154,,1*73
$GBGSV,2,2,05,39,02,338,,1*43
$GBGSV,1,1,03,45,61,278,27,30,46,050,37,26,14,319,37,5*41
$GNGGA,222942.000,4000.614256,N,10514.638530,W,2,23,1.10,1617.006,M,-20.634,M,,*7A
$GPGSV,3,1,09,06,79,099,39,19,53,050,45,46,37,214,34,24,37,250,35,1*62
$GPGSV,3,2,09,12,35,311,45,22,34,123,,17,29,067,34,03,08,036,33,1*69
$GPGSV,3,3,09,25,04,310,36,1*59
$GPGSV,1,1,04,06,79,099,24,24,37,250,40,03,08,036,31,25,04,310,27,8*6E
$GLGSV,2,1,07,75,75,180,35,85,69,357,44,86,46,242,23,76,39,324,50,1*72
$GLGSV,2,2,07,74,20,155,,84,16,039,,68,02,013,43,1*47
$GAGSV,1,1,03,30,56,313,44,36,56,051,37,27,05,310,42,7*43
$GAGSV,1,1,03,36,56,051,34,30,56,313,31,27,05,310,32,1*43
$GBGSV,2,1,05,45,61,278,33,30,46,050,43,26,14,319,43,46,03,154,,1*74
$GBGSV,2,2,05,39,02,338,,1*43
$GBGSV,1,1,03,45,61,278,27,30,46,050,37,26,14,319,37,5*41
$GNGGA,222943.000,4000.614304,N,10514.638386,W,2,23,1.10,1616.978,M,-20.634,M,,*77
$GPGSV,3,1,09,06,79,099,39,19,53,050,45,46,37,214,34,24,37,250,35,1*62
$GPGSV,3,2,09,12,35,311,45,22,34,123,,17,29,067,34,03,08,036,34,1*6E
$GPGSV,3,3,09,25,04,310,36,1*59
$GPGSV,1,1,04,06,79,099,24,24,37,250,40,03,08,036,31,25,04,310,27,8*6E
$GLGSV,2,1,06,75,75,180,35,85,69,357,44,86,46,242,24,76,39,324,50,1*74
$GLGSV,2,2,06,84,16,039,,68,02,013,43,1*76
$GAGSV,1,1,03,30,56,313,44,36,56,051,37,27,05,310,42,7*43
$GAGSV,1,1,03,36,56,051,34,30,56,313,31,27,05,310,32,1*43
$GBGSV,2,1,05,45,61,278,33,30,46,050,43,26,14,319,43,46,03,154,,1*74
$GBGSV,2,2,05,39,02,338,21,1*40
$GBGSV,1,1,03,45,61,278,27,30,46,050,37,26,14,319,37,5*41
$GNGGA,222944.000,4000.614358,N,10514.638242,W,2,23,1.10,1616.973,M,-20.634,M,,*7B
$GPGSV,3,1,09,06,79,099,39,19,53,050,45,46,37,214,34,24,37,250,35,1*62
$GPGSV,3,2,09,12,35,311,45,22,34,123,,17,29,067,34,03,08,036,34,1*6E
$GPGSV,3,3,09,25,04,310,35,1*5A
$GPGSV,1,1,04,06,79,099,24,24,37,250,40,03,08,036,31,25,04,310,27,8*6E
$GLGSV,2,1,05,75,75,180,34,85,69,357,44,86,46,242,24,76,39,324,50,1*76
$GLGSV,2,2,05,68,02,013,43,1*44
$GAGSV,1,1,03,30,56,313,44,36,56,051,37,27,05,310,42,7*43
$GAGSV,1,1,03,36,56,051,34,30,56,313,31,27,05,310,32,1*43
$GBGSV,2,1,05,45,61,278,33,30,46,050,43,26,14,319,43,46,03,154,,1*74
$GBGSV,2,2,05,39,02,338,25,1*44
$GBGSV,1,1,03,45,61,278,27,30,46,050,37,26,14,319,37,5*41
$GNGGA,222945.000,4000.614406,N,10514.638104,W,2,23,1.10,1616.929,M,-20.635,M,,*79
$GPGSV,3,1,09,06,79,099,39,19,53,050,45,46,37,214,34,24,37,250,35,1*62
$GPGSV,3,2,09,12,35,311,45,22,34,123,,17,29,067,34,03,08,036,35,1*6F
$GPGSV,3,3,09,25,04,310,35,1*5A
$GPGSV,1,1,04,06,79,099,24,24,37,250,40,03,08,036,31,25,04,310,27,8*6E
$GLGSV,2,1,05,75,75,180,34,85,69,357,44,86,46,242,25,76,39,324,50,1*77
$GLGSV,2,2,05,68,02,013,44,1*43
$GAGSV,1,1,03,30,56,313,44,36,56,051,37,27,05,310,42,7*43
$GAGSV,1,1,03,36,56,051,34,30,56,313,31,27,05,310,32,1*43
$GBGSV,2,1,05,45,61,278,33,30,46,050,43,26,14,319,43,46,03,154,,1*74
$GBGSV,2,2,05,39,02,338,25,1*44
$GBGSV,1,1,03,45,61,278,27,30,46,050,37,26,14,319,36,5*40
$GNGGA,222946.000,4000.614490,N,10514.637990,W,2,23,1.10,1616.901,M,-20.634,M,,*74
$GPGSV,3,1,09,06,79,099,39,19,53,050,45,46,37,214,34,24,37,250,35,1*62
$GPGSV,3,2,09,12,35,311,45,22,34,123,,17,29,067,34,03,08,036,35,1*6F
$GPGSV,3,3,09,25,04,310,36,1*59
$GPGSV,1,1,04,06,79,099,25,24,37,250,41,03,08,036,32,25,04,310,29,8*63
$GLGSV,2,1,05,75,75,180,34,85,69,357,44,86,46,242,25,76,39,324,50,1*77
$GLGSV,2,2,05,68,02,013,44,1*43
$GAGSV,1,1,03,30,56,313,44,36,56,051,37,27,05,310,42,7*43
$GAGSV,1,1,03,30,56,313,32,36,56,051,35,27,05,310,33,1*40
$GBGSV,2,1,05,45,61,278,33,30,46,050,43,26,14,319,43,46,03,154,,1*74
$GBGSV,2,2,05,39,02,338,24,1*45
$GBGSV,1,1,04,45,61,278,28,30,46,050,38,26,14,319,36,39,02,338,30,5*74
$GNGGA,222947.000,4000.614556,N,10514.637900,W,2,23,1.10,1616.855,M,-20.634,M,,*77
$GPGSV,3,1,09,06,79,099,39,19,53,050,45,46,37,214,34,24,37,250,35,1*62
$GPGSV,3,2,09,12,35,311,45,22,34,123,,17,29,067,34,03,08,036,35,1*6F
$GPGSV,3,3,09,25,04,310,36,1*59
$GPGSV,1,1,04,06,79,099,25,24,37,250,41,03,08,036,32,25,04,310,29,8*63
$GLGSV,2,1,05,75,75,180,35,85,69,357,44,86,46,242,25,76,39,324,49,1*7E
$GLGSV,2,2,05,68,02,013,44,1*43
$GAGSV,1,1,03,30,56,313,44,36,56,051,37,27,05,310,42,7*43
$GAGSV,1,1,03,30,56,313,31,36,56,051,35,27,05,310,33,1*43
$GBGSV,2,1,05,45,61,278,33,30,46,050,43,26,14,319,43,46,03,154,13,1*76
$GBGSV,2,2,05,39,02,338,25,1*44
$GBGSV,1,1,04,45,61,278,28,30,46,050,38,26,14,319,36,39,02,338,30,5*74
$GNGGA,222948.000,4000.614628,N,10514.637786,W,2,23,1.10,1616.828,M,-20.634,M,,*78
$GPGSV,3,1,09,06,79,099,39,19,53,050,45,46,37,214,34,24,37,250,35,1*62
$GPGSV,3,2,09,12,35,311,45,22,34,123,,17,29,067,34,03,08,036,35,1*6F
$GPGSV,3,3,09,25,04,310,36,1*59
$GPGSV,1,1,04,06,79,099,25,24,37,250,41,03,08,036,32,25,04,310,29,8*63
$GLGSV,2,1,05,75,75,180,36,85,69,357,44,86,46,242,24,76,39,324,49,1*7C
$GLGSV,2,2,05,68,02,013,44,1*43
$GAGSV,1,1,03,30,56,313,44,36,56,051,38,27,05,310,42,7*4C
$GAGSV,1,1,03,30,56,313,31,36,56,051,35,27,05,310,34,1*44
$GBGSV,2,1,05,45,61,278,33,30,46,050,43,26,14,319,44,46,03,154,13,1*71
$GBGSV,2,2,05,39,02,338,24,1*45
$GBGSV,1,1,04,45,61,278,28,30,46,050,38,26,14,319,36,39,02,338,30,5*74
$GNGGA,222949.000,4000.614682,N,10514.637696,W,2,23,1.10,1616.801,M,-20.634,M,,*72
$GPGSV,3,1,09,06,79,099,39,19,53,050,45,46,37,214,34,24,37,250,35,1*62
$GPGSV,3,2,09,12,35,311,45,22,34,123,,17,29,067,34,03,08,036,36,1*6C
$GPGSV,3,3,09,25,04,310,36,1*59
$GPGSV,1,1,04,06,79,099,25,24,37,250,41,03,08,036,32,25,04,310,29,8*63
$GLGSV,2,1,05,75,75,180,35,85,68,359,44,86,46,242,23,76,39,324,49,1*77
$GLGSV,2,2,05,68,02,013,44,1*43
$GAGSV,1,1,03,30,56,313,44,36,56,051,38,27,05,310,42,7*4C
$GAGSV,1,1,03,30,56,313,31,36,56,051,35,27,05,310,34,1*44
$GBGSV,2,1,05,45,61,278,33,30,46,050,43,26,14,319,44,46,03,154,15,1*77
$GBGSV,2,2,05,39,02,338,24,1*45
$GBGSV,1,1,04,45,61,278,28,30,46,050,38,26,14,319,36,39,02,338,30,5*74
$GNGGA,222950.000,4000.614712,N,10514.637630,W,2,23,1.10,1616.785,M,-20.634,M,,*7D
$GPGSV,3,1,09,06,79,099,39,19,53,050,45,46,37,214,34,24,37,250,35,1*62
$GPGSV,3,2,09,12,35,311,45,22,34,123,,17,29,067,34,03,08,036,36,1*6C
$GPGSV,3,3,09,25,04,310,36,1*59
$GPGSV,1,1,04,06,79,099,25,24,37,250,41,03,08,036,31,25,04,310,28,8*61
$GLGSV,2,1,05,75,75,180,35,85,68,359,44,86,46,243,22,76,39,324,49,1*77
$GLGSV,2,2,05,68,02,013,44,1*43
$GAGSV,1,1,03,30,56,313,44,36,56,051,38,27,05,310,42,7*4C
$GAGSV,1,1,03,30,56,313,31,36,56,051,35,27,05,310,34,1*44
$GBGSV,2,1,05,45,61,278,33,30,46,050,43,26,14,319,44,46,03,154,14,1*76
$GBGSV,2,2,05,39,02,338,24,1*45
$GBGSV,1,1,04,45,61,278,28,30,46,050,38,26,14,319,36,39,02,338,29,5*7C
$GNGGA,222951.000,4000.614754,N,10514.637570,W,2,23,1.10,1616.774,M,-20.634,M,,*77
$GPGSV,3,1,09,06,79,099,39,19,53,050,45,46,37,214,34,24,37,250,35,1*62
$GPGSV,3,2,09,12,35,311,45,22,34,123,,17,29,067,34,03,08,036,36,1*6C
$GPGSV,3,3,09,25,04,310,36,1*59
$GPGSV,1,1,04,06,79,099,25,24,37,250,41,03,08,036,31,25,04,310,28,8*61
$GLGSV,2,1,05,75,75,180,34,85,68,359,44,86,46,243,15,76,39,324,49,1*72
$GLGSV,2,2,05,68,02,013,44,1*43
$GAGSV,1,1,03,30,56,313,44,36,56,051,38,27,05,310,42,7*4C
$GAGSV,1,1,03,30,56,313,31,36,56,051,35,27,05,310,34,1*44
$GBGSV,2,1,05,45,61,278,34,30,46,050,43,26,14,319,44,46,03,154,14,1*71
$GBGSV,2,2,05,39,02,338,24,1*45
$GBGSV,1,1,04,45,61,278,27,30,46,050,38,26,14,319,36,39,02,338,30,5*7B
$GNGGA,222952.000,4000.614778,N,10514.637498,W,2,23,1.10,1616.778,M,-20.634,M,,*71
$GPGSV,3,1,09,06,79,099,39,19,53,050,45,46,37,214,34,24,37,250,35,1*62
$GPGSV,3,2,09,12,35,311,45,22,34,123,,17,29,067,34,03,08,036,36,1*6C
$GPGSV,3,3,09,25,04,310,36,1*59
$GPGSV,1,1,04,06,79,099,25,24,37,250,41,03,08,036,31,25,04,310,28,8*61
$GLGSV,2,1,05,75,75,180,34,85,68,359,44,86,46,243,15,76,39,324,49,1*72
$GLGSV,2,2,05,68,02,013,44,1*43
$GAGSV,1,1,03,30,56,313,44,36,56,051,38,27,05,310,42,7*4C
$GAGSV,1,1,03,30,56,313,31,36,56,051,35,27,05,310,34,1*44
$GBGSV,2,1,05,45,61,278,34,30,46,050,43,26,14,319,44,46,03,154,15,1*70
$GBGSV,2,2,05,39,02,338,24,1*45
$GBGSV,1,1,04,45,61,278,27,30,46,050,38,26,14,319,36,39,02,338,30,5*7B
$GNGGA,222953.000,4000.614814,N,10514.637420,W,2,23,1.10,1616.774,M,-20.634,M,,*7A
$GPGSV,3,1,09,06,79,099,38,19,53,050,45,46,37,214,34,24,37,250,34,1*62
$GPGSV,3,2,09,12,35,311,45,22,34,123,,17,29,067,34,03,08,036,36,1*6C
$GPGSV,3,3,09,25,04,310,37,1*58
$GPGSV,1,1,04,06,79,099,25,24,37,250,41,03,08,036,31,25,04,310,28,8*61
$GLGSV,2,1,05,75,75,180,34,85,68,359,44,86,46,243,15,76,39,324,49,1*72
$GLGSV,2,2,05,68,02,013,44,1*43
$GAGSV,1,1,03,30,56,313,44,36,56,051,38,27,05,310,42,7*4C
$GAGSV,1,1,03,30,56,313,31,36,56,051,35,27,05,310,34,1*44
$GBGSV,2,1,05,45,61,278,35,30,46,050,43,26,14,319,44,46,03,154,15,1*71
$GBGSV,2,2,05,39,02,338,23,1*42
$GBGSV,1,1,04,45,61,278,27,30,46,050,38,26,14,319,36,39,02,338,30,5*7B
$GNGGA,222954.000,4000.614838,N,10514.637330,W,2,23,1.10,1616.781,M,-20.634,M,,*7F
$GPGSV,3,1,09,06,79,099,38,19,53,050,45,46,37,214,34,24,37,250,34,1*62
$GPGSV,3,2,09,12,35,311,46,22,34,123,,17,29,067,35,03,08,036,36,1*6E
$GPGSV,3,3,09,25,04,310,37,1*58
$GPGSV,1,1,04,06,79,099,25,24,37,250,41,03,08,036,31,25,04,310,28,8*61
$GLGSV,2,1,05,75,75,180,34,85,68,359,44,86,46,243,15,76,39,324,49,1*72
$GLGSV,2,2,05,68,02,013,45,1*42
$GAGSV,1,1,03,30,56,313,45,36,56,051,38,27,05,310,42,7*4D
$GAGSV,1,1,03,30,56,313,31,36,56,051,35,27,05,310,34,1*44
$GBGSV,2,1,05,45,61,278,35,30,46,050,43,26,14,319,44,46,03,154,15,1*71
$GBGSV,2,2,05,39,02,338,23,1*42
$GBGSV,1,1,04,45,61,278,27,30,46,050,38,26,14,319,36,39,02,338,30,5*7B
$GNGGA,222955.000,4000.614838,N,10514.637210,W,2,23,1.10,1616.801,M,-20.635,M,,*7B
$GPGSV,3,1,09,06,79,099,38,19,53,050,45,46,37,214,34,24,37,250,34,1*62
$GPGSV,3,2,09,12,35,311,46,22,34,123,,17,29,067,35,03,08,036,36,1*6E
$GPGSV,3,3,09,25,04,310,37,1*58
$GPGSV,1,1,04,06,79,099,24,24,37,250,41,03,08,036,31,25,04,310,28,8*60
$GLGSV,2,1,05,75,75,180,34,85,68,359,44,86,46,243,18,76,39,324,49,1*7F
$GLGSV,2,2,05,68,02,013,45,1*42
$GAGSV,1,1,03,30,56,313,45,36,56,051,38,27,05,310,42,7*4D
$GAGSV,1,1,03,30,56,313,30,36,56,051,35,27,05,310,34,1*45
$GBGSV,2,1,05,45,61,278,35,30,46,050,43,26,14,319,44,46,03,154,15,1*71
$GBGSV,2,2,05,39,02,338,23,1*42
$GBGSV,1,1,04,45,61,278,27,30,46,050,38,26,14,319,36,39,02,338,29,5*73
$GNGGA,222956.000,4000.614826,N,10514.637054,W,2,23,1.10,1616.834,M,-20.635,M,,*73
$GPGSV,3,1,09,06,79,099,38,19,53,050,45,46,37,214,34,24,37,250,34,1*62
$GPGSV,3,2,09,12,35,311,46,22,34,123,,17,29,067,35,03,08,036,36,1*6E
$GPGSV,3,3,09,25,04,310,38,1*57
$GPGSV,1,1,04,06,79,099,24,24,37,250,41,03,08,036,31,25,04,310,29,8*61
$GLGSV,2,1,05,75,75,180,34,85,68,359,43,86,46,243,22,76,39,324,49,1*71
$GLGSV,2,2,05,68,02,013,46,1*41
$GAGSV,1,1,03,30,56,313,45,36,56,051,38,27,05,310,43,7*4C
$GAGSV,1,1,03,30,56,313,30,36,56,051,35,27,05,310,34,1*45
$GBGSV,2,1,05,45,61,278,35,30,46,050,43,26,14,319,44,46,03,154,15,1*71
$GBGSV,2,2,05,39,02,338,23,1*42
$GBGSV,1,1,04,45,61,278,27,30,46,050,38,26,14,319,35,39,02,338,29,5*70
$GNGGA,222957.000,4000.614826,N,10514.636928,W,2,23,1.10,1616.849,M,-20.634,M,,*7A
$GPGSV,3,1,09,06,79,099,38,19,53,050,45,46,37,214,34,24,37,250,34,1*62
$GPGSV,3,2,09,12,35,311,46,22,34,123,,17,29,067,35,03,08,036,36,1*6E
$GPGSV,3,3,09,25,04,310,38,1*57
$GPGSV,1,1,04,06,79,099,24,24,37,250,41,03,08,036,31,25,04,310,29,8*61
$GLGSV,2,1,05,75,75,180,34,85,68,359,42,86,46,243,25,76,39,324,48,1*76
$GLGSV,2,2,05,68,02,013,46,1*41
$GAGSV,1,1,03,30,56,313,45,36,56,051,38,27,05,310,43,7*4C
$GAGSV,1,1,03,30,56,313,30,36,56,051,35,27,05,310,34,1*45
$GBGSV,2,1,05,45,61,278,35,30,46,050,43,26,14,319,44,46,03,154,15,1*71
$GBGSV,2,2,05,39,02,338,24,1*45
$GBGSV,1,1,04,45,61,278,27,30,46,050,38,26,14,319,35,39,02,338,29,5*70
$GNGGA,222958.000,4000.614832,N,10514.636802,W,2,23,1.10,1616.876,M,-20.634,M,,*75
$GPGSV,3,1,09,06,79,099,38,19,53,050,45,46,37,214,34,24,37,250,34,1*62
$GPGSV,3,2,09,12,35,311,46,22,34,123,,17,29,067,35,03,08,036,36,1*6E
$GPGSV,3,3,09,25,04,310,38,1*57
$GPGSV,1,1,04,06,79,099,24,24,37,250,41,03,08,036,31,25,04,310,30,8*69
$GLGSV,2,1,05,75,75,180,33,85,68,359,43,86,46,243,26,76,39,324,48,1*73
$GLGSV,2,2,05,68,02,013,45,1*42
$GAGSV,1,1,03,30,56,313,45,36,56,051,39,27,05,310,43,7*4D
$GAGSV,1,1,03,30,56,313,30,36,56,051,35,27,05,310,34,1*45
$GBGSV,2,1,05,45,61,278,35,30,46,050,43,26,14,319,45,46,03,154,15,1*70
$GBGSV,2,2,05,39,02,338,24,1*45
$GBGSV,1,1,04,45,61,278,27,30,46,050,38,26,14,319,35,39,02,338,29,5*70
$GNGGA,222959.000,4000.614820,N,10514.636682,W,2,23,1.10,1616.934,M,-20.635,M,,*77
$GPGSV,3,1,09,06,79,099,38,19,53,050,45,46,37,214,34,24,37,250,34,1*62
$GPGSV,3,2,09,12,35,311,46,22,34,123,,17,29,067,35,03,08,036,36,1*6E
$GPGSV,3,3,09,25,04,310,38,1*57
$GPGSV,1,1,04,06,79,099,23,24,37,250,40,03,08,036,30,25,04,310,30,8*6E
$GLGSV,2,1,05,75,75,180,32,85,68,359,43,86,46,243,27,76,39,324,48,1*73
$GLGSV,2,2,05,68,02,013,45,1*42
$GAGSV,1,1,03,30,56,313,45,36,56,051,39,27,05,310,43,7*4D
$GAGSV,1,1,03,30,56,313,29,36,56,051,34,27,05,310,34,1*4C
$GBGSV,2,1,05,45,61,278,34,30,46,050,43,26,14,319,45,46,03,154,14,1*70
$GBGSV,2,2,05,39,02,338,24,1*45
$GBGSV,1,1,04,45,61,278,26,30,46,050,37,26,14,319,34,39,02,338,29,5*7F
$GNGGA,223000.000,4000.614826,N,10514.636598,W,2,23,1.10,1616.970,M,-20.635,M,,*7D
$GPGSV,3,1,09,06,79,099,38,19,53,050,45,46,37,214,34,24,37,250,35,1*63
$GPGSV,3,2,09,12,35,311,46,22,34,123,,17,29,067,35,03,08,036,36,1*6E
$GPGSV,3,3,09,25,04,310,39,1*56
$GPGSV,1,1,04,06,79,099,24,24,37,250,41,03,08,036,31,25,04,310,31,8*68
$GLGSV,2,1,05,75,75,180,31,85,68,359,43,86,46,243,28,76,39,324,48,1*7F
$GLGSV,2,2,05,68,02,013,45,1*42
$GAGSV,1,1,03,36,56,051,39,30,56,313,45,27,05,310,43,7*4D
$GAGSV,1,1,03,30,56,313,29,36,56,051,34,27,05,310,34,1*4C
$GBGSV,2,1,06,45,61,278,34,30,46,050,43,26,14,319,45,46,03,154,14,1*73
$GBGSV,2,2,06,39,02,338,24,29,,,40,1*49
$GBGSV,1,1,04,45,61,278,27,30,46,050,37,26,14,319,34,39,02,338,30,5*76
$GNGGA,223001.000,4000.614826,N,10514.636520,W,2,23,1.10,1616.979,M,-20.634,M,,*77
$GPGSV,3,1,09,06,79,099,38,19,53,050,45,46,37,214,34,24,37,250,35,1*63
$GPGSV,3,2,09,12,35,311,46,22,34,123,,17,29,067,35,03,08,036,36,1*6E
$GPGSV,3,3,09,25,04,310,39,1*56
$GPGSV,1,1,04,06,79,099,25,24,37,250,41,03,08,036,31,25,04,310,31,8*69
$GLGSV,2,1,05,75,75,180,31,85,68,359,43,86,46,243,27,76,39,324,48,1*70
$GLGSV,2,2,05,68,02,013,45,1*42
$GAGSV,1,1,03,36,56,051,39,30,56,313,45,27,05,310,43,7*4D
$GAGSV,1,1,03,30,56,313,30,36,56,051,35,27,05,310,35,1*44
$GBGSV,2,1,06,45,61,278,34,30,46,050,43,26,14,319,45,46,03,154,14,1*73
$GBGSV,2,2,06,39,02,338,24,29,,,40,1*49
$GBGSV,1,1,04,45,61,278,27,30,46,050,37,26,14,319,35,39,02,338,30,5*77
$GNGGA,223002.000,4000.614814,N,10514.636454,W,2,23,1.10,1617.012,M,-20.635,M,,*73
$GPGSV,3,1,09,06,79,099,38,19,53,050,44,46,37,214,34,24,37,250,35,1*62
$GPGSV,3,2,09,12,35,311,46,22,34,123,,17,29,067,35,03,08,036,36,1*6E
$GPGSV,3,3,09,25,04,310,40,1*58
$GPGSV,1,1,04,06,79,099,25,24,37,250,41,03,08,036,31,25,04,310,30,8*68
$GLGSV,2,1,05,75,75,180,32,85,68,359,44,86,46,243,26,76,39,324,48,1*75
$GLGSV,2,2,05,68,02,013,45,1*42
$GAGSV,1,1,03,36,56,051,39,30,56,313,45,27,05,310,43,7*4D
$GAGSV,1,1,03,30,56,313,30,36,56,051,35,27,05,310,35,1*44
$GBGSV,2,1,06,45,61,278,34,30,46,050,43,26,14,319,45,46,03,154,14,1*73
$GBGSV,2,2,06,39,02,338,24,29,,,40,1*49
$GBGSV,1,1,04,45,61,278,27,30,46,050,37,26,14,319,35,39,02,338,30,5*77
$GNGGA,223003.000,4000.614814,N,10514.636388,W,2,23,1.10,1617.042,M,-20.634,M,,*70
$GPGSV,3,1,09,06,79,099,38,19,53,050,44,46,37,214,34,24,37,250,35,1*62
$GPGSV,3,2,09,12,35,311,46,22,34,123,,17,29,067,35,03,08,036,36,1*6E
$GPGSV,3,3,09,25,04,310,40,1*58
$GPGSV,1,1,04,06,79,099,25,24,37,250,41,03,08,036,31,25,04,310,30,8*68
$GLGSV,2,1,05,75,75,180,32,85,68,359,44,86,46,243,24,76,39,324,48,1*77
$GLGSV,2,2,05,68,02,013,45,1*42
$GAGSV,1,1,03,36,56,051,39,30,56,313,45,27,05,310,43,7*4D
$GAGSV,1,1,03,30,56,313,30,36,56,051,35,27,05,310,35,1*44
$GBGSV,2,1,06,45,61,278,34,30,46,050,43,26,14,319,45,46,03,154,14,1*73
$GBGSV,2,2,06,39,02,338,23,29,,,40,1*4E
$GBGSV,1,1,04,45,61,278,27,30,46,050,37,26,14,319,35,39,02,338,30,5*77
$GNGGA,223004.000,4000.614814,N,10514.636394,W,2,23,1.10,1617.057,M,-20.634,M,,*7E
$GPGSV,3,1,09,06,79,099,38,19,53,050,44,46,37,214,34,24,37,250,35,1*62
$GPGSV,3,2,09,12,35,311,46,22,34,123,,17,29,067,35,03,08,036,36,1*6E
$GPGSV,3,3,09,25,04,310,41,1*59
$GPGSV,1,1,04,06,79,099,25,24,37,250,41,03,08,036,31,25,04,310,30,8*68
$GLGSV,2,1,05,75,75,180,32,85,68,359,44,86,46,243,22,76,39,324,48,1*71
$GLGSV,2,2,05,68,02,013,45,1*42
$GAGSV,1,1,03,36,56,051,39,30,56,313,45,27,05,310,43,7*4D
$GAGSV,1,1,03,30,56,313,30,36,56,051,35,27,05,310,35,1*44
$GBGSV,2,1,06,45,61,278,34,30,46,050,43,26,14,319,45,46,03,154,15,1*72
$GBGSV,2,2,06,39,02,338,23,29,,,41,1*4F
$GBGSV,2,1,05,45,61,278,27,30,46,050,37,26,14,319,35,39,02,338,30,5*75
$GBGSV,2,2,05,29,,,29,5*77
$GNGGA,223005.000,4000.614808,N,10514.636358,W,2,23,1.10,1617.058,M,-20.634,M,,*7D
$GPGSV,3,1,09,06,79,099,38,19,53,050,44,46,37,214,34,24,37,250,35,1*62
$GPGSV,3,2,09,12,35,311,46,22,34,123,,17,29,067,35,03,08,036,36,1*6E
$GPGSV,3,3,09,25,04,310,41,1*59
$GPGSV,1,1,04,06,79,099,25,24,37,250,41,03,08,036,31,25,04,310,30,8*68
$GLGSV,2,1,05,75,75,180,32,85,68,359,44,86,46,243,21,76,39,324,48,1*72
$GLGSV,2,2,05,68,02,013,44,1*43
$GAGSV,1,1,03,36,56,051,39,30,56,313,45,27,05,310,43,7*4D
$GAGSV,1,1,03,30,56,313,31,36,56,051,35,27,05,310,35,1*45
$GBGSV,2,1,06,45,61,278,34,30,46,050,43,26,14,319,46,46,03,154,15,1*71
$GBGSV,2,2,06,39,02,338,23,29,,,41,1*4F
$GBGSV,2,1,05,45,61,278,28,30,46,050,37,26,14,319,35,39,02,338,30,5*7A
$GBGSV,2,2,05,29,,,28,5*76
$GNGGA,223006.000,4000.614802,N,10514.636352,W,2,23,1.10,1617.068,M,-20.634,M,,*7D
$GPGSV,3,1,09,06,79,099,38,19,53,050,44,46,37,214,34,24,37,250,35,1*62
$GPGSV,3,2,09,12,35,311,46,22,34,123,,17,29,067,34,03,08,036,36,1*6F
$GPGSV,3,3,09,25,04,310,41,1*59
$GPGSV,1,1,04,06,79,099,25,24,37,250,41,03,08,036,31,25,04,310,30,8*68
$GLGSV,2,1,05,75,75,180,33,85,68,359,44,86,46,243,20,76,39,324,48,1*72
$GLGSV,2,2,05,68,02,013,44,1*43
$GAGSV,1,1,03,36,56,051,39,30,56,313,45,27,05,310,43,7*4D
$GAGSV,1,1,03,30,56,313,31,36,56,051,35,27,05,310,35,1*45
$GBGSV,2,1,06,45,61,278,34,30,46,050,43,26,14,319,46,46,03,154,15,1*71
$GBGSV,2,2,06,39,02,338,23,29,,,41,1*4F
$GBGSV,2,1,05,45,61,278,28,30,46,050,37,26,14,319,35,39,02,338,30,5*7A
$GBGSV,2,2,05,29,,,30,5*7F
$GNGGA,223007.000,4000.614796,N,10514.636328,W,2,23,1.10,1617.070,M,-20.635,M,,*7B
$GPGSV,3,1,09,06,79,099,38,19,53,050,44,46,37,214,34,24,37,250,35,1*62
$GPGSV,3,2,09,12,35,311,46,22,34,123,,17,29,067,34,03,08,036,36,1*6F
$GPGSV,3,3,09,25,04,310,41,1*59
$GPGSV,1,1,04,06,79,099,25,24,37,250,41,03,08,036,31,25,04,310,30,8*68
$GLGSV,2,1,05,75,75,180,34,85,68,359,44,86,46,243,20,76,39,324,48,1*75
$GLGSV,2,2,05,68,02,013,44,1*43
$GAGSV,1,1,03,36,56,051,39,30,56,313,45,27,05,310,43,7*4D
$GAGSV,1,1,03,30,56,313,31,36,56,051,35,27,05,310,35,1*45
$GBGSV,2,1,06,45,61,278,34,30,46,050,43,26,14,319,46,46,03,154,15,1*71
$GBGSV,2,2,06,39,02,338,24,29,,,41,1*48
$GBGSV,2,1,05,45,61,278,28,30,46,050,37,26,14,319,35,39,02,338,30,5*7A
$GBGSV,2,2,05,29,,,30,5*7F
$GNGGA,223008.000,4000.614790,N,10514.636316,W,2,25,1.09,1617.071,M,-20.634,M,,*71
$GPGSV,3,1,09,06,79,099,38,19,53,050,44,46,37,214,34,24,37,250,35,1*62
$GPGSV,3,2,09,12,35,311,46,22,34,123,,17,29,067,33,03,08,036,36,1*68
$GPGSV,3,3,09,25,04,310,41,1*59
$GPGSV,1,1,04,06,79,099,25,24,37,250,41,03,08,036,31,25,04,310,30,8*68
$GLGSV,2,1,05,75,75,180,34,85,68,359,44,86,46,243,23,76,39,324,48,1*76
$GLGSV,2,2,05,68,02,013,45,1*42
$GAGSV,1,1,03,30,56,313,45,36,56,051,39,27,05,310,43,7*4D
$GAGSV,1,1,03,36,56,051,36,30,56,313,31,27,05,310,35,1*46
$GBGSV,2,1,06,45,61,278,34,30,46,050,43,26,14,319,46,46,03,154,15,1*71
$GBGSV,2,2,06,39,02,338,24,29,,,41,1*48
$GBGSV,2,1,05,45,61,278,28,30,46,050,37,26,14,319,36,39,02,338,30,5*79
$GBGSV,2,2,05,29,,,30,5*7F
$GNGGA,223009.000,4000.614784,N,10514.636298,W,2,25,1.09,1617.061,M,-20.635,M,,*72
$GPGSV,3,1,09,06,79,099,39,19,53,050,44,46,37,214,34,24,37,250,35,1*63
$GPGSV,3,2,09,12,35,311,46,22,34,123,,17,29,067,33,03,08,036,36,1*68
$GPGSV,3,3,09,25,04,310,42,1*5A
$GPGSV,1,1,04,06,79,099,25,24,37,250,41,03,08,036,31,25,04,310,30,8*68
$GLGSV,2,1,05,75,75,180,34,85,68,359,44,86,46,243,23,76,39,324,48,1*76
$GLGSV,2,2,05,68,02,013,45,1*42
$GAGSV,1,1,03,30,56,313,45,36,56,051,40,27,05,310,43,7*43
$GAGSV,1,1,03,36,56,051,36,30,56,313,31,27,05,310,35,1*46
$GBGSV,2,1,06,45,61,278,34,30,46,050,43,26,14,319,46,46,03,154,14,1*70
$GBGSV,2,2,06,39,02,338,25,29,,,41,1*49
$GBGSV,2,1,05,45,61,278,28,30,46,050,37,26,14,319,36,39,02,338,30,5*79
$GBGSV,2,2,05,29,,,30,5*7F
$GNGGA,223010.000,4000.614772,N,10514.636280,W,2,24,1.09,1617.056,M,-20.635,M,,*7F
$GPGSV,3,1,09,06,79,099,39,19,53,050,44,46,37,214,34,24,37,250,35,1*63
$GPGSV,3,2,09,12,35,311,46,22,34,123,,17,29,067,33,03,08,036,36,1*68
$GPGSV,3,3,09,25,04,310,42,1*5A
$GPGSV,1,1,04,06,79,099,25,24,37,250,41,03,08,036,32,25,04,310,30,8*6B
$GLGSV,2,1,05,75,75,180,34,85,68,359,45,86,46,243,24,76,39,324,48,1*70
$GLGSV,2,2,05,68,02,013,45,1*42
$GAGSV,1,1,03,30,56,313,45,36,56,051,40,27,05,310,43,7*43
$GAGSV,1,1,02,30,56,313,31,36,56,051,36,1*73
$GBGSV,2,1,06,45,61,278,34,30,46,050,43,26,14,319,46,46,03,154,14,1*70
$GBGSV,2,2,06,39,02,338,25,29,,,41,1*49
$GBGSV,2,1,05,45,61,278,28,30,46,050,37,26,14,319,36,39,02,338,30,5*79
$GBGSV,2,2,05,29,,,30,5*7F
$GNGGA,223011.000,4000.614766,N,10514.636274,W,2,25,1.09,1617.061,M,-20.635,M,,*75
$GPGSV,3,1,09,06,79,099,39,19,53,050,44,46,37,214,34,24,37,250,35,1*63
$GPGSV,3,2,09,12,35,311,45,22,34,123,,17,29,067,34,03,08,036,36,1*6C
$GPGSV,3,3,09,25,04,310,42,1*5A
$GPGSV,1,1,04,06,79,099,25,24,37,250,41,03,08,036,32,25,04,310,31,8*6A
$GLGSV,2,1,05,75,75,180,34,85,68,359,45,86,46,243,24,76,39,324,48,1*70
$GLGSV,2,2,05,68,02,013,45,1*42
$GAGSV,1,1,03,30,56,313,45,36,56,051,40,27,05,310,43,7*43
$GAGSV,1,1,03,36,56,051,36,30,56,313,31,27,05,310,36,1*45
$GBGSV,2,1,06,45,61,278,34,30,46,050,43,26,14,319,46,46,03,154,14,1*70
$GBGSV,2,2,06,39,02,338,25,29,,,41,1*49
$GBGSV,2,1,05,45,61,278,28,30,46,050,37,26,14,319,36,39,02,338,30,5*79
$GBGSV,2,2,05,29,,,30,5*7F
$GNGGA,223012.000,4000.614772,N,10514.636268,W,2,25,1.09,1617.065,M,-20.635,M,,*7A
$GPGSV,3,1,09,06,79,099,39,19,53,050,44,46,37,214,34,24,37,250,34,1*62
$GPGSV,3,2,09,12,35,311,45,22,34,123,,17,29,067,34,03,08,036,36,1*6C
$GPGSV,3,3,09,25,04,310,42,1*5A
$GPGSV,1,1,04,06,79,099,25,24,37,250,41,03,08,036,32,25,04,310,31,8*6A
$GLGSV,2,1,05,75,75,180,32,85,68,359,45,86,46,243,25,76,39,324,48,1*77
$GLGSV,2,2,05,68,02,013,45,1*42
$GAGSV,1,1,03,30,56,313,45,36,56,051,40,27,05,310,43,7*43
$GAGSV,1,1,03,36,56,051,36,30,56,313,31,27,05,310,36,1*45
$GBGSV,2,1,06,45,61,278,34,30,46,050,43,26,14,319,46,46,03,154,14,1*70
$GBGSV,2,2,06,39,02,338,25,29,,,41,1*49
$GBGSV,2,1,05,45,61,278,28,30,46,050,37,26,14,319,37,39,02,338,30,5*78
$GBGSV,2,2,05,29,,,30,5*7F
$PAIR010,0,0,2302,513150*3B
$PAIR010,0,3,2302,513150*38
$PAIR010,0,2,2302,513150*39
$GNGGA,223013.000,4000.614760,N,10514.636262,W,2,25,1.09,1617.067,M,-20.634,M,,*71
$GPGSV,3,1,09,06,79,099,39,19,53,050,44,46,37,214,34,24,37,250,34,1*62
$GPGSV,3,2,09,12,35,311,45,22,34,123,,17,29,067,34,03,08,036,36,1*6C
$GPGSV,3,3,09,25,04,310,42,1*5A
$GPGSV,1,1,04,06,79,099,24,24,37,250,40,03,08,036,31,25,04,310,31,8*69
$GLGSV,2,1,05,75,75,180,31,85,68,359,45,86,46,243,26,76,39,324,48,1*77
$GLGSV,2,2,05,68,02,013,45,1*42
$GAGSV,1,1,03,30,56,313,45,36,56,051,40,27,05,310,43,7*43
$GAGSV,1,1,03,36,56,051,35,30,56,313,30,27,05,310,34,1*45
$GBGSV,2,1,06,45,61,278,34,30,46,050,43,26,14,319,46,46,03,154,14,1*70
$GBGSV,2,2,06,39,02,338,25,29,,,41,1*49
$GBGSV,2,1,05,45,61,278,27,30,46,050,37,26,14,319,36,39,02,338,29,5*7E
$GBGSV,2,2,05,29,,,29,5*77
$GNGGA,223014.000,4000.614754,N,10514.636250,W,2,25,1.09,1617.066,M,-20.635,M,,*70
$GPGSV,3,1,09,06,79,099,39,19,53,050,44,46,37,214,34,24,37,250,34,1*62
$GPGSV,3,2,09,12,35,311,45,22,34,123,,17,29,067,34,03,08,036,36,1*6C
$GPGSV,3,3,09,25,04,310,42,1*5A
$GPGSV,1,1,04,06,79,099,24,24,37,250,40,03,08,036,31,25,04,310,32,8*6A
$GLGSV,2,1,05,75,75,180,31,85,68,359,45,86,46,243,26,76,39,324,48,1*77
$GLGSV,2,2,05,68,02,013,45,1*42
$GAGSV,1,1,03,30,56,313,45,36,56,051,40,27,05,310,43,7*43
$GAGSV,1,1,03,36,56,051,35,30,56,313,30,27,05,310,36,1*47
$GBGSV,2,1,06,45,61,278,34,30,46,050,43,26,14,319,46,46,03,154,14,1*70
$GBGSV,2,2,06,39,02,338,25,29,,,41,1*49
$GBGSV,2,1,05,45,61,278,28,30,46,050,37,26,14,319,36,39,02,338,29,5*71
$GBGSV,2,2,05,29,,,29,5*77
$GNGGA,223015.000,4000.614754,N,10514.636244,W,2,25,1.09,1617.063,M,-20.634,M,,*70
$GPGSV,3,1,09,06,79,099,39,19,53,050,44,46,37,214,34,24,37,250,35,1*63
$GPGSV,3,2,09,12,35,311,44,22,34,123,,17,29,067,34,03,08,036,36,1*6D
$GPGSV,3,3,09,25,04,310,42,1*5A
$GPGSV,1,1,04,06,79,099,24,24,37,250,40,03,08,036,31,25,04,310,32,8*6A
$GLGSV,2,1,05,75,75,180,32,85,68,359,45,86,46,243,27,76,39,324,48,1*75
$GLGSV,2,2,05,68,02,013,46,1*41
$GAGSV,1,1,03,30,56,313,45,36,56,051,40,27,05,310,43,7*43
$GAGSV,1,1,03,36,56,051,35,30,56,313,30,27,05,310,35,1*44
$GBGSV,2,1,06,45,61,278,34,30,46,050,43,26,14,319,46,46,03,154,14,1*70
$GBGSV,2,2,06,39,02,338,25,29,,,41,1*49
$GBGSV,2,1,05,45,61,278,29,30,46,050,37,26,14,319,37,39,02,338,29,5*71
$GBGSV,2,2,05,29,,,29,5*77
$GNGGA,223016.000,4000.614754,N,10514.636238,W,2,25,1.09,1617.062,M,-20.635,M,,*78
$GPGSV,3,1,09,06,79,099,39,19,53,050,44,46,37,214,34,24,37,250,35,1*63
$GPGSV,3,2,09,12,35,311,44,22,34,123,,17,29,067,34,03,08,036,36,1*6D
$GPGSV,3,3,09,25,04,310,42,1*5A
$GPGSV,1,1,04,06,79,099,25,24,37,250,41,03,08,036,31,25,04,310,32,8*6A
$GLGSV,2,1,05,75,75,180,32,85,68,359,45,86,46,243,28,76,39,324,48,1*7A
$GLGSV,2,2,05,68,02,013,46,1*41
$GAGSV,1,1,03,30,56,313,45,36,56,051,40,27,05,310,43,7*43
$GAGSV,1,1,03,36,56,051,35,30,56,313,31,27,05,310,37,1*47
$GBGSV,2,1,06,45,61,278,34,30,46,050,43,26,14,319,46,46,03,154,14,1*70
$GBGSV,2,2,06,39,02,338,25,29,,,41,1*49
$GBGSV,2,1,05,45,61,278,29,30,46,050,38,26,14,319,37,39,02,338,30,5*76
$GBGSV,2,2,05,29,,,29,5*77
$GNGGA,223017.000,4000.614748,N,10514.636232,W,2,25,1.09,1617.061,M,-20.634,M,,*7C
$GPGSV,3,1,09,06,79,099,39,19,53,050,44,46,37,214,34,24,37,250,35,1*63
$GPGSV,3,2,09,12,35,311,43,22,34,123,,17,29,067,34,03,08,036,35,1*69
$GPGSV,3,3,09,25,04,310,42,1*5A
$GPGSV,1,1,04,06,79,099,25,24,37,250,41,03,08,036,31,25,04,310,32,8*6A
$GLGSV,2,1,05,75,75,180,32,85,68,359,45,86,46,243,29,76,39,324,48,1*7B
$GLGSV,2,2,05,68,02,013,46,1*41
$GAGSV,1,1,03,30,56,313,45,36,56,051,40,27,05,310,43,7*43
$GAGSV,1,1,03,36,56,051,35,30,56,313,31,27,05,310,36,1*46
$GBGSV,2,1,06,45,61,278,34,30,46,050,43,26,14,319,46,46,03,154,14,1*70
$GBGSV,2,2,06,39,02,338,24,29,,,41,1*48
$GBGSV,2,1,05,45,61,278,29,30,46,050,38,26,14,319,37,39,02,338,30,5*76
$GBGSV,2,2,05,29,,,29,5*77
$GNGGA,223018.000,4000.614742,N,10514.636226,W,2,27,1.08,1617.056,M,-20.635,M,,*7A
$GPGSV,3,1,09,06,79,099,39,19,53,050,44,46,37,214,34,24,37,250,35,1*63
$GPGSV,3,2,09,12,35,311,43,22,34,123,,17,29,067,34,03,08,036,35,1*69
$GPGSV,3,3,09,25,04,310,42,1*5A
$GPGSV,1,1,04,06,79,099,25,24,37,250,41,03,08,036,31,25,04,310,32,8*6A
$GLGSV,2,1,05,75,75,180,32,85,68,359,45,86,46,243,29,76,39,324,48,1*7B
$GLGSV,2,2,05,68,02,013,46,1*41
$GAGSV,1,1,03,36,56,051,40,30,56,313,45,27,05,310,43,7*43
$GAGSV,1,1,03,36,56,051,35,30,56,313,30,27,05,310,36,1*47
$GBGSV,2,1,06,29,69,276,41,45,61,278,34,30,46,050,43,26,15,319,46,1*77
$GBGSV,2,2,06,46,03,154,14,39,02,338,23,1*75
$GBGSV,2,1,05,29,69,276,29,45,61,278,29,30,46,050,38,26,15,319,37,5*78
$GBGSV,2,2,05,39,02,338,30,5*44
$GNGGA,223019.000,4000.614748,N,10514.636226,W,2,27,1.08,1617.059,M,-20.635,M,,*7E
$GPGSV,3,1,09,06,79,099,39,19,53,050,44,46,37,214,34,24,37,250,35,1*63
$GPGSV,3,2,09,12,35,311,43,22,34,123,,17,29,067,34,03,08,036,35,1*69
$GPGSV,3,3,09,25,04,310,42,1*5A
$GPGSV,1,1,04,06,79,099,25,24,37,250,41,03,08,036,31,25,04,310,32,8*6A
$GLGSV,2,1,05,75,75,180,31,85,68,359,45,86,46,243,29,76,39,324,48,1*78
$GLGSV,2,2,05,68,02,013,46,1*41
$GAGSV,1,1,03,36,56,051,40,30,56,313,45,27,05,310,43,7*43
$GAGSV,1,1,03,36,56,051,35,30,56,313,30,27,05,310,36,1*47
$GBGSV,2,1,06,29,69,276,41,45,61,278,34,30,46,050,43,26,15,319,46,1*77
$GBGSV,2,2,06,46,03,154,14,39,02,338,23,1*75
$GBGSV,2,1,05,29,69,276,29,45,61,278,29,30,46,050,38,26,15,319,37,5*78
$GBGSV,2,2,05,39,02,338,30,5*44
$GNGGA,223020.000,4000.614742,N,10514.636226,W,2,27,1.08,1617.057,M,-20.635,M,,*70
$GPGSV,3,1,09,06,79,099,39,19,53,050,44,46,37,214,34,24,37,250,35,1*63
$GPGSV,3,2,09,12,35,311,42,22,34,123,,17,29,067,34,03,08,036,35,1*68
$GPGSV,3,3,09,25,04,310,42,1*5A
$GPGSV,1,1,04,06,79,099,25,24,37,250,41,03,08,036,30,25,04,310,32,8*6B
$GLGSV,2,1,05,75,75,180,31,85,68,359,45,86,46,243,30,76,39,324,48,1*70
$GLGSV,2,2,05,68,02,013,47,1*40
$GAGSV,1,1,03,36,56,051,40,30,56,313,45,27,05,310,43,7*43
$GAGSV,1,1,03,36,56,051,35,30,56,313,29,27,05,310,36,1*4F
$GBGSV,2,1,06,29,69,276,41,45,61,278,35,30,46,050,43,26,15,319,46,1*76
$GBGSV,2,2,06,46,03,154,14,39,02,338,23,1*75
$GBGSV,2,1,05,29,69,276,29,45,61,278,29,30,46,050,38,26,15,319,37,5*78
$GBGSV,2,2,05,39,02,338,30,5*44
$GNGGA,223021.000,4000.614742,N,10514.636220,W,2,27,1.08,1617.068,M,-20.634,M,,*7A
$GPGSV,3,1,09,06,79,099,39,19,53,050,44,46,37,214,34,24,37,250,35,1*63
$GPGSV,3,2,09,12,35,311,42,22,34,123,,17,29,067,34,03,08,036,35,1*68
$GPGSV,3,3,09,25,04,310,42,1*5A
$GPGSV,1,1,04,06,79,099,25,24,37,250,41,03,08,036,30,25,04,310,33,8*6A
$GLGSV,2,1,05,75,75,180,31,85,68,359,45,86,46,243,30,76,39,324,48,1*70
$GLGSV,2,2,05,68,02,013,47,1*40
$GAGSV,1,1,03,36,56,051,40,30,56,313,45,27,05,310,43,7*43
$GAGSV,1,1,03,36,56,051,35,30,56,313,29,27,05,310,36,1*4F
$GBGSV,2,1,06,29,70,276,41,45,61,278,35,30,46,050,43,26,15,319,46,1*7E
$GBGSV,2,2,06,46,03,154,14,39,02,338,23,1*75
$GBGSV,2,1,05,29,70,276,29,45,61,278,29,30,46,050,38,26,15,319,38,5*7F
$GBGSV,2,2,05,39,02,338,30,5*44
$GNGGA,223022.000,4000.614736,N,10514.636214,W,2,27,1.08,1617.077,M,-20.634,M,,*73
$GPGSV,3,1,09,06,79,099,39,19,53,050,44,46,37,214,34,24,37,250,35,1*63
$GPGSV,3,2,09,12,35,311,41,22,34,123,,17,29,067,34,03,08,036,35,1*6B
$GPGSV,3,3,09,25,04,310,42,1*5A
$GPGSV,1,1,04,06,79,099,25,24,37,250,41,03,08,036,30,25,04,310,33,8*6A
$GLGSV,2,1,05,75,75,180,31,85,68,359,45,86,46,243,30,76,39,324,48,1*70
$GLGSV,2,2,05,68,02,013,47,1*40
$GAGSV,1,1,04,34,65,199,,36,56,051,40,30,56,313,45,27,05,310,43,7*71
$GAGSV,1,1,03,36,56,051,35,30,56,313,29,27,05,310,36,1*4F
$GBGSV,2,1,06,29,70,276,41,45,61,278,35,30,46,050,43,26,15,319,46,1*7E
$GBGSV,2,2,06,46,03,154,14,39,02,338,23,1*75
$GBGSV,2,1,05,29,70,276,29,45,61,278,29,30,46,050,38,26,15,319,38,5*7F
$GBGSV,2,2,05,39,02,338,29,5*4C
$GNGGA,223023.000,4000.614730,N,10514.636202,W,2,27,1.08,1617.083,M,-20.635,M,,*79
$GPGSV,3,1,09,06,79,099,39,19,53,050,44,46,37,214,34,24,37,250,35,1*63
$GPGSV,3,2,09,12,35,311,41,22,34,123,,17,29,067,34,03,08,036,35,1*6B
$GPGSV,3,3,09,25,04,310,42,1*5A
$GPGSV,1,1,04,06,79,099,25,24,37,250,41,03,08,036,30,25,04,310,33,8*6A
$GLGSV,2,1,05,75,75,180,31,85,68,359,45,86,46,243,30,76,39,324,48,1*70
$GLGSV,2,2,05,68,02,013,47,1*40
$GAGSV,1,1,04,34,65,199,,36,56,051,40,30,56,313,45,27,05,310,43,7*71
$GAGSV,1,1,03,36,56,051,35,30,56,313,29,27,05,310,36,1*4F
$GBGSV,2,1,06,29,70,276,41,45,61,278,35,30,46,050,43,26,15,319,46,1*7E
$GBGSV,2,2,06,46,03,154,14,39,02,338,23,1*75
