,12,72,335,13,44,62,041,21,34,51,279,13,25,43,287,13,1*77
$GBGSV,4,2,14,24,43,206,43,22,21,098,34,19,11,046,16,21,08,147,42,1*70
$GBGSV,4,3,14,23,07,324,,26,07,170,44,43,07,261,32,57,05,077,,1*71
$GBGSV,4,4,14,39,05,332,,16,02,340,,1*7C
$GBGSV,2,1,05,24,43,206,25,22,21,098,18,21,08,147,34,26,07,170,36,5*73
$GBGSV,2,2,05,43,07,261,30,5*41
$GNGLL,4000.580500,N,10514.619000,W,215243.000,A,D*50
$GNRMC,215244.000,A,4000.580464,N,10514.619000,W,0.01,0.00,20032$GNRMC,215336.000,A,4000.581958,N,10514.619252,W,0.01,0.00,200324,,,D,V*1D
$GNVTG,0.00,T,,M,0.01,N,0.01,K,D*26
$GNGGA,215336.000,4000.581958,N,10514.619252,W,2,36,0.62,1612.109,M,-20.635,M,,*77
$GNGSA,A,3,11,12,20,19,24,05,22,17,,,,,0.99,0.62,0.78,1*06
$GNGSA,A,3,78,88,87,77,81,72,,,,,,,0.99,0.62,0.78,2*05
$GNGSA,A,3,13,27,15,26,30,,,,,,,,0.99,0.62,0.78,3*0C
$GNGSA,A,3,44,34,24,22,21,26,43,,,,,,0.99,0.62,0.78,4*0E
$GPGSV,4,1,13,11,89,272,31,12,65,301,17,06,50,045,,44,42,197,44,1*68
$GPGSV,4,2,13,20,41,159,45,25,33,311,,19,29,079,24,24,16,224,45,1*60
$GPGSV,4,3,13,05,11,181,51,22,07,140,45,17,07,089,22,29,05,280,,1*6F
$GPGSV,4,4,13,28,01,333,,1*5E
$GPGSV,1,1,01,24,16,224,37,8*5D
$GLGSV,2,1,07,78,64,278,30,88,62,308,17,87,36,037,20,77,34,180,30,1*77
$GLGSV,2,2,07,81,20,256,16,72,15,080,16,65,02,131,19,1*46
$GAGSV,2,1,07,13,69,238,40,27,64,159,42,21,56,306,17,15,54,043,17,7*7C
$GAGSV,2,2,07,26,14,230,38,30,13,143,47,34,05,047,,7*4A
$GAGSV,1,1,04,13,69,238,34,27,64,159,32,26,14,230,36,30,13,143,23,1*7A
$GBGSV,4,1,14,12,72,335,,44,62,041,21,34,51,279,25,25,43,287,,1*72
$GBGSV,4,2,14,24,43,206,45,22,21,098,34,19,11,046,,21,08,147,40,1*73
$GBGSV,4,3,14,26,07,170,41,23,07,324,20,43,07,261,37,57,05,077,,1*73
$GBGSV,4,4,14,39,05,332,15,16,02,340,,1*78
$GBGSV,2,1,05,24,43,206,29,22,21,098,18,21,08,147,37,26,07,170,34,5*7E
$GBGSV,2,2,05,43,07,261,32,5*43
$GNGLL,4000.581958,N,10514.619252,W,215336.000,A,D*56
$GNRMC,215337.000,A,4000.581910,N,10514.619318,W,0.01,0.00,200324,,,D,V*1F
$GNVTG,0.00,T,,M,0.01,N,0.01,K,D*26
$GNGGA,215337.000,4000.581910,N,10514.619318,W,2,36,0.62,1612.076,M,-20.635,M,,*7C
$GNGSA,A,3,11,12,20,19,24,05,22,17,,,,,0.99,0.62,0.78,1*06
$GNGSA,A,3,78,88,87,77,81,72,,,,,,,0.99,0.62,0.78,2*05
$GNGSA,A,3,13,27,15,26,30,,,,,,,,0.99,0.62,0.78,3*0C
$GNGSA,A,3,44,34,24,22,21,26,43,,,,,,0.99,0.62,0.78,4*0E
$GPGSV,4,1,13,11,89,272,32,12,65,301,18,06,50,045,,44,42,197,44,1*64
$GPGSV,4,2,13,20,41,159,45,25,33,311,,19,29,079,24,24,16,224,45,1*60
$GPGSV,4,3,13,05,11,181,51,22,07,140,45,17,07,089,21,29,05,280,,1*6C
$GPGSV,4,4,13,28,01,333,,1*5E
$GPGSV,1,1,01,24,16,224,38,8*52
$GLGSV,2,1,07,78,64,278,30,88,62,308,17,87,36,037,20,77,34,180,30,1*77
$GLGSV,2,2,07,81,20,256,16,72,15,080,16,65,02,131,20,1*4C
$GAGSV,2,1,07,13,69,238,39,27,64,159,42,21,56,306,17,15,54,043,17,7*72
$GAGSV,2,2,07,26,14,230,38,30,13,143,47,34,05,047,,7*4A
$GAGSV,1,1,04,13,69,238,34,27,64,159,32,26,14,230,36,30,13,143,23,1*7A
$GBGSV,4,1,14,12,72,335,,44,62,041,20,34,51,279,23,25,43,287,,1*75
$GBGSV,4,2,14,24,43,206,45,22,21,098,33,19,11,046,,21,08,147,40,1*74
$GBGSV,4,3,14,26,07,170,41,23,07,324,19,43,07,261,37,57,05,077,,1*79
$GBGSV,4,4,14,39,05,332,17,16,02,340,,1*7A
$GBGSV,2,1,05,24,43,206,29,22,21,098,18,21,08,147,37,26,07,170,35,5*7F
$GBGSV,2,2,05,43,07,261,33,5*42
$GNGLL,4000.581910,N,10514.619318,W,215337.000,A,D*54
$GNRMC,215338.000,A,4000.581898,N,10514.619378,W,0.01,0.00,200324,,,D,V*17
$GNVTG,0.00,T,,M,0.01,N,0.01,K,D*26
$GNGGA,215338.000,4000.581898,N,10514.619378,W,2,36,0.62,1612.034,M,-20.635,M,,*72
$GNGSA,A,3,11,12,20,19,24,05,22,17,,,,,0.99,0.62,0.78,1*06
$GNGSA,A,3,78,88,87,77,81,72,,,,,,,0.99,0.62,0.78,2*05
$GNGSA,A,3,13,27,15,26,30,,,,,,,,0.99,0.62,0.78,3*0C
$GNGSA,A,3,44,34,24,22,21,26,43,,,,,,0.99,0.62,0.78,4*0E
$GPGSV,4,1,13,11,89,272,32,12,65,301,19,06,50,045,,44,42,197,44,1*65
$GPGSV,4,2,13,20,41,159,45,25,33,311,,19,29,079,22,24,16,224,45,1*66
$GPGSV,4,3,13,05,11,181,51,22,07,140,45,17,07,089,19,29,05,280,,1*67
$GPGSV,4,4,13,28,01,333,,1*5E
$GPGSV,1,1,01,24,16,224,38,8*52
$GLGSV,2,1,07,78,64,278,30,88,62,308,17,87,36,037,19,77,34,180,30,1*7D
$GLGSV,2,2,07,81,20,256,16,72,15,080,17,65,02,131,21,1*4C
$GAGSV,2,1,07,13,69,238,39,27,64,159,42,21,56,306,17,15,54,043,17,7*72
$GAGSV,2,2,07,26,14,230,38,30,13,143,47,34,05,047,,7*4A
$GAGSV,1,1,04,13,69,238,34,27,64,159,33,26,14,230,36,30,13,143,24,1*7C
$GBGSV,4,1,14,12,72,335,,44,62,041,19,34,51,279,23,25,43,287,,1*7F
$GBGSV,4,2,14,24,43,206,45,22,21,098,32,19,11,046,,21,08,147,40,1*75
$GBGSV,4,3,14,26,07,170,41,23,07,324,,43,07,261,37,57,05,077,,1*71
$GBGSV,4,4,14,39,05,332,17,16,02,340,,1*7A
$GBGSV,2,1,05,24,43,206,30,22,21,098,18,21,08,147,37,26,07,170,35,5*77
$GBGSV,2,2,05,43,07,261,33,5*42
$GNGLL,4000.581898,N,10514.619378,W,215338.000,A,D*5C
$GNRMC,215339.000,A,4000.581808,N,10514.619420,W,0.01,0.00,200324,,,D,V*15
$GNVTG,0.00,T,,M,0.01,N,0.01,K,D*26
$GNGGA,215339.000,4000.581808,N,10514.619420,W,2,37,0.57,1611.985,M,-20.635,M,,*77
$GNGSA,A,3,11,12,20,19,24,05,22,17,,,,,0.93,0.57,0.73,1*01
$GNGSA,A,3,78,88,87,77,81,72,,,,,,,0.93,0.57,0.73,2*02
$GNGSA,A,3,13,27,15,26,30,,,,,,,,0.93,0.57,0.73,3*0B
$GNGSA,A,3,44,34,24,22,19,21,26,43,,,,,0.93,0.57,0.73,4*01
$GPGSV,4,1,13,11,89,272,32,12,65,301,19,06,50,045,,44,42,197,44,1*65
$GPGSV,4,2,13,20,41,159,45,25,33,311,,19,29,079,22,24,16,224,45,1*66
$GPGSV,4,3,13,05,11,181,51,22,07,140,45,17,07,089,16,29,05,280,,1*68
$GPGSV,4,4,13,28,01,333,,1*5E
$GPGSV,1,1,01,24,16,224,37,8*5D
$GLGSV,2,1,07,78,64,278,31,88,62,308,18,87,36,037,18,77,34,180,30,1*72
$GLGSV,2,2,07,81,20,256,18,72,15,080,17,65,02,131,21,1*42
$GAGSV,2,1,07,13,69,238,39,27,64,159,41,21,56,306,17,15,54,043,17,7*71
$GAGSV,2,2,07,26,14,230,38,30,13,143,48,34,05,047,,7*45
$GAGSV,1,1,04,13,69,238,33,27,64,159,33,26,14,230,36,30,13,143,24,1*7B
$GBGSV,4,1,14,12,72,335,,44,62,041,18,34,51,279,22,25,43,287,,1*7F
$GBGSV,4,2,14,24,43,206,45,22,21,098,32,19,11,046,15,21,08,147,40,1*71
$GBGSV,4,3,14,26,07,170,41,23,07,324,,43,07,261,37,57,05,077,,1*71
$GBGSV,4,4,14,39,05,332,16,16,02,340,,1*7B
$GBGSV,2,1,05,24,43,206,29,22,21,098,18,21,08,147,37,26,07,170,35,5*7F
$GBGSV,2,2,05,43,07,261,32,5*43
$GNGLL,4000.581808,N,10514.619420,W,215339.000,A,D*5E
$GNRMC,215340.000,A,4000.581754,N,10514.619474,W,0.01,0.00,200324,,,D,V*1C
$GNVTG,0.00,T,,M,0.01,N,0.01,K,D*26
$GNGGA,215340.000,4000.581754,N,10514.619474,W,2,36,0.62,1611.900,M,-20.635,M,,*74
$GNGSA,A,3,11,12,20,19,24,05,22,17,,,,,0.99,0.62,0.78,1*06
$GNGSA,A,3,78,88,87,77,81,72,,,,,,,0.99,0.62,0.78,2*05
$GNGSA,A,3,13,27,15,26,30,,,,,,,,0.99,0.62,0.78,3*0C
$GNGSA,A,3,44,34,24,22,21,26,43,,,,,,0.99,0.62,0.78,4*0E
$GPGSV,4,1,13,11,89,272,32,12,65,301,21,06,50,045,,44,42,197,44,1*6E
$GPGSV,4,2,13,20,41,159,45,25,33,311,,19,29,079,21,24,16,224,45,1*65
$GPGSV,4,3,13,05,11,181,51,22,07,140,45,17,07,089,16,29,05,280,,1*68
$GPGSV,4,4,13,28,01,333,,1*5E
$GPGSV,1,1,01,24,16,224,37,8*5D
$GLGSV,2,1,07,78,64,278,31,88,62,308,19,87,36,037,17,77,34,180,30,1*7C
$GLGSV,2,2,07,81,20,256,19,72,15,080,17,65,02,131,20,1*42
$GAGSV,2,1,07,13,69,238,39,27,64,159,41,21,56,305,17,15,54,043,17,7*72
$GAGSV,2,2,07,26,14,230,38,30,13,143,48,34,05,047,,7*45
$GAGSV,1,1,04,13,69,238,33,27,64,159,33,26,14,230,35,30,13,143,24,1*78
$GBGSV,4,1,14,12,72,335,,44,62,041,18,34,51,279,20,25,43,287,,1*7D
$GBGSV,4,2,14,24,43,206,45,22,21,098,32,19,11,046,16,21,08,147,40,1*72
$GBGSV,4,3,14,26,07,170,41,23,07,324,17,43,07,261,37,57,05,077,,1*77
$GBGSV,4,4,14,39,05,332,,16,02,340,,1*7C
$GBGSV,2,1,05,24,43,206,29,22,21,098,17,21,08,147,36,26,07,170,35,5*71
$GBGSV,2,2,05,43,07,261,32,5*43
$GNGLL,4000.581754,N,10514.619474,W,215340.000,A,D*57
$GNRMC,215341.000,A,4000.581676,N,10514.619528,W,0.01,0.00,200324,,,D,V*14
$GNVTG,0.00,T,,M,0.01,N,0.02,K,D*25
$GNGGA,215341.000,4000.581676,N,10514.619528,W,2,36,0.62,1611.856,M,-20.635,M,,*7E
$GNGSA,A,3,11,12,20,19,24,05,22,17,,,,,0.99,0.62,0.78,1*06
$GNGSA,A,3,78,88,87,77,81,72,,,,,,,0.99,0.62,0.78,2*05
$GNGSA,A,3,13,27,15,26,30,,,,,,,,0.99,0.62,0.78,3*0C
$GNGSA,A,3,44,34,24,22,21,26,43,,,,,,0.99,0.62,0.78,4*0E
$GPGSV,4,1,13,11,89,272,32,12,65,301,20,06,50,045,,44,42,197,44,1*6F
$GPGSV,4,2,13,20,41,159,45,25,33,311,,19,29,079,19,24,16,224,45,1*6E
$GPGSV,4,3,13,05,11,181,51,22,07,140,45,17,07,089,18,29,05,280,,1*66
$GPGSV,4,4,13,28,01,333,,1*5E
$GPGSV,1,1,01,24,16,224,37,8*5D
$GLGSV,2,1,07,78,64,278,31,88,62,308,18,87,36,037,16,77,34,180,30,1*7C
$GLGSV,2,2,07,81,20,256,21,72,15,080,17,65,02,131,19,1*43
$GAGSV,2,1,07,13,69,238,39,27,64,159,41,21,56,305,17,15,54,043,16,7*73
$GAGSV,2,2,07,26,14,230,38,30,13,143,48,34,05,047,,7*45
$GAGSV,1,1,04,13,69,238,33,27,64,159,33,26,14,230,35,30,13,143,24,1*78
$GBGSV,4,1,14,12,72,335,,44,62,041,17,34,51,279,19,25,43,287,,1*78
$GBGSV,4,2,14,24,43,206,45,22,21,098,32,19,11,046,17,21,08,147,40,1*73
$GBGSV,4,3,14,26,07,170,41,23,07,324,15,43,07,261,38,57,05,077,,1*7A
$GBGSV,4,4,14,39,05,332,,16,02,340,,1*7C
$GBGSV,2,1,05,24,43,206,29,22,21,098,17,21,08,147,36,26,07,170,35,5*71
$GBGSV,2,2,05,43,07,261,32,5*43
$GNGLL,4000.581676,N,10514.619528,W,215341.000,A,D*5F
$GNRMC,215342.000,A,4000.581676,N,10514.619570,W,0.01,0.00,200324,,,D,V*1A
$GNVTG,0.00,T,,M,0.01,N,0.02,K,D*25
$GNGGA,215342.000,4000.581676,N,10514.619570,W,2,37,0.57,1611.802,M,-20.635,M,,*76
$GNGSA,A,3,11,12,20,19,24,05,22,17,,,,,0.93,0.57,0.73,1*01
$GNGSA,A,3,78,88,87,77,81,72,,,,,,,0.93,0.57,0.73,2*02
$GNGSA,A,3,13,27,15,26,30,,,,,,,,0.93,0.57,0.73,3*0B
$GNGSA,A,3,44,34,24,22,19,21,26,43,,,,,0.93,0.57,0.73,4*01
$GPGSV,4,1,13,11,89,272,32,12,65,301,19,06,50,045,,44,42,197,44,1*65
$GPGSV,4,2,13,20,41,159,45,25,33,311,,19,29,079,19,24,16,224,45,1*6E
$GPGSV,4,3,13,05,11,181,51,22,07,140,45,17,07,089,22,29,05,280,,1*6F
$GPGSV,4,4,13,28,01,333,,1*5E
$GPGSV,1,1,01,24,16,224,37,8*5D
$GLGSV,2,1,07,78,64,278,31,88,62,308,18,87,36,037,16,77,34,180,30,1*7C
$GLGSV,2,2,07,81,20,256,23,72,15,080,18,65,02,131,17,1*40
$GAGSV,2,1,07,13,69,238,39,27,64,159,41,21,56,305,17,15,54,043,16,7*73
$GAGSV,2,2,07,26,14,230,38,30,13,143,48,34,05,047,14,7*40
$GAGSV,1,1,04,13,69,238,33,27,64,159,33,26,14,230,35,30,13,143,24,1*78
$GBGSV,4,1,14,12,72,335,,44,62,041,17,34,51,279,19,25,43,287,,1*78
$GBGSV,4,2,14,24,43,206,45,22,21,098,32,19,11,046,17,21,08,147,40,1*73
$GBGSV,4,3,14,26,07,170,41,23,07,324,13,43,07,261,38,57,05,077,,1*7C
$GBGSV,4,4,14,39,05,332,,16,02,340,,1*7C
$GBGSV,2,1,05,24,43,206,29,22,21,098,17,21,08,147,36,26,07,170,35,5*71
$GBGSV,2,2,05,43,07,261,32,5*43
$GNGLL,4000.581676,N,10514.619570,W,215342.000,A,D*51
$GNRMC,215343.000,A,4000.581700,N,10514.619600,W,0.01,0.00,200324,,,D,V*1F
$GNVTG,0.00,T,,M,0.01,N,0.02,K,D*25
$GNGGA,215343.000,4000.581700,N,10514.619600,W,2,37,0.57,1611.747,M,-20.635,M,,*7D
$GNGSA,A,3,11,12,20,19,24,05,22,17,,,,,0.93,0.57,0.73,1*01
$GNGSA,A,3,78,88,87,77,81,72,,,,,,,0.93,0.57,0.73,2*02
$GNGSA,A,3,13,27,15,26,30,,,,,,,,0.93,0.57,0.73,3*0B
$GNGSA,A,3,44,34,24,22,19,21,26,43,,,,,0.93,0.57,0.73,4*01
$GPGSV,4,1,13,11,89,272,32,12,65,301,18,06,50,045,,44,42,197,44,1*64
$GPGSV,4,2,13,20,41,159,45,25,33,311,,19,29,079,19,24,16,224,45,1*6E
$GPGSV,4,3,13,05,11,181,51,22,07,140,45,17,07,089,21,29,05,280,,1*6C
$GPGSV,4,4,13,28,01,333,,1*5E
$GPGSV,1,1,01,24,16,224,37,8*5D
$GLGSV,2,1,07,78,64,278,31,88,62,308,18,87,36,037,16,77,34,180,31,1*7D
$GLGSV,2,2,07,81,20,256,24,72,15,080,19,65,02,131,16,1*47
$GAGSV,2,1,07,13,69,238,39,27,64,159,41,21,56,305,17,15,54,043,14,7*71
$GAGSV,2,2,07,26,14,230,38,30,13,143,48,34,05,047,13,7*47
$GAGSV,1,1,04,13,69,238,33,27,64,159,33,26,14,230,36,30,13,143,24,1*7B
$GBGSV,4,1,14,12,72,335,,44,62,041,17,34,51,279,17,25,43,287,,1*76
$GBGSV,4,2,14,24,43,206,45,22,21,098,31,19,11,046,17,21,08,147,40,1*70
$GBGSV,4,3,14,26,07,170,41,23,07,324,12,43,07,261,38,57,05,077,,1*7D
$GBGSV,4,4,14,39,05,332,,16,02,340,,1*7C
$GBGSV,2,1,05,24,43,206,30,22,21,098,17,21,08,147,36,26,07,170,35,5*79
$GBGSV,2,2,05,43,07,261,32,5*43
$GNGLL,4000.581700,N,10514.619600,W,215343.000,A,D*54
$GNRMC,215344.000,A,4000.581718,N,10514.619630,W,0.01,0.00,200324,,,D,V*12
$GNVTG,0.00,T,,M,0.01,N,0.02,K,D*25
$GNGGA,215344.000,4000.581718,N,10514.619630,W,2,37,0.57,1611.714,M,-20.635,M,,*76
$GNGSA,A,3,11,12,20,19,24,05,22,17,,,,,0.93,0.57,0.73,1*01
$GNGSA,A,3,78,88,87,77,81,72,,,,,,,0.93,0.57,0.73,2*02
$GNGSA,A,3,13,27,15,26,30,,,,,,,,0.93,0.57,0.73,3*0B
$GNGSA,A,3,44,34,24,22,19,21,26,43,,,,,0.93,0.57,0.73,4*01
$GPGSV,4,1,13,11,89,272,31,12,65,301,17,06,50,045,,44,42,197,44,1*68
$GPGSV,4,2,13,20,41,159,45,25,33,311,,19,29,079,18,24,16,224,45,1*6F
$GPGSV,4,3,13,05,11,181,51,22,07,140,45,17,07,089,23,29,05,280,,1*6E
$GPGSV,4,4,13,28,01,333,,1*5E
$GPGSV,1,1,01,24,16,224,37,8*5D
$GLGSV,2,1,07,78,64,278,30,88,62,308,18,87,36,037,16,77,34,180,31,1*7C
$GLGSV,2,2,07,81,20,256,24,72,15,080,20,65,02,131,16,1*4D
$GAGSV,2,1,07,13,69,238,39,27,64,159,41,21,56,305,17,15,54,043,13,7*76
$GAGSV,2,2,07,26,14,230,38,30,13,143,48,34,05,047,14,7*40
$GAGSV,1,1,04,13,69,238,33,27,64,159,32,26,14,230,36,30,13,143,24,1*7A
$GBGSV,4,1,14,12,72,335,,44,62,041,17,34,51,279,16,25,43,287,,1*77
$GBGSV,4,2,14,24,43,206,45,22,21,098,31,19,11,046,17,21,08,147,40,1*70
$GBGSV,4,3,14,26,07,170,41,23,07,324,13,43,07,261,38,57,05,077,,1*7C
$GBGSV,4,4,14,39,05,332,,16,02,340,,1*7C
$GBGSV,2,1,05,24,43,206,30,22,21,098,17,21,08,147,36,26,07,170,35,5*79
$GBGSV,2,2,05,43,07,261,32,5*43
$GNGLL,4000.581718,N,10514.619630,W,215344.000,A,D*59
$GNRMC,215345.000,A,4000.581778,N,10514.619618,W,0.01,0.00,200324,,,D,V*1F
$GNVTG,0.00,T,,M,0.01,N,0.03,K,D*24
$GNGGA,215345.000,4000.581778,N,10514.619618,W,2,37,0.57,1611.659,M,-20.635,M,,*73
$GNGSA,A,3,11,12,20,19,24,05,22,17,,,,,0.93,0.57,0.73,1*01
$GNGSA,A,3,78,88,87,77,81,72,,,,,,,0.93,0.57,0.73,2*02
$GNGSA,A,3,13,27,15,26,30,,,,,,,,0.93,0.57,0.73,3*0B
$GNGSA,A,3,44,34,24,22,19,21,26,43,,,,,0.93,0.57,0.73,4*01
$GPGSV,4,1,13,11,89,272,31,12,65,301,17,06,50,045,,44,42,197,44,1*68
$GPGSV,4,2,13,20,41,159,45,25,33,311,,19,29,079,18,24,16,224,45,1*6F
$GPGSV,4,3,13,05,11,181,51,22,07,140,45,17,07,089,22,29,05,280,,1*6F
$GPGSV,4,4,13,28,01,333,,1*5E
$GPGSV,1,1,01,24,16,224,37,8*5D
$GLGSV,2,1,08,78,64,278,31,88,62,308,18,87,36,037,16,77,34,180,31,1*72
$GLGSV,2,2,08,79,21,328,,81,20,256,24,72,15,080,20,65,02,131,17,1*77
$GAGSV,2,1,07,13,69,238,39,27,64,159,41,21,56,305,16,15,54,043,12,7*76
$GAGSV,2,2,07,26,15,230,38,30,13,143,48,34,05,047,14,7*41
$GAGSV,1,1,04,13,69,238,33,27,64,159,32,26,15,230,36,30,13,143,24,1*7B
$GBGSV,4,1,14,12,72,335,,44,62,041,17,34,51,279,15,25,43,287,,1*74
$GBGSV,4,2,14,24,43,206,45,22,21,098,31,19,11,046,17,21,08,147,40,1*70
$GBGSV,4,3,14,26,07,170,42,23,07,324,,43,07,261,38,57,05,077,,1*7D
$GBGSV,4,4,14,39,05,332,,16,02,340,,1*7C
$GBGSV,2,1,05,24,43,206,30,22,21,098,17,21,08,147,36,26,07,170,35,5*79
$GBGSV,2,2,05,43,07,261,32,5*43
$GNGLL,4000.581778,N,10514.619618,W,215345.000,A,D*54
$GNRMC,215346.000,A,4000.581844,N,10514.619630,W,0.01,0.00,200324,,,D,V*16
$GNVTG,0.00,T,,M,0.01,N,0.03,K,D*24
$GNGGA,215346.000,4000.581844,N,10514.619630,W,2,37,0.57,1611.611,M,-20.635,M,,*76
$GNGSA,A,3,11,12,20,19,24,05,22,17,,,,,0.93,0.57,0.73,1*01
$GNGSA,A,3,78,88,87,77,81,72,,,,,,,0.93,0.57,0.73,2*02
$GNGSA,A,3,13,27,15,26,30,,,,,,,,0.93,0.57,0.73,3*0B
$GNGSA,A,3,44,34,24,22,19,21,43,26,,,,,0.93,0.57,0.73,4*01
$GPGSV,4,1,13,11,89,272,31,12,65,301,16,06,50,045,,44,42,197,44,1*69
$GPGSV,4,2,13,20,41,159,45,25,33,311,,19,29,079,18,24,16,224,45,1*6F
$GPGSV,4,3,13,05,11,181,51,22,07,140,45,17,07,089,21,29,05,280,,1*6C
$GPGSV,4,4,13,28,01,333,,1*5E
$GPGSV,1,1,01,24,16,224,37,8*5D
$GLGSV,3,1,09,78,64,278,31,88,62,308,16,87,36,037,15,77,34,180,31,1*7F
$GLGSV,3,2,09,79,21,328,,81,20,256,23,72,15,080,21,71,11,034,,1*74
$GLGSV,3,3,09,65,02,131,18,1*4A
$GAGSV,2,1,07,13,69,238,39,27,63,160,41,21,56,305,17,15,54,043,12,7*7A
$GAGSV,2,2,07,26,15,230,38,30,13,143,48,34,05,047,13,7*46
$GAGSV,1,1,04,13,69,238,33,27,63,160,32,26,15,230,36,30,13,143,24,1*76
$GBGSV,4,1,14,12,72,335,,44,62,041,18,34,51,279,17,25,43,287,,1*79
$GBGSV,4,2,14,24,43,206,45,22,21,098,31,19,11,046,17,21,08,147,40,1*70
$GBGSV,4,3,14,23,07,324,,43,07,261,38,26,07,170,42,39,05,332,,1*77
$GBGSV,4,4,14,57,05,077,,16,02,340,,1*76
$GBGSV,2,1,05,24,43,206,30,22,21,098,16,21,08,147,35,26,07,170,35,5*7B
$GBGSV,2,2,05,43,07,261,32,5*43
$GNGLL,4000.581844,N,10514.619630,W,215346.000,A,D*5D
$GNRMC,215347.000,A,4000.581922,N,10514.619612,W,0.02,0.00,200324,,,D,V*15
$GNVTG,0.00,T,,M,0.02,N,0.03,K,D*27
$GNGGA,215347.000,4000.581922,N,10514.619612,W,2,37,0.57,1611.570,M,-20.635,M,,*72
$GNGSA,A,3,11,12,20,19,24,05,22,17,,,,,0.93,0.57,0.73,1*01
$GNGSA,A,3,78,88,87,77,81,72,,,,,,,0.93,0.57,0.73,2*02
$GNGSA,A,3,13,27,15,26,30,,,,,,,,0.93,0.57,0.73,3*0B
$GNGSA,A,3,44,34,24,22,19,21,43,26,,,,,0.93,0.57,0.73,4*01
$GPGSV,4,1,13,11,89,272,31,12,65,301,17,06,50,045,,44,42,197,44,1*68
$GPGSV,4,2,13,20,41,159,45,25,33,311,,19,29,079,18,24,16,224,45,1*6F
$GPGSV,4,3,13,05,11,181,51,22,07,140,45,17,07,089,18,29,05,280,,1*66
$GPGSV,4,4,13,28,01,333,,1*5E
$GPGSV,1,1,01,24,16,224,37,8*5D
$GLGSV,3,1,09,78,64,278,31,88,62,308,16,87,36,037,15,77,34,180,31,1*7F
$GLGSV,3,2,09,79,21,328,,81,20,256,22,72,15,080,21,71,11,034,,1*75
$GLGSV,3,3,09,65,02,131,19,1*4B
$GAGSV,2,1,07,13,69,238,39,27,63,160,41,21,56,305,18,15,54,043,12,7*75
$GAGSV,2,2,07,26,15,230,38,30,13,143,48,34,05,047,13,7*46
$GAGSV,1,1,04,13,69,238,33,27,63,160,32,26,15,230,36,30,13,143,24,1*76
$GBGSV,4,1,14,12,72,335,17,44,62,041,19,34,51,279,17,25,43,287,,1*7E
$GBGSV,4,2,14,24,43,206,45,22,21,098,30,19,11,046,17,21,08,147,41,1*70
$GBGSV,4,3,14,23,07,324,,43,07,261,38,26,07,170,42,39,05,332,,1*77
$GBGSV,4,4,14,57,05,077,,16,02,340,,1*76
$GBGSV,2,1,05,24,43,206,30,22,21,098,15,21,08,147,35,26,07,170,34,5*79
$GBGSV,2,2,05,43,07,261,33,5*42
$GNGLL,4000.581922,N,10514.619612,W,215347.000,A,D*5D
$GNRMC,215348.000,A,4000.581946,N,10514.619624,W,0.02,0.00,200324,,,D,V*1D
$GNVTG,0.00,T,,M,0.02,N,0.03,K,D*27
$GNGGA,215348.000,4000.581946,N,10514.619624,W,2,37,0.57,1611.566,M,-20.635,M,,*7D
$GNGSA,A,3,11,12,20,19,24,05,22,17,,,,,0.93,0.57,0.73,1*01
$GNGSA,A,3,78,88,87,77,81,72,,,,,,,0.93,0.57,0.73,2*02
$GNGSA,A,3,13,27,15,26,30,,,,,,,,0.93,0.57,0.73,3*0B
$GNGSA,A,3,44,34,24,22,19,21,43,26,,,,,0.93,0.57,0.73,4*01
$GPGSV,4,1,13,11,89,272,30,12,65,301,17,06,50,045,,44,42,197,44,1*69
$GPGSV,4,2,13,20,41,159,45,25,33,311,,19,29,079,18,24,16,224,45,1*6F
$GPGSV,4,3,13,05,11,181,51,22,07,140,45,17,07,089,17,29,05,280,,1*69
$GPGSV,4,4,13,28,01,333,,1*5E
$GPGSV,1,1,01,24,16,224,38,8*52
$GLGSV,3,1,09,78,64,278,31,88,62,308,14,87,36,037,17,77,34,180,31,1*7F
$GLGSV,3,2,09,79,21,328,,81,20,256,21,72,15,080,21,71,11,034,,1*76
$GLGSV,3,3,09,65,02,131,20,1*41
$GAGSV,2,1,07,13,69,238,39,27,63,160,41,21,56,305,18,15,54,043,13,7*74
$GAGSV,2,2,07,26,15,230,38,30,13,143,48,34,05,047,12,7*47
$GAGSV,1,1,04,13,69,238,33,27,63,160,32,26,15,230,36,30,13,143,23,1*71
$GBGSV,4,1,14,12,72,335,17,44,62,041,20,34,51,279,20,25,43,287,,1*70
$GBGSV,4,2,14,24,43,206,45,22,21,098,30,19,11,046,17,21,08,147,41,1*70
$GBGSV,4,3,14,23,07,324,,43,07,261,38,26,07,170,42,39,05,332,,1*77
$GBGSV,4,4,14,57,05,077,,16,02,340,,1*76
$GBGSV,2,1,05,24,43,206,30,22,21,098,15,21,08,147,36,26,07,170,34,5*7A
$GBGSV,2,2,05,43,07,261,33,5*42
$GNGLL,4000.581946,N,10514.619624,W,215348.000,A,D*55
$GNRMC,215349.000,A,4000.581970,N,10514.619636,W,0.01,0.00,200324,,,D,V*19
$GNVTG,0.00,T,,M,0.01,N,0.03,K,D*24
$GNGGA,215349.000,4000.581970,N,10514.619636,W,2,37,0.57,1611.546,M,-20.635,M,,*78
$GNGSA,A,3,11,12,20,19,24,05,22,17,,,,,0.93,0.57,0.73,1*01
$GNGSA,A,3,78,88,87,77,81,72,,,,,,,0.93,0.57,0.73,2*02
$GNGSA,A,3,13,27,15,26,30,,,,,,,,0.93,0.57,0.73,3*0B
$GNGSA,A,3,44,34,24,22,19,21,43,26,,,,,0.93,0.57,0.73,4*01
$GPGSV,4,1,13,11,89,272,30,12,65,301,17,06,50,045,,44,42,197,44,1*69
$GPGSV,4,2,13,20,41,159,45,25,33,311,,19,29,079,17,24,16,224,45,1*60
$GPGSV,4,3,13,05,11,181,51,22,07,140,45,17,07,089,19,29,05,280,,1*67
$GPGSV,4,4,13,28,01,333,,1*5E
$GPGSV,1,1,01,24,16,224,38,8*52
$GLGSV,3,1,09,78,64,278,30,88,62,308,14,87,36,037,20,77,34,180,30,1*7B
$GLGSV,3,2,09,79,21,328,,81,20,256,20,72,15,080,21,71,11,034,,1*77
$GLGSV,3,3,09,65,02,131,22,1*43
$GAGSV,2,1,07,13,69,238,39,27,63,160,41,21,56,305,18,15,54,043,14,7*73
$GAGSV,2,2,07,26,15,230,39,30,12,144,48,34,05,047,12,7*40
$GAGSV,1,1,04,13,69,238,33,27,63,160,32,26,15,230,36,30,12,144,23,1*77
$GBGSV,4,1,14,12,72,335,,44,62,041,20,34,51,279,21,25,43,287,,1*77
$GBGSV,4,2,14,24,43,206,45,22,21,098,30,19,11,046,17,21,08,147,41,1*70
$GBGSV,4,3,14,23,07,324,,43,07,261,37,26,07,170,42,39,05,332,,1*78
$GBGSV,4,4,14,57,05,077,,16,02,340,,1*76
$GBGSV,2,1,05,24,43,206,30,22,21,098,14,21,08,147,36,26,07,170,34,5*7B
$GBGSV,2,2,05,43,07,261,33,5*42
$GNGLL,4000.581970,N,10514.619636,W,215349.000,A,D*52
$GNRMC,215350.000,A,4000.581982,N,10514.619654,W,0.01,0.00,200324,,,D,V*18
$GNVTG,0.00,T,,M,0.01,N,0.02,K,D*25
$GNGGA,215350.000,4000.581982,N,10514.619654,W,2,37,0.57,1611.558,M,-20.635,M,,*76
$GNGSA,A,3,11,12,20,19,24,05,22,17,,,,,0.93,0.57,0.73,1*01
$GNGSA,A,3,78,88,87,77,81,72,,,,,,,0.93,0.57,0.73,2*02
$GNGSA,A,3,13,27,15,26,30,,,,,,,,0.93,0.57,0.73,3*0B
$GNGSA,A,3,44,34,24,22,19,21,43,26,,,,,0.93,0.57,0.73,4*01
$GPGSV,4,1,13,11,89,272,30,12,65,301,17,06,50,045,,44,42,197,44,1*69
$GPGSV,4,2,13,20,41,159,45,25,33,311,,19,29,079,16,24,16,224,45,1*61
$GPGSV,4,3,13,05,11,181,51,22,07,140,45,17,07,089,22,29,05,280,,1*6F
$GPGSV,4,4,13,28,01,333,,1*5E
$GPGSV,1,1,01,24,16,224,38,8*52
$GLGSV,3,1,09,78,64,278,29,88,62,308,16,87,36,037,20,77,34,180,30,1*71
$GLGSV,3,2,09,79,21,328,,81,20,256,19,72,15,080,21,71,11,034,,1*7D
$GLGSV,3,3,09,65,02,131,23,1*42
$GAGSV,2,1,07,13,69,238,39,27,63,160,41,21,56,305,18,15,54,043,14,7*73
$GAGSV,2,2,07,26,15,230,39,30,12,144,48,34,05,047,11,7*43
$GAGSV,1,1,04,13,69,238,33,27,63,160,32,26,15,230,36,30,12,144,23,1*77
$GBGSV,4,1,14,12,72,335,,44,62,041,20,34,51,279,24,25,43,287,,1*72
$GBGSV,4,2,14,24,43,206,45,22,21,098,30,19,11,046,16,21,08,147,41,1*71
$GBGSV,4,3,14,23,07,324,,43,07,261,37,26,07,170,42,39,05,332,,1*78
$GBGSV,4,4,14,57,05,077,,16,02,340,,1*76
$GBGSV,2,1,05,24,43,206,30,22,21,098,14,21,08,147,36,26,07,170,34,5*7B
$GBGSV,2,2,05,43,07,261,33,5*42
$GNGLL,4000.581982,N,10514.619654,W,215350.000,A,D*53
$GNRMC,215351.000,A,4000.582036,N,10514.619648,W,0.01,0.00,200324,,,D,V*11
$GNVTG,0.00,T,,M,0.01,N,0.02,K,D*25
$GNGGA,215351.000,4000.582036,N,10514.619648,W,2,37,0.57,1611.525,M,-20.635,M,,*75
$GNGSA,A,3,11,12,20,19,24,05,22,17,,,,,0.93,0.57,0.73,1*01
$GNGSA,A,3,78,88,87,77,81,72,,,,,,,0.93,0.57,0.73,2*02
$GNGSA,A,3,13,27,15,26,30,,,,,,,,0.93,0.57,0.73,3*0B
$GNGSA,A,3,44,34,24,22,19,21,43,26,,,,,0.93,0.57,0.73,4*01
$GPGSV,4,1,13,11,89,272,31,12,65,301,17,06,50,045,,44,42,197,44,1*68
$GPGSV,4,2,13,20,41,159,45,25,33,311,,19,29,079,16,24,16,224,45,1*61
$GPGSV,4,3,13,05,11,181,51,22,07,140,45,17,07,089,26,29,05,280,,1*6B
$GPGSV,4,4,13,28,01,333,,1*5E
$GPGSV,1,1,01,24,16,224,38,8*52
$GLGSV,3,1,09,78,64,278,28,88,62,308,17,87,36,037,18,77,34,180,30,1*7A
$GLGSV,3,2,09,79,21,328,,81,20,256,20,72,15,080,21,71,11,034,,1*77
$GLGSV,3,3,09,65,02,131,25,1*44
$GAGSV,2,1,07,13,69,238,39,27,63,160,41,21,56,305,18,15,54,043,15,7*72
$GAGSV,2,2,07,26,15,230,39,30,12,144,48,34,05,047,,7*43
$GAGSV,1,1,04,13,69,238,33,27,63,160,32,26,15,230,36,30,12,144,23,1*77
$GBGSV,4,1,14,12,72,335,,44,62,041,20,34,51,279,24,25,43,287,,1*72
$GBGSV,4,2,14,24,43,206,45,22,21,098,30,19,11,046,15,21,08,147,41,1*72
$GBGSV,4,3,14,23,07,324,,43,07,261,37,26,07,170,42,39,05,332,,1*78
$GBGSV,4,4,14,57,05,077,,16,02,340,,1*76
$GBGSV,2,1,05,24,43,206,30,22,21,098,14,21,08,147,36,26,07,170,34,5*7B
$GBGSV,2,2,05,43,07,261,33,5*42
$GNGLL,4000.582036,N,10514.619648,W,215351.000,A,D*5A
$GNRMC,215352.000,A,4000.582084,N,10514.619666,W,0.01,0.00,200324,,,D,V*17
$GNVTG,0.00,T,,M,0.01,N,0.01,K,D*26
$GNGGA,215352.000,4000.582084,N,10514.619666,W,2,37,0.57,1611.448,M,-20.634,M,,*78
$GNGSA,A,3,11,12,20,19,24,05,22,17,,,,,0.93,0.57,0.73,1*01
$GNGSA,A,3,78,88,87,77,81,72,,,,,,,0.93,0.57,0.73,2*02
$GNGSA,A,3,13,27,15,26,30,,,,,,,,0.93,0.57,0.73,3*0B
$GNGSA,A,3,44,34,24,22,19,21,43,26,,,,,0.93,0.57,0.73,4*01
$GPGSV,4,1,13,11,89,272,31,12,65,301,17,06,50,045,,44,42,197,44,1*68
$GPGSV,4,2,13,20,41,159,44,25,33,311,,19,29,079,13,24,16,224,45,1*65
$GPGSV,4,3,13,05,11,181,51,22,07,140,45,17,07,089,27,29,05,280,,1*6A
$GPGSV,4,4,13,28,01,333,,1*5E
$GPGSV,1,1,01,24,16,224,38,8*52
$GLGSV,3,1,09,78,64,278,27,88,62,308,17,87,36,037,18,77,34,180,31,1*74
$GLGSV,3,2,09,79,21,328,,81,20,256,21,72,15,080,21,71,11,034,,1*76
$GLGSV,3,3,09,65,02,131,26,1*47
$GAGSV,2,1,07,13,69,238,39,27,63,160,41,21,56,305,18,15,54,043,16,7*71
$GAGSV,2,2,07,26,15,230,39,30,12,144,48,34,05,047,,7*43
$GAGSV,1,1,04,13,69,238,33,27,63,160,32,26,15,230,36,30,12,144,23,1*77
$GBGSV,4,1,14,12,72,335,,44,62,041,20,34,51,279,22,25,43,287,,1*74
$GBGSV,4,2,14,24,43,206,45,22,21,098,30,19,11,046,15,21,08,147,41,1*72
$GBGSV,4,3,14,23,07,324,,43,07,261,36,26,07,170,42,39,05,332,,1*79
$GBGSV,4,4,14,57,05,077,,16,02,340,,1*76
$GBGSV,2,1,05,24,43,206,30,22,21,098,15,21,08,147,36,26,07,170,34,5*7A
$GBGSV,2,2,05,43,07,261,33,5*42
$GNGLL,4000.582084,N,10514.619666,W,215352.000,A,D*5C
$GNRMC,215353.000,A,4000.582120,N,10514.619666,W,0.01,0.00,200324,,,D,V*19
$GNVTG,0.00,T,,M,0.01,N,0.02,K,D*25
$GNGGA,215353.000,4000.582120,N,10514.619666,W,2,36,0.62,1611.391,M,-20.635,M,,*73
$GNGSA,A,3,11,12,20,19,24,05,22,17,,,,,0.99,0.62,0.78,1*06
$GNGSA,A,3,78,88,87,77,81,72,,,,,,,0.99,0.62,0.78,2*05
$GNGSA,A,3,13,27,15,26,30,,,,,,,,0.99,0.62,0.78,3*0C
$GNGSA,A,3,44,34,24,22,21,26,43,,,,,,0.99,0.62,0.78,4*0E
$GPGSV,4,1,13,11,89,272,31,12,65,301,17,06,50,045,,44,42,197,44,1*68
$GPGSV,4,2,13,20,41,159,44,25,33,311,,19,29,079,13,24,16,224,45,1*65
$GPGSV,4,3,13,05,11,181,51,22,07,140,45,17,07,089,27,29,05,280,,1*6A
$GPGSV,4,4,13,28,01,333,,1*5E
$GPGSV,1,1,01,24,16,224,39,8*53
$GLGSV,2,1,08,78,64,278,28,88,62,308,19,87,36,037,18,77,34,180,31,1*75
$GLGSV,2,2,08,81,20,256,21,72,15,080,23,71,11,034,,65,02,131,27,1*77
$GAGSV,2,1,07,13,69,238,39,27,63,160,41,21,56,305,17,15,54,043,17,7*7F
$GAGSV,2,2,07,26,15,230,39,30,12,144,48,34,04,048,,7*4D
$GAGSV,1,1,04,13,69,238,34,27,63,160,33,26,15,230,37,30,12,144,23,1*70
$GBGSV,4,1,14,12,72,335,17,44,62,041,20,34,51,279,21,25,43,287,,1*71
$GBGSV,4,2,14,24,43,206,45,22,21,098,30,19,11,046,15,21,08,147,41,1*72
$GBGSV,4,3,14,26,07,170,42,23,07,324,,43,07,261,36,57,05,077,,1*73
$GBGSV,4,4,14,39,05,332,,16,02,340,,1*7C
$GBGSV,2,1,05,24,43,206,30,22,21,098,15,21,08,147,36,26,07,170,35,5*7B
$GBGSV,2,2,05,43,07,261,33,5*42
$GNGLL,4000.582120,N,10514.619666,W,215353.000,A,D*52
$GNRMC,215354.000,A,4000.582126,N,10514.619690,W,0.01,0.00,200324,,,D,V*11
$GNVTG,0.00,T,,M,0.01,N,0.02,K,D*25
$GNGGA,215354.000,4000.582126,N,10514.619690,W,2,36,0.62,1611.327,M,-20.635,M,,*76
$GNGSA,A,3,11,12,20,19,24,05,22,17,,,,,0.99,0.62,0.78,1*06
$GNGSA,A,3,78,88,87,77,81,72,,,,,,,0.99,0.62,0.78,2*05
$GNGSA,A,3,13,27,15,26,30,,,,,,,,0.99,0.62,0.78,3*0C
$GNGSA,A,3,44,34,24,22,21,26,43,,,,,,0.99,0.62,0.78,4*0E
$GPGSV,4,1,13,11,89,272,31,12,65,301,17,06,50,045,,44,42,197,44,1*68
$GPGSV,4,2,13,20,41,159,44,25,33,311,,19,29,079,13,24,16,224,45,1*65
$GPGSV,4,3,13,05,11,181,51,22,07,140,45,17,07,089,25,29,05,280,,1*68
$GPGSV,4,4,13,28,01,333,,1*5E
$GPGSV,1,1,01,24,16,224,39,8*53
$GLGSV,2,1,08,78,64,278,29,88,62,308,15,87,36,037,17,77,34,180,32,1*74
$GLGSV,2,2,08,81,20,256,20,72,15,080,25,71,11,034,,65,02,131,27,1*70
$GAGSV,2,1,07,13,69,238,39,27,63,160,41,21,56,305,15,15,54,043,17,7*7D
$GAGSV,2,2,07,26,15,230,39,30,12,144,48,34,04,048,,7*4D
$GAGSV,1,1,04,13,69,238,34,27,63,160,33,26,15,230,37,30,12,144,23,1*70
$GBGSV,4,1,14,12,72,335,17,44,62,041,19,34,51,279,18,25,43,287,,1*71
$GBGSV,4,2,14,24,43,206,45,22,21,098,30,19,11,046,13,21,08,147,42,1*77
$GBGSV,4,3,14,26,07,170,42,23,07,324,,43,07,261,36,57,05,077,,1*73
$GBGSV,4,4,14,39,05,332,,16,02,340,,1*7C
$GBGSV,2,1,05,24,43,206,31,22,21,098,16,21,08,147,36,26,07,170,35,5*79
$GBGSV,2,2,05,43,07,261,33,5*42
$GNGLL,4000.582126,N,10514.619690,W,215354.000,A,D*5A
$GNRMC,215355.000,A,4000.582144,N,10514.619714,W,0.01,0.00,200324,,,D,V*19
$GNVTG,0.00,T,,M,0.01,N,0.02,K,D*25
$GNGGA,215355.000,4000.582144,N,10514.619714,W,2,36,0.62,1611.306,M,-20.634,M,,*7C
$GNGSA,A,3,11,12,20,19,24,05,17,22,,,,,0.99,0.62,0.78,1*06
$GNGSA,A,3,78,88,87,77,81,72,,,,,,,0.99,0.62,0.78,2*05
$GNGSA,A,3,13,27,15,26,30,,,,,,,,0.99,0.62,0.78,3*0C
$GNGSA,A,3,44,34,24,22,21,26,43,,,,,,0.99,0.62,0.78,4*0E
$GPGSV,3,1,12,11,89,272,30,12,65,301,17,06,50,045,,44,42,197,44,1*6F
$GPGSV,3,2,12,20,41,159,44,25,33,311,,19,29,079,12,24,16,224,45,1*62
$GPGSV,3,3,12,05,11,181,51,17,07,089,24,22,07,140,45,28,01,333,,1*63
$GPGSV,1,1,01,24,16,224,39,8*53
$GLGSV,2,1,08,78,64,278,28,88,62,308,18,87,36,037,16,77,34,180,32,1*79
$GLGSV,2,2,08,81,20,256,19,72,15,080,25,71,11,034,,65,02,131,27,1*7A
$GAGSV,2,1,07,13,69,238,39,27,63,160,41,21,56,305,14,15,54,043,17,7*7C
$GAGSV,2,2,07,26,15,230,39,30,12,144,48,34,04,048,,7*4D
$GAGSV,1,1,04,13,69,238,34,27,63,160,33,26,15,230,37,30,12,144,23,1*70
$GBGSV,4,1,14,12,72,335,16,44,62,041,17,34,51,279,17,24,43,206,45,1*78
$GBGSV,4,2,14,25,43,287,,22,21,098,30,19,11,046,13,21,08,147,42,1*7E
$GBGSV,4,3,14,26,07,170,43,43,07,261,36,23,07,324,,39,05,332,,1*78
$GBGSV,4,4,14,57,05,077,,16,02,340,,1*76
$GBGSV,2,1,05,24,43,206,31,22,21,098,16,21,08,147,36,26,07,170,35,5*79
$GBGSV,2,2,05,43,07,261,33,5*42
$GNGLL,4000.582144,N,10514.619714,W,215355.000,A,D*52
$GNRMC,215356.000,A,4000.582138,N,10514.619750,W,0.01,0.00,200324,,,D,V*11
$GNVTG,0.00,T,,M,0.01,N,0.01,K,D*26
$GNGGA,215356.000,4000.582138,N,10514.619750,W,2,37,0.57,1611.296,M,-20.635,M,,*7A
$GNGSA,A,3,11,12,20,19,24,05,22,17,,,,,0.93,0.57,0.73,1*01
$GNGSA,A,3,78,88,87,77,81,72,,,,,,,0.93,0.57,0.73,2*02
$GNGSA,A,3,13,27,15,26,30,,,,,,,,0.93,0.57,0.73,3*0B
$GNGSA,A,3,44,34,24,22,19,21,26,43,,,,,0.93,0.57,0.73,4*01
$GPGSV,4,1,13,11,89,272,29,12,65,301,17,06,50,045,,44,42,197,44,1*61
$GPGSV,4,2,13,20,41,159,44,25,33,311,,19,29,079,13,24,16,224,45,1*65
$GPGSV,4,3,13,05,11,181,51,22,07,140,45,17,07,089,23,29,05,280,,1*6E
$GPGSV,4,4,13,28,01,333,,1*5E
$GPGSV,1,1,01,24,16,224,39,8*53
$GLGSV,2,1,08,78,64,278,28,88,62,308,18,87,36,037,15,77,34,180,32,1*7A
$GLGSV,2,2,08,81,20,256,19,72,15,080,25,71,11,034,,65,03,130,27,1*7A
$GAGSV,2,1,07,13,69,238,39,27,63,160,41,21,56,305,14,15,54,043,17,7*7C
$GAGSV,2,2,07,26,15,230,39,30,12,144,48,34,04,048,,7*4D
$GAGSV,1,1,04,13,69,238,33,27,63,160,33,26,15,230,37,30,12,144,22,1*76
$GBGSV,4,1,14,12,72,335,13,44,62,041,17,34,51,279,17,24,43,206,45,1*7D
$GBGSV,4,2,14,25,43,287,,22,21,098,30,19,11,046,13,21,08,147,42,1*7E
$GBGSV,4,3,14,23,07,324,,26,07,170,43,43,07,261,36,39,05,332,,1*78
$GBGSV,4,4,14,57,05,077,,16,02,340,,1*76
$GBGSV,2,1,05,24,43,206,31,22,21,098,16,21,08,147,36,26,07,170,35,5*79
$GBGSV,2,2,05,43,07,261,33,5*42
$GNGLL,4000.582138,N,10514.619750,W,215356.000,A,D*5A
$GNRMC,215357.000,A,4000.582144,N,10514.619786,W,0.01,0.00,200324,,,D,V*10
$GNVTG,0.00,T,,M,0.01,N,0.01,K,D*26
$GNGGA,215357.000,4000.582144,N,10514.619786,W,2,37,0.57,1611.341,M,-20.634,M,,*71
$GNGSA,A,3,11,12,20,19,24,05,22,17,,,,,0.93,0.57,0.73,1*01
$GNGSA,A,3,78,88,87,77,81,72,,,,,,,0.93,0.57,0.73,2*02
$GNGSA,A,3,13,27,15,26,30,,,,,,,,0.93,0.57,0.73,3*0B
$GNGSA,A,3,44,34,24,22,19,21,26,43,,,,,0.93,0.57,0.73,4*01
$GPGSV,4,1,13,11,89,272,29,12,65,301,16,06,50,045,,44,42,197,44,1*60
$GPGSV,4,2,13,20,41,159,44,25,33,311,,19,29,079,14,24,16,224,45,1*62
$GPGSV,4,3,13,05,11,181,51,22,07,140,45,17,07,089,24,29,05,280,,1*69
$GPGSV,4,4,13,28,01,333,,1*5E
$GPGSV,1,1,01,24,16,224,39,8*53
$GLGSV,2,1,08,78,64,278,28,88,62,308,17,87,36,037,16,77,34,180,31,1*75
$GLGSV,2,2,08,81,20,256,18,72,15,080,23,71,11,034,,65,03,130,27,1*7D
$GAGSV,2,1,07,13,69,238,39,27,63,160,41,21,56,305,14,15,54,043,17,7*7C
$GAGSV,2,2,07,26,15,230,39,30,12,144,48,34,04,048,,7*4D
$GAGSV,1,1,04,13,69,238,33,27,63,160,33,26,15,230,37,30,12,144,22,1*76
$GBGSV,4,1,14,12,72,335,14,44,62,041,15,34,51,279,17,24,43,206,45,1*78
$GBGSV,4,2,14,25,43,287,,22,21,098,31,19,11,046,13,21,08,147,42,1*7F
$GBGSV,4,3,14,23,07,324,,26,07,170,43,43,07,261,36,39,05,332,,1*78
$GBGSV,4,4,14,57,05,077,,16,02,340,,1*76
$GBGSV,2,1,05,24,43,206,31,22,21,098,16,21,08,147,36,26,07,170,35,5*79
$GBGSV,2,2,05,43,07,261,33,5*42
$GNGLL,4000.582144,N,10514.619786,W,215357.000,A,D*5B
$GNRMC,215358.000,A,4000.582138,N,10514.619858,W,0.01,0.00,200324,,,D,V*18
$GNVTG,0.00,T,,M,0.01,N,0.01,K,D*26
$GNGGA,215358.000,4000.582138,N,10514.619858,W,2,36,0.62,1611.432,M,-20.635,M,,*7C
$GNGSA,A,3,11,12,20,19,24,05,22,17,,,,,0.99,0.62,0.78,1*06
$GNGSA,A,3,78,88,87,77,81,72,,,,,,,0.99,0.62,0.78,2*05
$GNGSA,A,3,13,27,15,26,30,,,,,,,,0.99,0.62,0.78,3*0C
$GNGSA,A,3,44,34,24,22,21,43,26,,,,,,0.99,0.62,0.78,4*0E
$GPGSV,4,1,13,11,89,272,28,12,65,301,17,06,50,045,,44,42,197,44,1*60
$GPGSV,4,2,13,20,41,159,43,25,33,311,,19,29,079,12,24,16,224,45,1*63
$GPGSV,4,3,13,05,11,181,51,22,07,140,45,17,07,089,22,29,05,280,,1*6F
$GPGSV,4,4,13,28,01,333,,1*5E
$GPGSV,1,1,01,24,16,224,38,8*52
$GLGSV,2,1,07,78,64,278,26,88,62,308,15,87,36,037,19,77,34,180,31,1*79
$GLGSV,2,2,07,81,20,256,17,72,15,080,21,65,03,130,27,1*4E
$GAGSV,2,1,07,13,69,238,39,27,63,160,41,21,56,305,14,15,54,043,17,7*7C
$GAGSV,2,2,07,26,15,230,39,30,12,144,48,34,04,048,,7*4D
$GAGSV,1,1,04,13,69,238,33,27,63,160,32,26,15,230,36,30,12,144,22,1*76
$GBGSV,4,1,14,12,72,335,15,44,62,041,16,34,51,279,18,25,43,287,,1*7C
$GBGSV,4,2,14,24,43,206,46,22,21,098,32,19,11,046,13,21,08,147,43,1*77
$GBGSV,4,3,14,23,07,324,,43,07,261,36,26,07,170,43,57,05,077,,1*72
$GBGSV,4,4,14,39,05,332,,16,02,340,,1*7C
$GBGSV,2,1,05,24,43,206,30,22,21,098,16,21,08,147,35,26,07,170,35,5*7B
$GBGSV,2,2,05,43,07,261,33,5*42
$GNGLL,4000.582138,N,10514.619858,W,215358.000,A,D*53
$GNRMC,215359.000,A,4000.582066,N,10514.619918,W,0.01,0.00,200324,,,D,V*16
$GNVTG,0.00,T,,M,0.01,N,0.02,K,D*25
$GNGGA,215359.000,4000.582066,N,10514.619918,W,2,35,0.62,1611.510,M,-20.635,M,,*70
$GNGSA,A,3,11,12,20,19,24,05,22,17,,,,,1.00,0.62,0.79,1*06
$GNGSA,A,3,78,88,87,77,81,72,,,,,,,1.00,0.62,0.79,2*05
$GNGSA,A,3,13,27,15,26,30,,,,,,,,1.00,0.62,0.79,3*0C
$GNGSA,A,3,34,24,22,21,43,26,,,,,,,1.00,0.62,0.79,4*0E
$GPGSV,4,1,13,11,89,272,28,12,65,301,17,06,50,045,,44,42,197,44,1*60
$GPGSV,4,2,13,20,41,159,43,25,33,311,,19,29,079,11,24,16,224,45,1*60
$GPGSV,4,3,13,05,11,181,51,22,07,140,45,17,07,089,22,29,05,280,,1*6F
$GPGSV,4,4,13,28,01,333,,1*5E
$GPGSV,1,1,01,24,16,224,38,8*52
$GLGSV,2,1,07,78,64,278,19,88,62,308,12,87,36,037,17,77,34,180,31,1*7C
$GLGSV,2,2,07,81,20,256,18,72,15,080,17,65,03,130,27,1*44
$GAGSV,2,1,07,13,69,238,39,27,63,160,41,21,56,305,14,15,54,043,17,7*7C
$GAGSV,2,2,07,26,15,230,39,30,12,144,48,34,04,048,,7*4D
$GAGSV,1,1,04,13,69,238,33,27,63,160,32,26,15,230,36,30,12,144,21,1*75
$GBGSV,4,1,14,12,72,335,16,44,62,041,,34,51,279,21,25,43,287,,1*72
$GBGSV,4,2,14,24,43,206,46,22,21,098,32,19,11,046,12,21,08,147,43,1*76
$GBGSV,4,3,14,23,07,324,,43,07,261,36,26,07,170,43,57,05,077,,1*72
$GBGSV,4,4,14,39,05,332,,16,02,340,,1*7C
$GBGSV,2,1,05,24,43,206,30,22,21,098,16,21,08,147,35,26,07,170,35,5*7B
$GBGSV,2,2,05,43,07,261,33,5*42
$GNGLL,4000.582066,N,10514.619918,W,215359.000,A,D*5D
$GNRMC,215400.000,A,4000.582024,N,10514.619966,W,0.01,0.00,200324,,,D,V*12
$GNVTG,0.00,T,,M,0.01,N,0.01,K,D*26
$GNGGA,215400.000,4000.582024,N,10514.619966,W,2,36,0.57,1611.618,M,-20.635,M,,*7A
$GNGSA,A,3,11,12,20,19,24,05,22,17,,,,,0.93,0.57,0.74,1*06
$GNGSA,A,3,78,88,87,77,81,72,,,,,,,0.93,0.57,0.74,2*05
$GNGSA,A,3,13,27,15,26,30,,,,,,,,0.93,0.57,0.74,3*0C
$GNGSA,A,3,34,24,22,19,21,43,26,,,,,,0.93,0.57,0.74,4*06
$GPGSV,4,1,13,11,89,272,27,12,65,301,17,06,50,045,,44,42,197,44,1*6F
$GPGSV,4,2,13,20,41,159,43,25,33,311,,19,29,079,13,24,16,224,45,1*62
$GPGSV,4,3,13,05,11,181,51,22,07,140,45,17,07,089,21,29,05,280,,1*6C
$GPGSV,4,4,13,28,01,333,,1*5E
$GPGSV,1,1,01,24,16,224,38,8*52
$GLGSV,2,1,07,78,64,278,19,88,62,308,13,87,36,037,17,77,34,180,31,1*7D
$GLGSV,2,2,07,81,20,256,22,72,15,080,19,65,03,130,27,1*43
$GAGSV,2,1,07,13,69,238,39,27,63,160,41,21,56,305,15,15,54,043,16,7*7C
$GAGSV,2,2,07,26,15,230,39,30,12,144,48,34,04,048,,7*4D
$GAGSV,1,1,04,13,69,238,33,27,63,160,32,26,15,230,36,30,12,144,21,1*75
$GBGSV,4,1,14,12,72,335,16,44,62,041,,34,51,279,22,25,43,287,,1*71
$GBGSV,4,2,14,24,43,206,46,22,21,098,32,19,11,046,12,21,08,147,43,1*76
$GBGSV,4,3,14,23,07,324,,43,07,261,36,26,07,170,43,57,05,077,,1*72
$GBGSV,4,4,14,39,05,332,14,16,02,340,,1*79
$GBGSV,2,1,05,24,43,206,30,22,21,098,16,21,08,147,35,26,07,170,35,5*7B
$GBGSV,2,2,05,43,07,261,33,5*42
$GNGLL,4000.582024,N,10514.619966,W,215400.000,A,D*59
$GNRMC,215401.000,A,4000.581982,N,10514.619996,W,0.01,0.00,200324,,,D,V*1A
$GNVTG,0.00,T,,M,0.01,N,0.01,K,D*26
$GNGGA,215401.000,4000.581982,N,10514.619996,W,2,37,0.60,1611.740,M,-20.634,M,,*7A
$GNGSA,A,3,11,12,20,19,24,05,22,17,,,,,0.98,0.60,0.78,1*05
$GNGSA,A,3,78,88,87,77,81,72,,,,,,,0.98,0.60,0.78,2*06
$GNGSA,A,3,13,27,15,26,30,,,,,,,,0.98,0.60,0.78,3*0F
$GNGSA,A,3,44,34,24,25,22,21,26,43,,,,,0.98,0.60,0.78,4*0A
$GPGSV,4,1,13,11,89,272,25,12,65,301,14,06,50,045,,44,42,197,44,1*6E
$GPGSV,4,2,13,20,41,159,43,25,33,311,,19,29,079,13,24,16,224,45,1*62
$GPGSV,4,3,13,05,11,181,51,22,07,140,45,17,07,089,22,29,05,280,,1*6F
$GPGSV,4,4,13,28,01,333,,1*5E
$GPGSV,1,1,01,24,16,224,38,8*52
$GLGSV,2,1,08,78,64,278,21,88,62,308,17,87,36,037,17,77,34,180,30,1*7C
$GLGSV,2,2,08,79,21,328,,81,20,256,24,72,15,080,24,65,03,130,28,1*7F
$GAGSV,2,1,07,13,69,238,39,27,63,160,41,21,56,305,16,15,54,043,16,7*7F
$GAGSV,2,2,07,26,15,230,39,30,12,144,48,34,04,048,18,7*44
$GAGSV,1,1,04,13,69,238,33,27,63,160,32,26,15,230,36,30,12,144,21,1*75
$GBGSV,4,1,14,12,72,335,16,44,62,041,18,34,51,279,22,24,43,206,46,1*72
$GBGSV,4,2,14,25,43,287,17,22,21,098,33,19,11,046,,21,08,147,43,1*78
$GBGSV,4,3,14,23,07,324,15,26,07,170,44,43,07,261,36,39,05,332,14,1*7E
$GBGSV,4,4,14,57,05,077,,16,02,340,,1*76
$GBGSV,2,1,05,24,43,206,30,22,21,098,16,21,08,147,35,26,07,170,35,5*7B
$GBGSV,2,2,05,43,07,261,33,5*42
$GNGLL,4000.581982,N,10514.619996,W,215401.000,A,D*51
$GNRMC,215402.000,A,4000.581952,N,10514.620050,W,0.01,0.00,200324,,,D,V*1D
$GNVTG,0.00,T,,M,0.01,N,0.01,K,D*26
$GNGGA,215402.000,4000.581952,N,10514.620050,W,2,36,0.60,1611.861,M,-20.635,M,,*71
$GNGSA,A,3,11,12,20,24,05,22,17,,,,,,0.99,0.60,0.78,1*0C
$GNGSA,A,3,78,88,87,77,81,72,,,,,,,0.99,0.60,0.78,2*07
$GNGSA,A,3,13,27,15,26,30,,,,,,,,0.99,0.60,0.78,3*0E
$GNGSA,A,3,44,34,25,24,22,21,43,26,,,,,0.99,0.60,0.78,4*0B
$GPGSV,4,1,13,11,89,272,25,12,65,301,16,06,50,045,,44,42,197,44,1*6C
$GPGSV,4,2,13,20,41,159,43,25,33,311,,19,29,079,,24,16,224,45,1*60
$GPGSV,4,3,13,05,11,181,51,22,07,140,45,17,07,089,22,29,05,280,,1*6F
$GPGSV,4,4,13,28,01,333,,1*5E
$GPGSV,1,1,01,24,16,224,38,8*52
$GLGSV,3,1,09,78,64,278,18,88,62,308,18,87,36,037,17,77,34,180,30,1*79
$GLGSV,3,2,09,79,21,328,,81,20,256,24,72,15,080,24,71,10,032,,1*71
$GLGSV,3,3,09,65,03,130,28,1*49
$GAGSV,2,1,07,13,69,238,39,27,63,160,41,21,56,305,17,15,54,043,16,7*7E
$GAGSV,2,2,07,26,15,230,39,30,12,144,48,34,04,048,18,7*44
$GAGSV,1,1,04,13,69,238,33,27,63,160,32,26,15,230,36,30,12,144,21,1*75
$GBGSV,4,1,14,12,72,335,15,44,62,041,18,34,51,279,20,25,43,287,16,1*7E
$GBGSV,4,2,14,24,43,206,46,22,21,098,33,19,11,046,,21,08,147,43,1*74
$GBGSV,4,3,14,43,07,261,36,26,07,170,44,23,07,324,15,39,05,332,,1*7B
$GBGSV,4,4,14,57,05,077,,16,02,340,,1*76
$GBGSV,2,1,05,24,43,206,30,22,21,098,17,21,08,147,35,26,07,170,35,5*7A
$GBGSV,2,2,05,43,07,261,33,5*42
$GNGLL,4000.581952,N,10514.620050,W,215402.000,A,D*56
$GNRMC,215403.000,A,4000.581952,N,10514.620080,W,0.00,0.00,200324,,,D,V*10
$GNVTG,0.00,T,,M,0.00,N,0.01,K,D*27
$GNGGA,215403.000,4000.581952,N,10514.620080,W,2,35,0.61,1611.966,M,-20.634,M,,*78
$GNGSA,A,3,12,20,24,05,22,17,,,,,,,1.02,0.61,0.82,1*0B
$GNGSA,A,3,78,88,87,77,81,72,,,,,,,1.02,0.61,0.82,2*00
$GNGSA,A,3,13,27,15,26,30,,,,,,,,1.02,0.61,0.82,3*09
$GNGSA,A,3,44,34,25,24,22,21,43,26,,,,,1.02,0.61,0.82,4*0C
$GPGSV,4,1,13,11,89,272,20,12,65,301,17,06,50,045,,44,42,197,44,1*68
$GPGSV,4,2,13,20,41,159,43,25,33,311,,19,29,079,,24,16,224,45,1*60
$GPGSV,4,3,13,05,11,181,51,22,07,140,45,17,07,089,21,29,05,280,,1*6C
$GPGSV,4,4,13,28,01,333,,1*5E
$GPGSV,1,1,01,24,16,224,38,8*52
$GLGSV,3,1,09,78,64,278,12,88,62,308,16,87,36,037,18,77,34,180,30,1*72
$GLGSV,3,2,09,79,21,328,,81,20,256,25,72,16,079,24,71,10,032,,1*75
$GLGSV,3,3,09,65,03,130,28,1*49
$GAGSV,2,1,07,13,69,238,39,27,63,160,41,21,56,305,18,15,54,043,16,7*71
$GAGSV,2,2,07,26,15,230,39,30,12,144,48,34,04,048,17,7*4B
$GAGSV,1,1,04,13,69,238,33,27,63,160,32,26,15,230,36,30,12,144,21,1*75
$GBGSV,4,1,14,12,72,335,15,44,62,041,18,34,51,279,20,25,43,287,16,1*7E
$GBGSV,4,2,14,24,43,206,46,22,21,098,33,19,11,046,,21,08,147,43,1*74
$GBGSV,4,3,14,43,07,261,36,26,07,170,44,23,07,324,15,39,05,332,,1*7B
$GBGSV,4,4,14,57,05,077,,16,02,340,,1*76
$GBGSV,2,1,05,24,43,206,30,22,21,098,17,21,08,147,35,26,07,170,35,5*7A
$GBGSV,2,2,05,43,07,261,33,5*42
$GNGLL,4000.581952,N,10514.620080,W,215403.000,A,D*5A
$GNRMC,215404.000,A,4000.581952,N,10514.620152,W,0.01,0.00,200324,,,D,V*18
$GNVTG,0.00,T,,M,0.01,N,0.01,K,D*26
$GNGGA,215404.000,4000.581952,N,10514.620152,W,2,36,0.60,1612.034,M,-20.635,M,,*7F
$GNGSA,A,3,11,12,20,24,05,22,17,,,,,,0.99,0.60,0.78,1*0C
$GNGSA,A,3,78,88,87,77,81,72,,,,,,,0.99,0.60,0.78,2*07
$GNGSA,A,3,13,27,15,26,30,,,,,,,,0.99,0.60,0.78,3*0E
$GNGSA,A,3,44,34,25,24,22,21,43,26,,,,,0.99,0.60,0.78,4*0B
$GPGSV,4,1,13,11,89,272,23,12,65,301,18,06,50,045,,44,42,197,44,1*64
$GPGSV,4,2,13,20,41,159,43,25,33,311,,19,29,079,,24,16,224,45,1*60
$GPGSV,4,3,13,05,11,181,51,22,07,140,45,17,07,089,21,29,05,280,,1*6C
$GPGSV,4,4,13,28,01,333,,1*5E
$GPGSV,1,1,01,24,16,224,38,8*52
$GLGSV,3,1,09,78,64,278,18,88,62,308,13,87,36,037,18,77,34,180,30,1*7D
$GLGSV,3,2,09,79,21,328,,81,20,256,22,72,16,079,22,71,10,032,,1*74
$GLGSV,3,3,09,65,03,130,28,1*49
$GAGSV,2,1,07,13,69,238,39,27,63,160,41,21,56,305,,15,54,043,16,7*78
$GAGSV,2,2,07,26,15,230,39,30,12,144,48,34,04,048,17,7*4B
$GAGSV,1,1,04,13,69,238,33,27,63,160,32,26,15,230,36,30,12,144,21,1*75
$GBGSV,4,1,14,12,72,335,15,44,62,041,18,34,51,279,18,25,43,287,13,1*70
$GBGSV,4,2,14,24,43,206,46,22,21,098,33,19,11,046,,21,08,147,43,1*74
$GBGSV,4,3,14,43,07,261,36,26,07,170,44,23,07,324,15,39,05,332,,1*7B
$GBGSV,4,4,14,57,05,077,,16,02,340,,1*76
$GBGSV,2,1,05,24,43,206,30,22,21,098,17,21,08,147,35,26,07,170,35,5*7A
$GBGSV,2,2,05,43,07,261,33,5*42
$GNGLL,4000.581952,N,10514.620152,W,215404.000,A,D*53
$GNRMC,215405.000,A,4000.581946,N,10514.620206,W,0.01,0.00,200324,,,D,V*1E
$GNVTG,0.00,T,,M,0.01,N,0.01,K,D*26
$GNGGA,215405.000,4000.581946,N,10514.620206,W,2,34,0.63,1612.068,M,-20.635,M,,*71
$GNGSA,A,3,12,20,24,05,22,17,,,,,,,1.03,0.63,0.82,1*08
$GNGSA,A,3,78,88,87,77,81,72,,,,,,,1.03,0.63,0.82,2*03
$GNGSA,A,3,13,27,15,26,30,,,,,,,,1.03,0.63,0.82,3*0A
$GNGSA,A,3,44,34,24,22,21,26,43,,,,,,1.03,0.63,0.82,4*08
$GPGSV,4,1,13,11,89,272,21,12,65,301,19,06,50,045,,44,42,197,44,1*67
$GPGSV,4,2,13,20,41,159,43,25,33,311,,19,29,079,,24,16,224,45,1*60
$GPGSV,4,3,13,05,11,181,51,22,07,140,45,17,07,089,22,29,05,280,,1*6F
$GPGSV,4,4,13,28,01,333,,1*5E
$GPGSV,1,1,01,24,16,224,39,8*53
$GLGSV,2,1,08,78,64,278,19,88,62,308,14,87,36,037,17,77,34,180,31,1*75
$GLGSV,2,2,08,81,20,256,24,72,16,079,20,71,10,032,,65,03,130,28,1*7C
$GAGSV,2,1,07,13,69,238,39,27,63,160,41,21,56,305,24,15,54,043,16,7*7E
$GAGSV,2,2,07,26,15,230,39,30,12,144,48,34,04,048,17,7*4B
$GAGSV,1,1,04,13,69,238,33,27,63,160,32,26,15,230,37,30,12,144,21,1*74
$GBGSV,4,1,14,12,72,335,15,44,62,041,17,34,51,279,18,24,43,206,46,1*77
$GBGSV,4,2,14,25,43,287,,22,21,098,34,19,11,046,,21,08,147,43,1*79
$GBGSV,4,3,14,23,07,324,,26,07,170,44,43,07,261,36,39,05,332,,1*7F
$GBGSV,4,4,14,57,05,077,,16,02,340,,1*76
$GBGSV,2,1,05,24,43,206,30,22,21,098,18,21,08,147,36,26,07,170,35,5*76
$GBGSV,2,2,05,43,07,261,33,5*42
$GNGLL,4000.581946,N,10514.620206,W,215405.000,A,D*55
$GNRMC,215406.000,A,4000.581958,N,10514.620254,W,0.01,0.00,200324,,,D,V*15
$GNVTG,0.00,T,,M,0.01,N,0.01,K,D*26
$GNGGA,215406.000,4000.581958,N,10514.620254,W,2,34,0.63,1612.102,M,-20.634,M,,*76
$GNGSA,A,3,12,20,24,05,22,17,,,,,,,1.03,0.63,0.82,1*08
$GNGSA,A,3,78,88,87,77,81,72,,,,,,,1.03,0.63,0.82,2*03
$GNGSA,A,3,13,27,15,26,30,,,,,,,,1.03,0.63,0.82,3*0A
$GNGSA,A,3,44,34,24,22,21,43,26,,,,,,1.03,0.63,0.82,4*08
$GPGSV,4,1,13,11,89,272,21,12,65,301,20,06,50,045,,44,42,197,44,1*6D
$GPGSV,4,2,13,20,41,159,43,25,33,311,24,19,29,079,,24,16,224,45,1*66
$GPGSV,4,3,13,05,11,181,51,22,07,140,45,17,07,089,21,29,05,280,,1*6C
$GPGSV,4,4,13,28,01,333,,1*5E
$GPGSV,1,1,01,24,16,224,40,8*5D
$GLGSV,2,1,07,78,64,278,18,88,62,308,19,87,36,037,14,77,34,180,31,1*75
$GLGSV,2,2,07,81,20,256,23,72,16,079,17,65,03,130,28,1*46
$GAGSV,2,1,07,13,69,238,39,27,63,160,41,21,56,305,25,15,54,043,16,7*7F
$GAGSV,2,2,07,26,15,230,39,30,12,144,48,34,04,048,17,7*4B
$GAGSV,1,1,04,13,69,238,34,27,63,160,33,26,15,230,37,30,12,144,22,1*71
$GBGSV,4,1,14,12,72,335,15,44,62,041,16,34,51,279,18,25,43,287,,1*7C
$GBGSV,4,2,14,24,43,206,46,22,21,098,34,19,11,046,,21,08,147,43,1*73
$GBGSV,4,3,14,23,07,324,,43,07,261,36,26,07,170,44,57,05,077,,1*75
$GBGSV,4,4,14,39,05,332,,16,02,340,,1*7C
$GBGSV,2,1,05,24,43,206,30,22,21,098,18,21,08,147,36,26,07,170,35,5*76
$GBGSV,2,2,05,43,07,261,34,5*45
$GNGLL,4000.581958,N,10514.620254,W,215406.000,A,D*5E
$GNRMC,215407.000,A,4000.581994,N,10514.620290,W,0.01,0.00,200324,,,D,V*1C
$GNVTG,0.00,T,,M,0.01,N,0.01,K,D*26
$GNGGA,215407.000,4000.581994,N,10514.620290,W,2,35,0.62,1612.161,M,-20.635,M,,*7B
$GNGSA,A,3,11,12,20,24,05,22,17,,,,,,1.00,0.62,0.78,1*0F
$GNGSA,A,3,78,88,87,77,81,72,,,,,,,1.00,0.62,0.78,2*04
$GNGSA,A,3,13,27,15,26,30,,,,,,,,1.00,0.62,0.78,3*0D
$GNGSA,A,3,44,34,24,22,21,43,26,,,,,,1.00,0.62,0.78,4*0F
$GPGSV,4,1,13,11,89,272,23,12,65,301,19,06,50,045,,44,42,197,44,1*65
$GPGSV,4,2,13,20,41,159,43,25,33,311,24,19,29,079,,24,16,224,45,1*66
$GPGSV,4,3,13,05,11,181,51,22,07,140,45,17,07,089,19,29,05,280,,1*67
$GPGSV,4,4,13,28,01,333,,1*5E
$GPGSV,1,1,01,24,16,224,40,8*5D
$GLGSV,2,1,07,78,64,278,14,88,62,308,24,87,36,037,12,77,34,180,31,1*71
$GLGSV,2,2,07,81,20,256,22,72,16,079,15,65,03,130,28,1*45
$GAGSV,2,1,07,13,69,238,39,27,63,160,41,21,56,305,24,15,54,043,16,7*7E
$GAGSV,2,2,07,26,15,230,39,30,12,144,48,34,04,048,17,7*4B
$GAGSV,1,1,04,13,69,238,34,27,63,160,33,26,15,230,37,30,12,144,22,1*71
$GBGSV,4,1,14,12,72,335,14,44,62,041,16,34,51,279,17,25,43,287,,1*72
$GBGSV,4,2,14,24,43,206,46,22,21,098,35,19,11,046,,21,08,147,43,1*72
$GBGSV,4,3,14,23,07,324,,43,07,261,36,26,07,170,44,57,05,077,,1*75
$GBGSV,4,4,14,39,05,332,,16,02,340,,1*7C
$GBGSV,2,1,05,24,43,206,31,22,21,098,19,21,08,147,36,26,07,170,35,5*76
$GBGSV,2,2,05,43,07,261,34,5*45
$GNGLL,4000.581994,N,10514.620290,W,215407.000,A,D*57
$GNRMC,215408.000,A,4000.582024,N,10514.620314,W,0.01,0.00,200324,,,D,V*1F
$GNVTG,0.00,T,,M,0.01,N,0.01,K,D*26
$GNGGA,215408.000,4000.582024,N,10514.620314,W,2,36,0.62,1612.248,M,-20.635,M,,*73
$GNGSA,A,3,11,12,20,19,24,05,22,17,,,,,0.99,0.62,0.78,1*06
$GNGSA,A,3,78,88,87,77,81,72,,,,,,,0.99,0.62,0.78,2*05
$GNGSA,A,3,13,27,15,26,30,,,,,,,,0.99,0.62,0.78,3*0C
$GNGSA,A,3,44,34,24,22,21,26,43,,,,,,0.99,0.62,0.78,4*0E
$GPGSV,3,1,12,11,89,272,23,12,65,301,19,06,50,045,,44,42,197,44,1*63
$GPGSV,3,2,12,20,41,159,43,25,33,311,25,19,29,079,23,24,16,224,45,1*60
$GPGSV,3,3,12,05,11,181,51,22,07,140,45,17,07,089,18,28,01,333,,1*6C
$GPGSV,1,1,01,24,16,224,40,8*5D
$GLGSV,2,1,07,78,64,278,14,88,62,308,21,87,36,037,11,77,32,180,31,1*71
$GLGSV,2,2,07,81,20,256,22,72,16,079,15,65,03,130,28,1*45
$GAGSV,2,1,07,13,69,238,39,27,63,160,41,21,56,305,23,15,54,043,16,7*79
$GAGSV,2,2,07,26,15,230,39,30,12,144,48,34,04,048,17,7*4B
$GAGSV,1,1,04,13,69,238,34,27,63,160,33,26,15,230,37,30,12,144,23,1*70
$GBGSV,4,1,14,12,72,335,14,44,62,041,15,34,51,279,15,25,43,287,,1*73
$GBGSV,4,2,14,24,43,206,46,22,21,098,35,19,11,046,,21,08,147,43,1*72
$GBGSV,4,3,14,23,07,324,18,26,07,170,45,43,07,261,36,57,05,077,,1*7D
$GBGSV,4,4,14,39,05,332,,16,02,340,,1*7C
$GBGSV,2,1,05,24,43,206,31,22,21,098,19,21,08,147,36,26,07,170,35,5*76
$GBGSV,2,2,05,43,07,261,34,5*45
$GNGLL,4000.582024,N,10514.620314,W,215408.000,A,D*54
$GNRMC,215409.000,A,4000.582084,N,10514.620332,W,0.01,0.00,200324,,,D,V*10
$GNVTG,0.00,T,,M,0.01,N,0.02,K,D*25
$GNGGA,215409.000,4000.582084,N,10514.620332,W,2,36,0.62,1612.288,M,-20.635,M,,*70
$GNGSA,A,3,11,12,20,19,24,05,22,17,,,,,0.99,0.62,0.78,1*06
$GNGSA,A,3,78,88,87,77,81,72,,,,,,,0.99,0.62,0.78,2*05
$GNGSA,A,3,13,27,15,26,30,,,,,,,,0.99,0.62,0.78,3*0C
$GNGSA,A,3,44,34,24,22,21,43,26,,,,,,0.99,0.62,0.78,4*0E
$GPGSV,4,1,13,11,89,272,25,12,65,301,19,06,50,045,,44,42,197,44,1*63
$GPGSV,4,2,13,20,41,159,43,25,33,311,25,19,29,079,25,24,16,224,45,1*60
$GPGSV,4,3,13,05,11,181,51,22,07,140,45,17,07,089,18,29,05,280,,1*66
$GPGSV,4,4,13,28,01,333,,1*5E
$GPGSV,1,1,01,24,16,224,40,8*5D
$GLGSV,2,1,07,78,64,275,11,88,62,308,18,87,36,037,13,77,32,180,31,1*71
$GLGSV,2,2,07,81,20,256,24,72,16,079,15,65,03,130,29,1*42
$GAGSV,2,1,07,13,69,238,40,27,63,160,41,21,56,305,23,15,54,043,16,7*77
$GAGSV,2,2,07,26,15,230,39,30,12,144,48,34,04,048,17,7*4B
$GAGSV,1,1,04,13,69,238,34,27,63,160,33,26,15,230,37,30,12,144,24,1*77
$GBGSV,4,1,13,12,72,335,14,44,62,041,17,34,51,279,12,24,43,206,46,1*7B
$GBGSV,4,2,13,25,43,287,,22,21,098,35,19,11,046,,21,08,147,43,1*7F
$GBGSV,4,3,13,23,07,324,19,43,07,261,36,26,07,170,45,39,05,332,,1*71
$GBGSV,4,4,13,16,02,340,,1*46
$GBGSV,2,1,05,24,43,206,31,22,21,098,19,21,08,147,36,26,07,170,35,5*76
$GBGSV,2,2,05,43,07,261,34,5*45
$GNGLL,4000.582084,N,10514.620332,W,215409.000,A,D*5B
$GNRMC,215410.000,A,4000.582168,N,10514.620332,W,0.01,0.00,200324,,,D,V*1B
$GNVTG,0.00,T,,M,0.01,N,0.03,K,D*24
$GNGGA,215410.000,4000.582168,N,10514.620332,W,2,35,0.62,1612.371,M,-20.635,M,,*7F
$GNGSA,A,3,11,12,20,19,24,05,22,17,,,,,1.00,0.62,0.79,1*06
$GNGSA,A,3,78,88,87,77,81,72,,,,,,,1.00,0.62,0.79,2*05
$GNGSA,A,3,13,27,15,26,30,,,,,,,,1.00,0.62,0.79,3*0C
$GNGSA,A,3,34,24,22,21,43,26,,,,,,,1.00,0.62,0.79,4*0E
$GPGSV,4,1,13,11,89,272,25,12,65,301,20,06,50,045,,44,42,197,44,1*69
$GPGSV,4,2,13,20,41,159,43,25,33,311,26,19,29,079,25,24,16,224,45,1*63
$GPGSV,4,3,13,05,11,181,51,22,07,140,44,17,07,089,19,29,05,280,,1*66
$GPGSV,4,4,13,28,01,333,,1*5E
$GPGSV,1,1,01,24,16,224,40,8*5D
$GLGSV,2,1,07,78,64,275,16,88,62,308,16,87,36,037,15,77,32,180,31,1*7E
$GLGSV,2,2,07,81,20,256,26,72,16,079,15,65,03,130,29,1*40
$GAGSV,2,1,07,13,69,238,40,27,63,160,41,21,56,305,21,15,54,043,16,7*75
$GAGSV,2,2,07,26,15,230,39,30,12,144,48,34,04,048,17,7*4B
$GAGSV,1,1,04,13,69,238,34,27,63,160,33,26,15,230,37,30,12,144,24,1*77
$GBGSV,4,1,13,12,72,335,14,44,62,041,,34,51,279,11,24,43,206,46,1*7E
$GBGSV,4,2,13,25,43,287,,22,21,098,35,19,11,046,,21,08,147,43,1*7F
$GBGSV,4,3,13,23,07,324,21,43,07,261,36,26,07,170,45,39,05,332,,1*7A
$GBGSV,4,4,13,16,02,340,,1*46
$GBGSV,2,1,05,24,43,206,31,22,21,098,19,21,08,147,36,26,07,170,35,5*76
$GBGSV,2,2,05,43,07,261,34,5*45
$GNGLL,4000.582168,N,10514.620332,W,215410.000,A,D*50
$GNRMC,215411.000,A,4000.582264,N,10514.620326,W,0.01,0.00,200324,,,D,V*10
$GNVTG,0.00,T,,M,0.01,N,0.03,K,D*24
$GNGGA,215411.000,4000.582264,N,10514.620326,W,2,35,0.62,1612.421,M,-20.635,M,,*76
$GNGSA,A,3,11,12,20,19,24,05,22,17,,,,,1.00,0.62,0.79,1*06
$GNGSA,A,3,78,88,87,77,81,72,,,,,,,1.00,0.62,0.79,2*05
$GNGSA,A,3,13,27,15,26,30,,,,,,,,1.00,0.62,0.79,3*0C
$GNGSA,A,3,34,24,22,21,43,26,,,,,,,1.00,0.62,0.79,4*0E
$GPGSV,4,1,13,11,89,272,25,12,65,301,21,06,50,045,,44,42,197,44,1*68
$GPGSV,4,2,13,20,41,159,43,25,33,311,26,19,29,079,25,24,16,224,45,1*63
$GPGSV,4,3,13,05,11,181,51,22,07,140,44,17,07,089,20,29,05,280,,1*6C
$GPGSV,4,4,13,28,01,333,,1*5E
$GPGSV,1,1,01,24,16,224,40,8*5D
$GLGSV,2,1,07,78,64,275,22,88,62,308,16,87,36,037,16,77,32,180,31,1*7A
$GLGSV,2,2,07,81,20,256,26,72,16,079,16,65,03,130,28,1*42
$GAGSV,2,1,07,13,69,238,40,27,63,160,41,21,56,305,19,15,54,043,17,7*7F
$GAGSV,2,2,07,26,15,230,40,30,12,144,48,34,04,048,16,7*44
$GAGSV,1,1,04,13,69,238,34,27,63,160,33,26,15,230,37,30,12,144,24,1*77
$GBGSV,3,1,12,12,72,335,14,44,62,041,,34,51,279,11,24,43,206,46,1*78
$GBGSV,3,2,12,25,43,287,,22,21,098,35,19,11,046,,21,08,147,43,1*79
$GBGSV,3,3,12,23,07,324,21,43,07,261,36,26,07,170,45,39,05,332,16,1*7B
$GBGSV,2,1,05,24,43,206,31,22,21,098,18,21,08,147,36,26,07,170,35,5*77
$GBGSV,2,2,05,43,07,261,34,5*45
$GNGLL,4000.582264,N,10514.620326,W,215411.000,A,D*5B
$GNRMC,215412.000,A,4000.582366,N,10514.620302,W,0.01,0.00,200324,,,D,V*16
$GNVTG,0.00,T,,M,0.01,N,0.03,K,D*24
$GNGGA,215412.000,4000.582366,N,10514.620302,W,2,36,0.61,1612.484,M,-20.635,M,,*7F
$GNGSA,A,3,11,12,06,20,19,24,05,22,17,,,,1.00,0.61,0.79,1*03
$GNGSA,A,3,78,88,87,77,81,72,,,,,,,1.00,0.61,0.79,2*06
$GNGSA,A,3,13,27,15,26,30,,,,,,,,1.00,0.61,0.79,3*0F
$GNGSA,A,3,34,24,22,21,43,26,,,,,,,1.00,0.61,0.79,4*0D
$GPGSV,4,1,13,11,89,272,25,12,65,301,21,06,50,045,24,44,42,197,44,1*6E
$GPGSV,4,2,13,20,41,159,43,25,33,311,26,19,29,079,25,24,16,224,45,1*63
$GPGSV,4,3,13,05,11,181,51,22,07,140,44,17,07,089,24,29,05,280,,1*68
$GPGSV,4,4,13,28,01,333,,1*5E
$GPGSV,1,1,01,24,16,224,40,8*5D
$GLGSV,2,1,07,78,64,275,20,88,62,308,16,87,36,037,15,77,32,180,30,1*7A
$GLGSV,2,2,07,81,21,257,27,72,16,079,16,65,03,130,28,1*43
$GAGSV,2,1,07,13,69,238,40,27,63,160,41,21,56,305,19,15,54,043,17,7*7F
$GAGSV,2,2,07,26,15,230,40,30,12,144,48,34,04,048,15,7*47
$GAGSV,1,1,04,13,69,238,34,27,63,160,33,26,15,230,37,30,12,144,24,1*77
$GBGSV,4,1,14,12,72,335,14,44,62,041,,34,51,279,12,25,43,287,,1*70
$GBGSV,4,2,14,24,43,206,46,22,21,098,35,19,11,046,,21,08,147,43,1*72
$GBGSV,4,3,14,23,07,324,,43,07,261,36,26,07,170,45,57,05,077,,1*74
$GBGSV,4,4,14,39,05,332,,16,02,340,,1*7C
$GBGSV,2,1,05,24,43,206,31,22,21,098,18,21,08,147,36,26,07,170,35,5*77
$GBGSV,2,2,05,43,07,261,34,5*45
$GNGLL,4000.582366,N,10514.620302,W,215412.000,A,D*5D
$GNRMC,215413.000,A,4000.582474,N,10514.620248,W,0.02,0.00,200324,,,D,V*1F
$GNVTG,0.00,T,,M,0.02,N,0.03,K,D*27
$GNGGA,215413.000,4000.582474,N,10514.620248,W,2,36,0.61,1612.515,M,-20.635,M,,*7C
$GNGSA,A,3,11,12,06,20,19,24,05,22,17,,,,1.00,0.61,0.79,1*03
$GNGSA,A,3,78,88,87,77,81,72,,,,,,,1.00,0.61,0.79,2*06
$GNGSA,A,3,13,27,15,26,30,,,,,,,,1.00,0.61,0.79,3*0F
$GNGSA,A,3,34,24,22,21,43,26,,,,,,,1.00,0.61,0.79,4*0D
$GPGSV,4,1,13,11,89,272,26,12,65,301,21,06,50,045,24,44,42,197,44,1*6D
$GPGSV,4,2,13,20,41,159,43,25,33,311,26,19,29,079,24,24,16,224,45,1*62
$GPGSV,4,3,13,05,11,181,51,22,07,140,44,17,07,089,25,29,05,280,,1*69
$GPGSV,4,4,13,28,01,333,,1*5E
$GPGSV,1,1,01,24,16,224,40,8*5D
$GLGSV,2,1,07,78,64,275,16,88,62,308,16,87,36,037,17,77,32,180,30,1*7D
$GLGSV,2,2,07,81,21,257,27,72,16,079,16,65,03,130,28,1*43
$GAGSV,2,1,07,13,69,238,40,27,63,160,41,21,56,305,18,15,54,043,18,7*71
$GAGSV,2,2,07,26,15,230,40,30,12,144,48,34,04,048,15,7*47
$GAGSV,1,1,04,13,69,238,33,27,63,160,33,26,15,230,37,30,12,144,24,1*70
$GBGSV,3,1,12,12,72,335,14,44,62,041,,34,51,279,12,24,43,206,46,1*7B
$GBGSV,3,2,12,25,43,287,,22,21,098,35,19,11,046,,21,08,147,43,1*79
$GBGSV,3,3,12,23,07,324,23,43,07,261,36,26,07,170,45,39,05,332,,1*7E
$GBGSV,2,1,05,24,43,206,30,22,21,098,18,21,08,147,36,26,07,170,35,5*76
$GBGSV,2,2,05,43,07,261,34,5*45
$GNGLL,4000.582474,N,10514.620248,W,215413.000,A,D*57
$GNRMC,215414.000,A,4000.582606,N,10514.620176,W,0.02,0.00,200324,,,D,V*11
$GNVTG,0.00,T,,M,0.02,N,0.04,K,D*20
$GNGGA,215414.000,4000.582606,N,10514.620176,W,2,36,0.61,1612.499,M,-20.635,M,,*77
$GNGSA,A,3,11,12,06,20,19,24,05,22,17,,,,1.00,0.61,0.79,1*03
$GNGSA,A,3,78,88,87,77,81,72,,,,,,,1.00,0.61,0.79,2*06
$GNGSA,A,3,13,27,15,26,30,,,,,,,,1.00,0.61,0.79,3*0F
$GNGSA,A,3,34,24,22,21,43,26,,,,,,,1.00,0.61,0.79,4*0D
$GPGSV,4,1,13,11,89,272,25,12,65,301,22,06,50,045,24,44,42,197,44,1*6D
$GPGSV,4,2,13,20,41,159,43,25,33,311,26,19,29,079,22,24,16,224,45,1*64
$GPGSV,4,3,13,05,11,181,51,22,07,140,43,17,07,089,25,29,05,280,,1*6E
$GPGSV,4,4,13,28,01,333,,1*5E
$GPGSV,1,1,01,24,16,224,40,8*5D
$GLGSV,2,1,07,78,64,275,15,88,62,308,17,87,36,037,17,77,32,180,30,1*7F
$GLGSV,2,2,07,81,21,257,28,72,16,079,16,65,03,130,28,1*4C
$GAGSV,2,1,07,13,69,238,40,27,63,160,41,21,56,305,18,15,54,043,18,7*71
$GAGSV,2,2,07,26,15,230,40,30,12,144,48,34,04,048,14,7*46
$GAGSV,1,1,04,13,69,238,33,27,63,160,33,26,15,230,37,30,12,144,24,1*70
$GBGSV,3,1,12,12,72,335,14,44,62,041,,34,51,279,13,24,43,206,46,1*7A
$GBGSV,3,2,12,25,43,287,,22,21,098,35,19,11,046,,21,08,147,43,1*79
$GBGSV,3,3,12,23,07,324,23,43,07,261,36,26,07,170,45,39,05,332,,1*7E
$GBGSV,2,1,05,24,43,206,30,22,21,098,18,21,08,147,36,26,07,170,35,5*76
$GBGSV,2,2,05,43,07,261,34,5*45
$GNGLL,4000.582606,N,10514.620176,W,215414.000,A,D*59
$GNRMC,215415.000,A,4000.582732,N,10514.620128,W,0.03,0.00,200324,,,D,V*1C
$GNVTG,0.00,T,,M,0.03,N,0.05,K,D*20
$GNGGA,215415.000,4000.582732,N,10514.620128,W,2,37,0.59,1612.472,M,-20.634,M,,*75
$GNGSA,A,3,11,12,06,20,19,24,05,22,17,,,,0.98,0.59,0.79,1*08
$GNGSA,A,3,78,88,87,77,81,72,,,,,,,0.98,0.59,0.79,2*0D
$GNGSA,A,3,13,27,15,26,30,,,,,,,,0.98,0.59,0.79,3*04
$GNGSA,A,3,34,24,25,22,21,43,26,,,,,,0.98,0.59,0.79,4*01
$GPGSV,4,1,13,11,89,272,27,12,65,301,25,06,50,045,24,44,42,197,44,1*68
$GPGSV,4,2,13,20,41,159,43,25,33,311,26,19,29,079,20,24,16,224,45,1*66
$GPGSV,4,3,13,05,11,181,51,22,07,140,43,17,07,089,25,29,05,280,,1*6E
$GPGSV,4,4,13,28,01,333,,1*5E
$GPGSV,1,1,01,24,16,224,40,8*5D
$GLGSV,2,1,08,78,64,275,16,88,62,308,18,87,36,037,16,77,32,180,30,1*7D
$GLGSV,2,2,08,79,23,328,,81,21,257,28,72,16,079,16,65,03,130,28,1*75
$GAGSV,2,1,07,13,69,238,40,27,63,160,41,21,56,305,17,15,54,043,18,7*7E
$GAGSV,2,2,07,26,15,230,40,30,12,144,48,34,04,048,14,7*46
$GAGSV,1,1,04,13,69,238,33,27,63,160,33,26,15,230,37,30,12,144,24,1*70
$GBGSV,3,1,12,12,72,335,14,44,62,041,,34,51,279,16,24,43,206,46,1*7F
$GBGSV,3,2,12,25,43,287,22,22,21,098,36,19,11,046,,21,08,147,43,1*7A
$GBGSV,3,3,12,23,07,324,23,43,07,261,36,26,07,170,45,39,05,332,,1*7E
$GBGSV,2,1,05,24,43,206,30,22,21,098,19,21,08,147,36,26,07,170,35,5*77
$GBGSV,2,2,05,43,07,261,34,5*45
$GNGLL,4000.582732,N,10514.620128,W,215415.000,A,D*55
$GNRMC,215416.000,A,4000.582864,N,10514.620086,W,0.03,0.00,200324,,,D,V*16
$GNVTG,0.00,T,,M,0.03,N,0.05,K,D*20
$GNGGA,215416.000,4000.582864,N,10514.620086,W,2,36,0.59,1612.458,M,-20.634,M,,*76
$GNGSA,A,3,11,12,06,20,19,24,05,22,17,,,,0.99,0.59,0.79,1*09
$GNGSA,A,3,78,88,87,77,81,72,,,,,,,0.99,0.59,0.79,2*0C
$GNGSA,A,3,13,27,15,26,30,,,,,,,,0.99,0.59,0.79,3*05
$GNGSA,A,3,25,24,22,21,43,26,,,,,,,0.99,0.59,0.79,4*07
$GPGSV,4,1,13,11,89,272,23,12,65,301,26,06,50,045,25,44,42,197,44,1*6E
$GPGSV,4,2,13,20,41,159,43,25,33,311,26,19,29,079,19,24,16,224,45,1*6C
$GPGSV,4,3,13,05,11,181,51,22,07,140,43,17,07,089,26,29,05,280,,1*6D
$GPGSV,4,4,13,28,01,333,,1*5E
$GPGSV,1,1,01,24,16,224,40,8*5D
$GLGSV,2,1,07,78,64,275,12,88,62,308,17,87,36,037,16,77,32,180,31,1*78
$GLGSV,2,2,07,81,21,257,28,72,16,079,13,65,03,130,28,1*49
$GAGSV,2,1,07,13,69,238,40,27,63,160,41,21,56,305,,15,54,043,18,7*78
$GAGSV,2,2,07,26,15,230,40,30,12,144,48,34,04,048,14,7*46
$GAGSV,1,1,04,13,69,238,33,27,63,160,34,26,15,230,37,30,12,144,24,1*77
$GBGSV,4,1,14,12,72,335,13,44,62,041,,34,51,279,,25,43,287,20,1*76
$GBGSV,4,2,14,24,43,206,46,22,21,098,36,19,11,046,,21,08,147,43,1*71
$GBGSV,4,3,14,23,07,324,23,43,07,261,36,26,07,170,45,57,05,077,,1*75
$GBGSV,4,4,14,39,05,332,,16,02,340,,1*7C
$GBGSV,2,1,05,24,43,206,31,22,21,098,19,21,08,147,36,26,07,170,35,5*76
$GBGSV,2,2,05,43,07,261,34,5*45
$GNGLL,4000.582864,N,10514.620086,W,215416.000,A,D*5F
