$GNGGA,110637.000,4005.098446,N,10513.207506,W,2,47,0.52,1585.658,M,-20.670,M,,*7F
$GPGSV,3,1,11,04,80,009,41,16,65,096,38,09,41,310,37,03,39,199,48,1*68
$GPGSV,3,2,11,48,39,209,46,26,39,053,39,31,22,065,43,07,19,263,44,1*66
$GPGSV,3,3,11,27,14,131,48,08,03,160,48,06,03,290,,1*55
$GPGSV,2,1,06,04,80,009,42,09,41,310,28,03,39,199,47,26,39,053,36,8*69
$GPGSV,2,2,06,27,14,131,36,08,03,160,40,8*65
$GLGSV,2,1,07,79,80,276,40,69,75,338,39,68,49,139,46,78,38,034,38,1*70
$GLGSV,2,2,07,80,28,226,46,70,11,325,25,67,01,143,46,1*49
$GAGSV,2,1,08,09,72,094,37,31,61,072,37,24,52,185,44,05,47,312,32,7*73
$GAGSV,2,2,08,04,22,117,44,34,05,275,31,25,05,208,49,15,03,322,08,7*71
$GAGSV,2,1,07,09,72,094,38,31,61,072,35,24,52,185,44,05,47,312,39,1*7C
$GAGSV,2,2,07,04,22,117,41,34,05,275,38,25,05,208,46,1*47
$GBGSV,3,1,09,19,70,187,43,46,63,045,40,36,61,242,48,57,46,313,,1*72
$GBGSV,3,2,09,22,45,309,41,20,24,152,50,37,10,053,34,45,10,235,46,1*75
$GBGSV,3,3,09,58,,,26,1*76
$GBGSV,2,1,07,19,70,187,40,46,63,045,34,36,61,242,41,22,45,309,38,5*71
$GBGSV,2,2,07,20,24,152,40,45,10,235,39,37,10,053,29,5*45
$PAIR001,062,0*3F
$PAIR001,062,0*3F
$PAIR001,062,0*3F
$PAIR001,062,0*3F
$PAIR001,062,0*3F
$PAIR001,062,0*3F
$PAIR001,062,0*3F
$PAIR001,062,0*3F
$PAIR001,062,0*3F
$GNGGA,110642.000,4005.098422,N,10513.207416,W,2,47,0.52,1585.692,M,-20.669,M,,*71
$GPGSV,3,1,11,04,80,009,41,16,65,096,39,09,41,310,37,03,39,199,48,1*69
$GPGSV,3,2,11,48,39,209,46,26,38,053,39,31,22,065,43,07,19,263,44,1*67
$GPGSV,3,3,11,27,15,130,48,06,03,290,,08,03,160,48,1*55
$GPGSV,2,1,06,04,80,009,42,09,41,310,28,03,39,199,47,26,38,053,36,8*68
$GPGSV,2,2,06,27,15,130,35,08,03,160,38,8*69
$GLGSV,2,1,07,79,80,276,40,69,75,338,40,68,49,139,46,78,38,034,38,1*7E
$GLGSV,2,2,07,80,28,226,47,70,11,325,25,67,01,143,45,1*4B
$GAGSV,2,1,08,09,72,094,37,31,61,072,37,24,52,185,44,05,47,312,32,7*73
$GAGSV,2,2,08,04,22,117,44,34,05,275,31,25,05,208,49,15,03,322,06,7*7F
$GAGSV,2,1,07,09,72,094,38,31,61,072,35,24,52,185,44,05,47,312,39,1*7C
$GAGSV,2,2,07,04,22,117,41,34,05,275,38,25,05,208,46,1*47
$GBGSV,3,1,09,19,70,187,43,46,63,045,39,36,61,242,48,57,46,313,,1*7C
$GBGSV,3,2,09,22,45,309,41,20,24,152,50,37,10,053,35,45,10,235,47,1*75
$GBGSV,3,3,09,58,,,28,1*78
$GBGSV,2,1,07,19,70,187,40,46,63,045,34,36,61,242,41,22,45,309,38,5*71
$GBGSV,2,2,07,20,24,152,40,45,10,235,39,37,10,053,30,5*4D
$GNGGA,110647.000,4005.098470,N,10513.207284,W,2,47,0.52,1585.661,M,-20.670,M,,*7A
$GPGSV,3,1,11,04,80,009,41,16,65,096,39,09,41,310,38,03,39,199,48,1*66
$GPGSV,3,2,11,48,39,209,46,26,38,053,39,31,21,065,43,07,19,263,44,1*64
$GPGSV,3,3,11,27,15,130,48,06,03,290,,08,03,160,48,1*55
$GPGSV,2,1,06,04,80,009,42,09,41,310,28,03,39,199,47,26,38,053,37,8*69
$GPGSV,2,2,06,27,15,130,35,08,03,160,38,8*69
$GLGSV,2,1,07,79,80,276,41,69,75,338,39,68,49,139,46,78,38,034,40,1*7E
$GLGSV,2,2,07,80,28,226,47,70,11,325,25,67,01,143,43,1*4D
$GAGSV,2,1,08,09,72,094,37,31,61,072,37,24,52,185,44,05,47,312,33,7*72
$GAGSV,2,2,08,04,22,117,44,34,05,275,27,25,05,208,49,15,03,322,06,7*78
$GAGSV,2,1,07,09,72,094,38,31,61,072,35,24,52,185,44,05,47,312,39,1*7C
$GAGSV,2,2,07,04,22,117,41,34,05,275,39,25,05,208,46,1*46
$GBGSV,3,1,09,19,70,187,43,46,63,045,39,36,61,242,48,57,46,313,,1*7C
$GBGSV,3,2,09,22,45,309,42,20,24,152,50,37,10,053,35,45,10,235,45,1*74
$GBGSV,3,3,09,58,,,28,1*78
$GBGSV,2,1,07,19,70,187,40,46,63,045,34,36,61,242,41,22,45,309,38,5*71
$GBGSV,2,2,07,20,24,152,40,45,10,235,39,37,10,053,30,5*4D
$GNGGA,110652.000,4005.098554,N,10513.207236,W,2,47,0.52,1585.803,M,-20.669,M,,*72
$GPGSV,3,1,11,04,80,009,41,16,65,096,39,09,41,310,38,03,39,199,48,1*66
$GPGSV,3,2,11,48,39,209,47,26,38,053,39,31,21,065,43,07,19,263,44,1*65
$GPGSV,3,3,11,27,15,130,48,06,03,290,,08,03,160,49,1*54
$GPGSV,2,1,06,04,80,009,42,09,41,310,27,03,39,199,47,26,38,053,38,8*69
$GPGSV,2,2,06,27,15,130,35,08,03,160,39,8*68
$GLGSV,2,1,07,79,80,276,40,69,75,338,39,68,49,139,46,78,38,034,40,1*7F
$GLGSV,2,2,07,80,28,226,47,70,11,325,24,67,01,143,44,1*4B
$GAGSV,2,1,08,09,72,094,37,31,61,072,37,24,52,185,45,05,47,312,33,7*73
$GAGSV,2,2,08,04,22,117,44,34,05,275,26,25,05,208,49,15,03,322,07,7*78
$GAGSV,2,1,07,09,72,094,39,31,61,072,35,24,52,185,43,05,47,312,39,1*7A
$GAGSV,2,2,07,04,22,117,41,34,05,275,40,25,05,208,45,1*4B
$GBGSV,3,1,09,19,70,187,43,46,63,045,38,36,61,242,48,57,46,313,,1*7D
$GBGSV,3,2,09,22,45,309,42,20,24,152,50,37,10,053,35,45,10,235,46,1*77
$GBGSV,3,3,09,58,,,28,1*78
$GBGSV,2,1,07,19,70,187,40,46,63,045,33,36,61,242,41,22,45,309,38,5*76
$GBGSV,2,2,07,20,24,152,39,45,10,235,40,37,10,053,30,5*4D
$GNGGA,110657.000,4005.098566,N,10513.207200,W,2,47,0.52,1585.966,M,-20.670,M,,*79
$GPGSV,3,1,11,04,80,009,41,16,65,096,38,09,41,310,38,03,39,199,48,1*67
$GPGSV,3,2,11,48,39,209,47,26,38,053,39,31,21,065,43,07,19,263,43,1*62
$GPGSV,3,3,11,27,15,130,48,06,03,290,,08,03,160,49,1*54
$GPGSV,2,1,06,04,80,009,42,09,41,310,27,03,39,199,47,26,38,053,38,8*69
$GPGSV,2,2,06,27,15,130,35,08,03,160,40,8*66
$GLGSV,2,1,07,79,80,276,39,69,75,338,39,68,49,139,46,78,38,034,40,1*71
$GLGSV,2,2,07,80,28,226,47,70,11,325,24,67,01,143,45,1*4A
$GAGSV,2,1,08,09,72,094,37,31,61,072,37,24,52,185,45,05,47,312,33,7*73
$GAGSV,2,2,08,04,22,117,44,34,05,275,28,25,05,208,49,15,03,322,10,7*70
$GAGSV,2,1,07,09,72,094,39,31,61,072,35,24,52,185,43,05,47,312,39,1*7A
$GAGSV,2,2,07,04,22,117,41,34,05,275,39,25,05,208,45,1*45
$GBGSV,3,1,09,19,70,187,43,46,63,045,38,36,61,242,48,57,46,313,,1*7D
$GBGSV,3,2,09,22,45,309,42,20,24,152,49,37,10,053,35,45,10,235,44,1*7D
$GBGSV,3,3,09,58,,,28,1*78
$GBGSV,2,1,07,19,70,187,40,46,63,045,33,36,61,242,41,22,45,309,37,5*79
$GBGSV,2,2,07,20,24,152,39,45,10,235,38,37,10,053,30,5*42
$GNGGA,110702.000,4005.098524,N,10513.207170,W,2,47,0.52,1586.004,M,-20.670,M,,*74
$GPGSV,3,1,11,04,80,009,41,16,65,096,38,09,41,310,38,03,39,199,48,1*67
$GPGSV,3,2,11,48,39,209,47,26,38,053,39,31,21,065,43,07,19,263,43,1*62
$GPGSV,3,3,11,27,15,130,48,06,03,290,,08,03,160,49,1*54
$GPGSV,2,1,06,04,80,009,42,09,41,310,27,03,39,199,47,26,38,053,38,8*69
$GPGSV,2,2,06,27,15,130,35,08,03,160,39,8*68
$GLGSV,2,1,07,79,80,276,40,69,75,338,40,68,49,139,46,78,38,034,41,1*70
$GLGSV,2,2,07,80,28,226,47,70,11,325,23,67,01,143,43,1*4B
$GAGSV,2,1,08,09,72,094,37,31,61,072,37,24,52,185,45,05,48,312,31,7*7E
$GAGSV,2,2,08,04,22,118,44,34,05,275,29,25,05,208,49,15,03,322,10,7*7E
$GAGSV,2,1,07,09,72,094,39,31,61,072,35,24,52,185,43,05,48,312,39,1*75
$GAGSV,2,2,07,04,22,118,41,34,05,275,39,25,05,208,44,1*4B
$GBGSV,3,1,09,19,70,187,43,46,63,045,38,36,61,242,48,57,46,313,,1*7D
$GBGSV,3,2,09,22,45,309,42,20,24,152,49,37,10,053,35,45,10,235,44,1*7D
$GBGSV,3,3,09,58,,,28,1*78
$GBGSV,2,1,07,19,70,187,40,46,63,045,33,36,61,242,41,22,45,309,37,5*79
$GBGSV,2,2,07,20,24,152,39,45,10,235,38,37,10,053,31,5*43
$GNGGA,110707.000,4005.098500,N,10513.207080,W,2,47,0.52,1585.910,M,-20.670,M,,*76
$GPGSV,3,1,11,04,80,009,41,16,65,096,38,09,41,310,38,03,39,199,47,1*68
$GPGSV,3,2,11,48,39,209,47,26,38,053,39,31,21,065,43,07,19,263,43,1*62
$GPGSV,3,3,11,27,15,130,48,06,03,290,,08,03,160,49,1*54
$GPGSV,2,1,06,04,80,009,42,09,41,310,28,03,39,199,47,26,38,053,38,8*66
$GPGSV,2,2,06,27,15,130,35,08,03,160,38,8*69
$GLGSV,2,1,07,79,80,276,41,69,75,338,40,68,49,139,46,78,38,034,41,1*71
$GLGSV,2,2,07,80,28,226,48,70,11,325,22,67,01,143,41,1*47
$GAGSV,2,1,08,09,71,097,37,31,61,072,37,24,52,185,45,05,48,312,32,7*7D
$GAGSV,2,2,08,04,22,118,44,34,05,275,31,25,05,208,49,15,03,322,11,7*76
$GAGSV,2,1,07,09,71,097,39,31,61,072,35,24,52,185,43,05,48,312,39,1*75
$GAGSV,2,2,07,04,22,118,41,34,05,275,38,25,05,208,44,1*4A
$GBGSV,3,1,09,19,70,187,43,46,63,045,38,36,61,242,48,57,46,313,,1*7D
$GBGSV,3,2,09,22,45,309,42,20,24,152,49,37,10,053,35,45,10,235,44,1*7D
$GBGSV,3,3,09,58,,,28,1*78
$GBGSV,2,1,07,19,70,187,40,46,63,045,33,36,61,242,41,22,45,309,36,5*78
$GBGSV,2,2,07,20,24,152,39,45,10,235,38,37,10,053,31,5*43
$GNGGA,110712.000,4005.098524,N,10513.206948,W,2,47,0.52,1585.766,M,-20.670,M,,*77
$GPGSV,3,1,11,04,80,009,41,16,65,096,38,09,41,310,38,03,39,199,47,1*68
$GPGSV,3,2,11,48,39,209,47,26,38,053,39,31,21,065,43,07,19,263,43,1*62
$GPGSV,3,3,11,27,15,130,48,08,03,160,49,06,03,290,,1*54
$GPGSV,2,1,06,04,80,009,42,09,41,310,28,03,39,199,47,26,38,053,38,8*66
$GPGSV,2,2,06,27,15,130,35,08,03,160,37,8*66
$GLGSV,2,1,07,79,80,276,40,69,75,338,40,68,49,139,46,78,38,034,41,1*70
$GLGSV,2,2,07,80,28,226,48,70,11,325,23,67,01,143,40,1*47
$GAGSV,2,1,08,09,71,097,38,31,61,072,37,24,52,185,45,05,48,312,34,7*74
$GAGSV,2,2,08,04,22,118,44,34,05,275,32,25,05,208,49,15,02,321,13,7*75
$GAGSV,2,1,07,09,71,097,39,31,61,072,35,24,52,185,43,05,48,312,39,1*75
$GAGSV,2,2,07,04,22,118,41,34,05,275,37,25,05,208,44,1*45
$GBGSV,3,1,09,19,70,187,43,46,63,045,38,36,61,242,48,57,46,313,,1*7D
$GBGSV,3,2,09,22,45,309,42,20,24,152,49,37,10,053,34,45,10,235,43,1*7B
$GBGSV,3,3,09,58,,,28,1*78
$GBGSV,2,1,07,19,70,187,40,46,63,045,32,36,61,242,41,22,45,309,35,5*7A
$GBGSV,2,2,07,20,24,152,38,45,10,235,37,37,10,053,32,5*4E
$GNGGA,110717.000,4005.098470,N,10513.206906,W,2,47,0.52,1585.606,M,-20.670,M,,*7F
$GPGSV,3,1,11,04,80,009,40,16,65,096,39,09,41,310,38,03,39,199,47,1*68
$GPGSV,3,2,11,48,39,209,47,26,38,053,40,31,21,065,43,07,19,263,43,1*6C
$GPGSV,3,3,11,27,15,130,48,08,03,160,49,06,03,290,,1*54
$GPGSV,2,1,06,04,80,009,42,09,41,310,28,03,39,199,47,26,38,053,38,8*66
$GPGSV,2,2,06,27,15,130,36,08,03,160,38,8*6A
$GLGSV,2,1,07,79,80,276,40,69,75,338,40,68,49,139,46,78,38,034,41,1*70
$GLGSV,2,2,07,80,28,226,48,70,11,325,23,67,01,143,41,1*46
$GAGSV,2,1,08,09,71,097,38,31,61,072,37,24,52,185,45,05,48,312,34,7*74
$GAGSV,2,2,08,04,22,118,44,34,05,275,33,25,05,208,49,15,02,321,17,7*70
$GAGSV,2,1,07,09,71,097,39,31,61,072,35,24,52,185,43,05,48,312,40,1*7B
$GAGSV,2,2,07,04,22,118,41,34,05,275,37,25,05,208,43,1*42
$GBGSV,3,1,09,19,70,187,43,46,63,045,38,36,61,242,48,57,46,313,,1*7D
$GBGSV,3,2,09,22,45,309,42,20,24,152,49,37,10,053,34,45,10,235,45,1*7D
$GBGSV,3,3,09,58,,,27,1*77
$GBGSV,2,1,07,19,70,187,40,46,63,045,33,36,61,242,41,22,45,309,35,5*7B
$GBGSV,2,2,07,20,24,152,38,45,10,235,37,37,10,053,32,5*4E
$GNGGA,110722.000,4005.098482,N,10513.206936,W,2,47,0.52,1585.494,M,-20.670,M,,*7E
$GPGSV,3,1,11,04,80,009,40,16,65,096,39,09,41,310,37,03,39,199,47,1*67
$GPGSV,3,2,11,48,39,209,47,26,38,053,40,31,21,065,43,07,19,263,42,1*6D
$GPGSV,3,3,11,27,15,130,48,08,03,160,49,06,03,290,,1*54
$GPGSV,2,1,06,04,80,009,42,09,41,310,29,03,39,199,47,26,38,053,38,8*67
$GPGSV,2,2,06,27,15,130,36,08,03,160,38,8*6A
$GLGSV,2,1,07,79,80,276,40,69,75,338,40,68,49,139,46,78,38,034,42,1*73
$GLGSV,2,2,07,80,28,226,48,70,11,325,23,67,01,143,36,1*46
$GAGSV,2,1,08,09,71,097,38,31,61,072,37,24,53,185,45,05,48,312,34,7*75
$GAGSV,2,2,08,04,22,118,44,25,06,208,49,34,05,275,33,15,02,321,18,7*7C
$GAGSV,2,1,07,09,71,097,39,31,61,072,35,24,53,185,43,05,48,312,40,1*7A
$GAGSV,2,2,07,04,22,118,41,25,06,208,43,34,05,275,37,1*41
$GBGSV,3,1,09,19,70,187,43,46,63,045,38,36,61,242,48,57,46,313,,1*7D
$GBGSV,3,2,09,22,45,309,42,20,24,152,49,37,10,053,34,45,10,235,43,1*7B
$GBGSV,3,3,09,58,,,25,1*75
$GBGSV,2,1,07,19,70,187,40,46,63,045,33,36,61,242,41,22,45,309,34,5*7A
$GBGSV,2,2,07,20,24,152,38,45,10,235,38,37,10,053,33,5*40
$GNGGA,110727.000,4005.098494,N,10513.207044,W,2,47,0.52,1585.332,M,-20.670,M,,*7A
$GPGSV,3,1,11,04,80,009,40,16,65,096,39,09,41,310,37,03,39,199,46,1*66
$GPGSV,3,2,11,48,39,209,47,26,38,053,40,31,21,065,43,07,19,263,42,1*6D
$GPGSV,3,3,11,27,15,130,48,08,03,160,49,06,03,290,,1*54
$GPGSV,2,1,06,04,80,009,42,09,41,310,29,03,39,199,47,26,38,053,38,8*67
$GPGSV,2,2,06,27,15,130,36,08,03,160,38,8*6A
$GLGSV,2,1,07,79,80,276,41,69,75,338,40,68,49,139,46,78,38,034,42,1*72
$GLGSV,2,2,07,80,28,226,48,70,11,325,23,67,01,143,33,1*43
$GAGSV,2,1,08,09,71,097,38,31,60,070,37,24,53,185,45,05,48,312,34,7*76
$GAGSV,2,2,08,04,22,118,44,25,06,208,49,34,05,275,34,15,02,321,18,7*7B
$GAGSV,2,1,07,09,71,097,39,31,60,070,35,24,53,185,43,05,48,312,40,1*79
$GAGSV,2,2,07,04,22,118,41,25,06,208,43,34,05,275,38,1*4E
$GBGSV,3,1,09,19,70,187,43,46,63,045,38,36,61,242,48,57,46,313,,1*7D
$GBGSV,3,2,09,22,45,309,42,20,24,152,49,37,10,053,34,45,10,235,44,1*7C
$GBGSV,3,3,09,58,,,18,1*7B
$GBGSV,2,1,07,19,70,187,40,46,63,045,33,36,61,242,41,22,45,309,34,5*7A
$GBGSV,2,2,07,20,24,152,38,45,10,235,36,37,10,053,33,5*4E
$GNGGA,110732.000,4005.098494,N,10513.207164,W,2,45,0.54,1585.251,M,-20.670,M,,*7D
$GPGSV,3,1,11,04,80,009,40,16,65,096,38,09,41,310,38,03,39,199,46,1*68
$GPGSV,3,2,11,48,39,209,47,26,38,053,40,31,21,065,43,07,19,263,41,1*6E
$GPGSV,3,3,11,27,15,130,47,08,03,160,49,06,03,290,,1*5B
$GPGSV,2,1,06,04,80,009,42,09,41,310,30,03,39,199,47,26,38,053,38,8*6F
$GPGSV,2,2,06,27,15,130,36,08,03,160,37,8*65
$GLGSV,2,1,07,79,80,276,41,69,75,338,41,68,49,139,45,78,38,034,42,1*70
$GLGSV,2,2,07,80,28,226,49,70,11,325,24,67,01,143,33,1*45
$GAGSV,2,1,08,09,71,097,38,31,60,070,37,24,53,185,45,05,48,312,35,7*77
$GAGSV,2,2,08,04,22,118,44,25,06,208,49,34,04,274,37,15,02,321,17,7*77
$GAGSV,2,1,07,09,71,097,39,31,60,070,35,24,53,185,43,05,48,312,40,1*79
$GAGSV,2,2,07,04,22,118,41,25,06,208,42,34,04,274,38,1*4F
$GBGSV,3,1,09,19,70,187,43,46,63,045,38,36,61,242,48,57,46,313,,1*7D
$GBGSV,3,2,09,22,45,309,42,20,24,152,49,37,10,053,35,45,10,235,42,1*7B
$GBGSV,3,3,09,58,,,19,1*7A
$GBGSV,2,1,07,19,70,187,40,46,63,045,33,36,61,242,41,22,45,309,33,5*7D
$GBGSV,2,2,07,20,24,152,37,45,10,235,36,37,10,053,33,5*41
$GNGGA,110737.000,4005.098476,N,10513.207206,W,2,45,0.54,1585.313,M,-20.670,M,,*74
$GPGSV,3,1,11,04,80,009,41,16,65,096,38,09,41,310,38,03,39,199,46,1*69
$GPGSV,3,2,11,48,39,209,47,26,38,053,40,31,21,065,43,07,19,263,41,1*6E
$GPGSV,3,3,11,27,15,130,47,06,03,290,,08,03,160,49,1*5B
$GPGSV,2,1,06,04,80,009,42,09,41,310,31,03,39,199,47,26,38,053,38,8*6E
$GPGSV,2,2,06,27,15,130,36,08,03,160,39,8*6B
$GLGSV,2,1,06,79,80,276,41,69,76,338,41,68,47,140,45,78,38,034,42,1*72
$GLGSV,2,2,06,80,28,226,49,70,12,326,25,1*73
$GAGSV,2,1,08,09,71,097,38,31,60,070,37,24,53,185,45,05,48,312,35,7*77
$GAGSV,2,2,08,04,22,118,44,25,06,208,49,34,04,274,38,15,02,321,14,7*7B
$GAGSV,2,1,07,09,71,097,39,31,60,070,35,24,53,185,43,05,48,312,40,1*79
$GAGSV,2,2,07,04,22,118,41,25,06,208,42,34,04,274,39,1*4E
$GBGSV,3,1,09,19,70,187,43,46,63,045,38,36,61,242,48,57,46,313,,1*7D
$GBGSV,3,2,09,22,45,309,42,20,24,152,48,37,10,053,36,45,10,235,42,1*79
$GBGSV,3,3,09,58,,,19,1*7A
$GBGSV,2,1,07,19,70,187,40,46,63,045,33,36,61,242,41,22,45,309,33,5*7D
$GBGSV,2,2,07,20,24,152,37,45,10,235,37,37,10,053,34,5*47
$GNGGA,110742.000,4005.098458,N,10513.207236,W,2,45,0.54,1585.352,M,-20.670,M,,*7C
$GPGSV,3,1,11,04,80,009,41,16,65,096,38,09,41,310,39,03,39,199,45,1*6B
$GPGSV,3,2,11,48,39,209,47,26,38,053,40,31,21,065,43,07,19,263,41,1*6E
$GPGSV,3,3,11,27,15,130,47,06,03,290,,08,03,160,50,1*53
$GPGSV,2,1,06,04,80,009,43,09,41,310,33,03,39,199,48,26,38,053,39,8*63
$GPGSV,2,2,06,27,15,130,37,08,03,160,41,8*65
$GLGSV,2,1,06,79,80,276,40,69,76,338,41,68,47,140,45,78,38,034,42,1*73
$GLGSV,2,2,06,80,28,226,49,70,12,326,25,1*73
$GAGSV,2,1,08,09,71,097,38,31,60,070,37,24,53,185,45,05,48,312,36,7*74
$GAGSV,2,2,08,04,22,118,44,25,06,208,49,34,04,274,39,15,02,321,14,7*7A
$GAGSV,2,1,07,09,71,097,40,31,60,070,36,24,53,185,43,05,48,312,40,1*74
$GAGSV,2,2,07,04,22,118,41,25,06,208,41,34,04,274,40,1*43
$GBGSV,3,1,09,19,70,187,43,46,63,045,39,36,61,242,48,57,46,313,,1*7C
$GBGSV,3,2,09,22,45,309,42,20,24,152,48,37,10,053,36,45,10,235,41,1*7A
$GBGSV,3,3,09,58,,,19,1*7A
$GBGSV,2,1,07,19,70,187,40,46,63,045,33,36,61,242,42,22,45,309,33,5*7E
$GBGSV,2,2,07,20,24,152,37,45,10,235,36,37,10,053,34,5*46
$GNGGA,110747.000,4005.098470,N,10513.207314,W,2,44,0.54,1585.378,M,-20.669,M,,*73
$GPGSV,3,1,11,04,80,009,41,16,65,096,38,09,41,310,39,03,39,199,45,1*6B
$GPGSV,3,2,11,48,39,209,47,26,38,053,41,31,21,065,43,07,19,263,40,1*6E
$GPGSV,3,3,11,27,15,130,47,06,03,290,,08,03,160,50,1*53
$GPGSV,2,1,06,04,80,009,43,09,41,310,33,03,39,199,48,26,38,053,39,8*63
$GPGSV,2,2,06,27,15,130,37,08,03,160,41,8*65
$GLGSV,2,1,06,79,81,286,40,69,76,338,41,68,47,140,45,78,37,035,42,1*73
$GLGSV,2,2,06,80,29,227,49,70,12,326,23,1*75
$GAGSV,2,1,08,09,71,097,38,31,60,070,37,24,53,185,45,05,48,312,36,7*74
$GAGSV,2,2,08,04,22,118,44,25,06,208,49,34,04,274,41,15,02,321,14,7*75
$GAGSV,2,1,07,09,71,097,40,31,60,070,36,24,53,185,43,05,48,312,40,1*74
$GAGSV,2,2,07,04,22,118,41,25,06,208,41,34,04,274,40,1*43
$GBGSV,3,1,09,19,70,187,43,46,63,045,39,36,61,242,48,57,46,313,,1*7C
$GBGSV,3,2,09,22,45,309,42,20,24,152,48,37,10,053,36,45,10,235,42,1*79
$GBGSV,3,3,09,58,,,19,1*7A
$GBGSV,2,1,07,19,70,187,40,46,63,045,33,36,61,242,42,22,45,309,31,5*7C
$GBGSV,2,2,07,20,24,152,37,45,10,235,36,37,10,053,34,5*46
$GNGGA,110752.000,4005.098452,N,10513.207362,W,2,44,0.54,1585.184,M,-20.670,M,,*7F
$GPGSV,3,1,11,04,80,009,41,16,65,096,38,09,41,310,39,03,39,199,45,1*6B
$GPGSV,3,2,11,48,39,209,47,26,38,053,41,31,21,065,43,07,19,263,39,1*60
$GPGSV,3,3,11,27,15,130,47,06,03,290,,08,03,160,50,1*53
$GPGSV,2,1,06,04,80,009,43,09,41,310,33,03,39,199,48,26,38,053,39,8*63
$GPGSV,2,2,06,27,15,130,37,08,03,160,41,8*65
$GLGSV,2,1,06,79,81,286,41,69,76,338,40,68,47,140,45,78,37,035,42,1*73
$GLGSV,2,2,06,80,29,227,49,70,12,326,20,1*76
$GAGSV,2,1,08,09,71,097,38,31,60,070,36,24,53,185,45,05,48,312,36,7*75
$GAGSV,2,2,08,04,22,118,44,25,06,208,49,34,04,274,41,15,02,321,15,7*74
$GAGSV,2,1,07,09,71,097,40,31,60,070,36,24,53,185,43,05,48,312,40,1*74
$GAGSV,2,2,07,04,22,118,41,25,06,208,40,34,04,274,40,1*42
$GBGSV,3,1,09,19,70,187,43,46,63,045,39,36,61,242,48,57,46,313,,1*7C
$GBGSV,3,2,09,22,45,309,42,20,24,152,48,37,10,053,37,45,10,235,43,1*79
$GBGSV,3,3,09,58,,,19,1*7A
$GBGSV,2,1,07,19,70,187,40,46,63,045,33,36,61,242,42,22,45,309,31,5*7C
$GBGSV,2,2,07,20,24,152,37,45,10,235,37,37,10,053,34,5*47
$GNGGA,110757.000,4005.098470,N,10513.207368,W,2,44,0.54,1584.980,M,-20.670,M,,*7D
$GPGSV,3,1,11,04,80,009,41,16,65,096,38,09,41,310,40,03,39,199,45,1*65
$GPGSV,3,2,11,48,39,209,46,26,38,053,41,31,21,065,43,07,19,263,39,1*61
$GPGSV,3,3,11,27,15,130,47,06,03,290,,08,03,160,50,1*53
$GPGSV,2,1,06,04,80,009,43,09,41,310,33,03,39,199,48,26,38,053,39,8*63
$GPGSV,2,2,06,27,15,130,37,08,03,160,40,8*64
$GLGSV,2,1,06,79,81,286,41,69,76,338,41,68,47,140,44,78,37,035,42,1*73
$GLGSV,2,2,06,80,29,227,49,70,12,326,18,1*7D
$GAGSV,2,1,08,09,71,097,38,31,60,070,35,24,53,185,45,05,48,312,36,7*76
$GAGSV,2,2,08,04,22,118,44,25,06,208,49,34,04,274,41,15,02,321,13,7*72
$GAGSV,2,1,07,09,71,097,40,31,60,070,36,24,53,185,43,05,48,312,40,1*74
$GAGSV,2,2,07,04,22,118,41,25,06,208,40,34,04,274,40,1*42
$GBGSV,3,1,09,19,70,187,43,46,63,045,40,36,61,242,48,57,46,313,,1*72
$GBGSV,3,2,09,22,45,309,42,20,24,152,48,37,10,053,37,45,10,235,42,1*78
$GBGSV,3,3,09,58,,,18,1*7B
$GBGSV,2,1,07,19,70,187,40,46,63,045,34,36,61,242,42,22,45,309,31,5*7B
$GBGSV,2,2,07,20,24,152,37,45,10,235,36,37,10,053,34,5*46
$GNGGA,110802.000,4005.098488,N,10513.207458,W,2,44,0.54,1584.636,M,-20.670,M,,*73
$GPGSV,3,1,11,04,80,009,41,16,65,096,38,09,41,310,40,03,39,199,45,1*65
$GPGSV,3,2,11,48,39,209,46,26,38,053,41,31,21,065,43,07,19,263,39,1*61
$GPGSV,3,3,11,27,15,130,47,06,03,290,,08,03,160,50,1*53
$GPGSV,2,1,06,04,80,009,43,09,41,310,33,03,39,199,48,26,38,053,39,8*63
$GPGSV,2,2,06,27,15,130,38,08,03,160,42,8*69
$GLGSV,2,1,06,79,81,286,41,69,76,338,41,68,47,140,44,78,37,035,42,1*73
$GLGSV,2,2,06,80,29,227,49,70,12,326,17,1*72
$GAGSV,2,1,08,09,71,097,38,31,60,070,35,24,53,185,45,05,48,312,36,7*76
$GAGSV,2,2,08,04,22,118,44,25,06,208,49,34,04,274,41,15,02,321,12,7*73
$GAGSV,2,1,07,09,71,097,40,31,60,070,36,24,53,185,43,05,48,312,40,1*74
$GAGSV,2,2,07,04,22,118,41,25,06,208,40,34,04,274,39,1*4C
$GBGSV,3,1,09,19,70,187,43,46,63,045,40,36,61,242,48,57,46,313,,1*72
$GBGSV,3,2,09,22,45,309,41,20,24,152,48,37,10,053,37,45,10,235,43,1*7A
$GBGSV,3,3,09,58,,,18,1*7B
$GBGSV,2,1,07,19,70,187,40,46,63,045,34,36,61,242,42,22,45,309,31,5*7B
$GBGSV,2,2,07,20,24,152,37,45,10,235,35,37,10,053,34,5*45
$GNGGA,110807.000,4005.098554,N,10513.207512,W,2,45,0.54,1584.504,M,-20.670,M,,*7A
$GPGSV,3,1,11,04,80,009,41,16,65,096,38,09,41,310,40,03,39,199,45,1*65
$GPGSV,3,2,11,48,39,209,46,26,38,053,41,31,21,065,43,07,19,263,39,1*61
$GPGSV,3,3,11,27,15,130,47,06,03,290,,08,03,160,50,1*53
$GPGSV,2,1,06,04,80,009,43,09,41,310,33,03,39,199,48,26,38,053,40,8*6D
$GPGSV,2,2,06,27,15,130,38,08,03,160,43,8*68
$GLGSV,2,1,06,79,81,286,40,69,76,338,41,68,47,140,44,78,37,035,43,1*73
$GLGSV,2,2,06,80,29,227,49,70,12,326,16,1*73
$GAGSV,2,1,08,09,71,097,38,31,60,070,36,24,53,185,45,05,48,312,36,7*75
$GAGSV,2,2,08,04,22,118,44,25,06,208,49,34,04,274,41,15,02,321,11,7*70
$GAGSV,2,1,07,09,71,097,40,31,60,070,36,24,53,185,43,05,48,312,40,1*74
$GAGSV,2,2,07,04,22,118,41,25,06,208,38,34,04,274,38,1*42
$GBGSV,3,1,09,19,70,187,43,46,63,045,40,36,61,242,48,57,46,313,,1*72
$GBGSV,3,2,09,22,45,309,41,20,24,152,48,37,10,053,38,45,10,235,43,1*75
$GBGSV,3,3,09,58,,,18,1*7B
$GBGSV,2,1,07,19,70,187,40,46,63,045,34,36,61,242,42,22,45,309,31,5*7B
$GBGSV,2,2,07,20,24,152,37,45,10,235,36,37,10,053,34,5*46
$GNGGA,110812.000,4005.098638,N,10513.207518,W,2,43,0.54,1584.447,M,-20.670,M,,*7D
$GPGSV,3,1,11,04,80,009,41,16,65,096,39,09,41,310,40,03,39,199,45,1*64
$GPGSV,3,2,11,48,39,209,46,26,38,053,41,31,21,065,43,07,19,263,40,1*6F
$GPGSV,3,3,11,27,15,130,47,06,03,290,,08,03,160,50,1*53
$GPGSV,2,1,06,04,80,009,43,09,41,310,33,03,39,199,48,26,38,053,40,8*6D
$GPGSV,2,2,06,27,15,130,39,08,03,160,43,8*69
$GLGSV,2,1,06,79,81,286,40,69,76,338,41,68,47,140,44,78,37,035,43,1*73
$GLGSV,2,2,06,80,29,227,49,70,12,326,16,1*73
$GAGSV,2,1,08,09,71,097,38,31,60,070,38,24,53,185,45,05,48,312,36,7*7B
$GAGSV,2,2,08,04,22,118,44,25,06,208,49,34,04,274,41,15,02,321,14,7*75
$GAGSV,2,1,07,09,71,097,40,31,60,070,36,24,53,185,43,05,48,312,40,1*74
$GAGSV,2,2,07,04,22,118,41,25,06,208,38,34,04,274,38,1*42
$GBGSV,3,1,09,19,70,187,43,46,63,045,40,36,61,242,48,57,46,313,,1*72
$GBGSV,3,2,09,22,45,309,42,20,24,152,48,37,10,053,38,45,10,235,43,1*76
$GBGSV,3,3,09,58,,,19,1*7A
$GBGSV,2,1,07,19,70,187,40,46,63,045,34,36,61,242,42,22,45,309,31,5*7B
$GBGSV,2,2,07,20,24,152,37,45,10,235,35,37,10,053,34,5*45
$GNGGA,110817.000,4005.098614,N,10513.207470,W,2,43,0.54,1584.345,M,-20.670,M,,*7C
$GPGSV,3,1,11,04,80,009,41,16,65,096,40,09,41,310,40,03,39,199,45,1*6A
$GPGSV,3,2,11,48,39,209,47,26,38,053,41,31,21,065,43,07,19,263,40,1*6E
$GPGSV,3,3,11,27,15,130,47,06,03,290,,08,03,160,51,1*52
$GPGSV,2,1,06,04,80,009,43,09,41,310,33,03,39,199,48,26,38,053,40,8*6D
$GPGSV,2,2,06,27,15,130,39,08,03,160,43,8*69
$GLGSV,2,1,06,79,81,286,40,69,76,338,41,68,47,140,43,78,37,035,43,1*74
$GLGSV,2,2,06,80,29,227,49,70,12,326,18,1*7D
$GAGSV,2,1,08,09,71,097,38,31,60,070,38,24,53,185,45,05,48,312,36,7*7B
$GAGSV,2,2,08,04,22,118,44,25,06,208,49,34,04,274,41,15,02,321,17,7*76
$GAGSV,2,1,07,09,71,097,40,31,60,070,35,24,53,185,43,05,48,312,40,1*77
$GAGSV,2,2,07,04,22,118,41,25,06,208,37,34,04,274,36,1*43
$GBGSV,3,1,09,19,69,186,43,46,63,045,40,36,61,242,48,57,46,313,,1*7B
$GBGSV,3,2,09,22,46,308,43,20,23,152,48,37,10,053,38,45,10,235,42,1*73
$GBGSV,3,3,09,58,,,19,1*7A
$GBGSV,2,1,07,19,69,186,40,46,63,045,34,36,61,242,42,22,46,308,29,5*79
$GBGSV,2,2,07,20,23,152,37,45,10,235,35,37,10,053,34,5*42
$GNGGA,110822.000,4005.098584,N,10513.207464,W,2,43,0.54,1584.331,M,-20.670,M,,*76
$GPGSV,3,1,11,04,80,009,41,16,65,096,40,09,41,310,40,03,39,199,45,1*6A
$GPGSV,3,2,11,48,39,209,47,26,38,053,41,31,21,065,43,07,19,263,40,1*6E
$GPGSV,3,3,11,27,15,130,47,06,03,290,,08,03,160,51,1*52
$GPGSV,2,1,06,04,80,009,43,09,41,310,33,03,39,199,48,26,38,053,41,8*6C
$GPGSV,2,2,06,27,15,130,39,08,03,160,44,8*6E
$GLGSV,2,1,06,79,81,286,40,69,76,338,41,68,47,140,43,78,37,035,45,1*72
$GLGSV,2,2,06,80,29,227,49,70,12,326,19,1*7C
$GAGSV,2,1,08,09,71,097,38,31,60,070,38,24,53,185,45,05,48,312,36,7*7B
$GAGSV,2,2,08,04,22,118,44,25,06,208,49,34,04,274,40,15,02,321,17,7*77
$GAGSV,2,1,07,09,71,097,40,31,60,070,35,24,53,185,43,05,48,312,40,1*77
$GAGSV,2,2,07,04,22,118,41,25,06,208,37,34,04,274,36,1*43
$GBGSV,3,1,09,19,69,186,43,46,63,045,39,36,61,242,48,57,46,313,,1*75
$GBGSV,3,2,09,22,46,308,43,20,23,152,48,37,10,053,38,45,10,235,40,1*71
$GBGSV,3,3,09,58,,,18,1*7B
$GBGSV,2,1,07,19,69,186,40,46,63,045,34,36,61,242,42,22,46,308,29,5*79
$GBGSV,2,2,07,20,23,152,37,45,10,235,35,37,10,053,35,5*43
$GNGGA,110827.000,4005.098554,N,10513.207458,W,2,43,0.54,1584.235,M,-20.669,M,,*7C
$GPGSV,3,1,11,04,80,009,41,16,65,096,40,09,41,310,40,03,39,199,45,1*6A
$GPGSV,3,2,11,48,39,209,47,26,38,053,41,31,21,065,43,07,19,263,40,1*6E
$GPGSV,3,3,11,27,15,130,46,06,03,290,,08,03,160,51,1*53
$GPGSV,2,1,06,04,80,009,43,09,41,310,33,03,39,199,48,26,38,053,41,8*6C
$GPGSV,2,2,06,27,15,130,39,08,03,160,44,8*6E
$GLGSV,2,1,06,79,81,286,41,69,76,338,41,68,47,140,43,78,37,035,45,1*73
$GLGSV,2,2,06,80,29,227,49,70,12,326,21,1*77
$GAGSV,2,1,08,09,71,097,38,31,60,070,38,24,53,185,45,05,48,312,36,7*7B
$GAGSV,2,2,08,04,22,118,44,25,06,208,49,34,04,274,40,15,02,321,15,7*75
$GAGSV,2,1,07,09,71,097,40,31,60,070,35,24,53,185,43,05,48,312,40,1*77
$GAGSV,2,2,07,04,22,118,41,25,06,208,36,34,04,274,36,1*42
$GBGSV,3,1,09,19,69,186,43,46,63,045,38,36,61,242,48,57,46,313,,1*74
$GBGSV,3,2,09,22,46,308,43,20,23,152,48,37,10,053,38,45,10,235,43,1*72
$GBGSV,3,3,09,58,,,17,1*74
$GBGSV,2,1,07,19,69,186,40,46,63,045,34,36,61,242,42,22,46,308,28,5*78
$GBGSV,2,2,07,20,23,152,37,45,10,235,35,37,10,053,35,5*43
$GNGGA,110832.000,4005.098506,N,10513.207464,W,2,45,0.54,1584.197,M,-20.670,M,,*75
$GPGSV,3,1,11,04,80,009,41,16,65,096,39,09,41,310,40,03,39,199,45,1*64
$GPGSV,3,2,11,48,39,209,47,26,38,053,42,31,21,065,43,07,19,263,40,1*6D
$GPGSV,3,3,11,27,15,130,46,06,03,290,,08,03,160,51,1*53
$GPGSV,2,1,06,04,80,009,43,09,41,310,34,03,39,199,48,26,38,053,41,8*6B
$GPGSV,2,2,06,27,15,130,40,08,03,160,44,8*60
$GLGSV,2,1,06,79,81,286,41,69,76,338,40,68,47,140,43,78,37,035,45,1*72
$GLGSV,2,2,06,80,29,227,49,70,12,326,20,1*76
$GAGSV,2,1,08,09,71,097,38,31,60,070,38,24,53,185,45,05,48,312,36,7*7B
$GAGSV,2,2,08,04,22,118,44,25,06,208,49,34,04,274,40,15,02,321,14,7*74
$GAGSV,2,1,07,09,71,097,40,31,60,070,34,24,53,185,43,05,48,312,40,1*76
$GAGSV,2,2,07,04,22,118,41,25,06,208,34,34,04,274,35,1*43
$GBGSV,3,1,09,19,69,186,43,46,63,045,37,36,62,243,48,57,46,313,,1*79
$GBGSV,3,2,09,22,46,308,42,20,23,152,48,45,10,235,40,37,09,053,38,1*78
$GBGSV,3,3,09,58,,,17,1*74
$GBGSV,2,1,07,19,69,186,41,46,63,045,35,36,62,243,42,22,46,308,28,5*7A
$GBGSV,2,2,07,20,23,152,37,45,10,235,35,37,09,053,34,5*4A
$GNGGA,110837.000,4005.098464,N,10513.207614,W,2,44,0.54,1584.028,M,-20.670,M,,*74
$GPGSV,3,1,11,04,80,009,41,16,65,096,39,09,41,310,40,03,39,199,45,1*64
$GPGSV,3,2,11,48,39,209,47,26,38,053,43,31,21,065,43,07,19,263,40,1*6C
$GPGSV,3,3,11,27,15,130,46,06,03,290,,08,03,160,51,1*53
$GPGSV,2,1,06,04,80,009,43,09,41,310,35,03,39,199,48,26,38,053,41,8*6A
$GPGSV,2,2,06,27,15,130,40,08,03,160,44,8*60
$GLGSV,2,1,06,79,81,286,41,69,76,338,40,68,47,140,43,78,37,035,45,1*72
$GLGSV,2,2,06,80,29,227,49,70,12,326,20,1*76
$GAGSV,2,1,08,09,71,097,39,31,60,070,38,24,53,185,45,05,48,312,36,7*7A
$GAGSV,2,2,08,04,22,118,44,25,06,208,49,34,04,274,40,15,02,321,15,7*75
$GAGSV,2,1,07,09,71,097,40,31,60,070,34,24,53,185,43,05,48,312,40,1*76
$GAGSV,2,2,07,04,22,118,41,25,06,208,34,34,04,274,34,1*42
$GBGSV,3,1,09,19,69,186,43,46,63,045,37,36,62,243,48,57,46,313,,1*79
$GBGSV,3,2,09,22,46,308,41,20,23,152,48,45,10,235,43,37,09,053,38,1*78
$GBGSV,3,3,09,58,,,18,1*7B
$GBGSV,2,1,07,19,69,186,41,46,63,045,35,36,62,243,42,22,46,308,27,5*75
$GBGSV,2,2,07,20,23,152,37,45,10,235,35,37,09,053,34,5*4A
$GNGGA,110842.000,4005.098518,N,10513.207656,W,2,45,0.54,1583.997,M,-20.670,M,,*71
$GPGSV,3,1,11,04,80,009,41,16,65,096,38,09,41,310,40,03,39,199,45,1*65
$GPGSV,3,2,11,48,39,209,47,26,38,053,43,31,21,065,43,07,19,263,40,1*6C
$GPGSV,3,3,11,27,15,130,46,06,03,290,,08,03,160,51,1*53
$GPGSV,2,1,06,04,80,009,43,09,41,310,36,03,39,199,48,26,38,053,41,8*69
$GPGSV,2,2,06,27,15,130,40,08,03,160,46,8*62
$GLGSV,2,1,06,79,81,286,41,69,76,338,40,68,47,140,42,78,37,035,45,1*73
$GLGSV,2,2,06,80,29,227,49,70,12,326,18,1*7D
$GAGSV,2,1,08,09,71,097,39,31,60,070,38,24,53,185,45,05,48,312,36,7*7A
$GAGSV,2,2,08,04,22,118,44,25,06,208,49,34,04,274,40,15,02,321,15,7*75
$GAGSV,2,1,07,09,71,097,40,31,60,070,34,24,53,185,43,05,48,312,40,1*76
$GAGSV,2,2,07,04,22,118,41,25,06,208,33,34,04,274,34,1*45
$GBGSV,3,1,09,19,69,186,43,46,62,045,37,36,62,243,48,57,46,313,,1*78
$GBGSV,3,2,09,22,46,308,41,20,23,152,48,45,10,236,42,37,09,053,38,1*7A
$GBGSV,3,3,09,58,,,18,1*7B
$GBGSV,2,1,07,19,69,186,41,46,62,045,35,36,62,243,42,22,46,308,27,5*74
$GBGSV,2,2,07,20,23,152,37,45,10,236,35,37,09,053,35,5*48
$GNGGA,110847.000,4005.098548,N,10513.207626,W,2,44,0.54,1583.997,M,-20.670,M,,*77
$GPGSV,3,1,11,04,80,009,41,16,65,096,38,09,41,310,40,03,39,199,45,1*65
$GPGSV,3,2,11,48,39,209,47,26,38,053,43,31,21,065,43,07,19,263,41,1*6D
$GPGSV,3,3,11,27,15,130,46,06,03,290,,08,03,160,51,1*53
$GPGSV,2,1,06,04,80,009,43,09,41,310,36,03,39,199,48,26,38,053,41,8*69
$GPGSV,2,2,06,27,15,130,40,08,03,160,46,8*62
$GLGSV,2,1,06,79,81,286,40,69,76,338,40,68,47,140,42,78,37,035,45,1*72
$GLGSV,2,2,06,80,29,227,49,70,12,326,14,1*71
$GAGSV,2,1,08,09,71,097,39,31,60,070,38,24,53,185,45,05,48,312,36,7*7A
$GAGSV,2,2,08,04,22,118,44,25,06,208,49,34,04,274,39,15,02,321,14,7*7A
$GAGSV,2,1,07,09,71,097,40,31,60,070,34,24,53,185,43,05,48,312,40,1*76
$GAGSV,2,2,07,04,22,118,41,25,06,208,33,34,04,274,33,1*42
$GBGSV,3,1,09,19,69,186,44,46,62,045,37,36,62,243,48,57,46,313,,1*7F
$GBGSV,3,2,09,22,46,308,41,20,23,152,48,45,10,236,43,37,09,053,38,1*7B
$GBGSV,3,3,09,58,,,18,1*7B
$GBGSV,2,1,07,19,69,186,41,46,62,045,34,36,62,243,42,22,46,308,25,5*77
$GBGSV,2,2,07,20,23,152,37,45,10,236,35,37,09,053,34,5*49
$GNGGA,110852.000,4005.098530,N,10513.207554,W,2,44,0.54,1584.030,M,-20.670,M,,*79
$GPGSV,3,1,11,04,80,009,41,16,65,096,38,09,41,310,40,03,39,199,45,1*65
$GPGSV,3,2,11,48,39,209,47,26,38,053,43,31,21,065,43,07,19,263,42,1*6E
$GPGSV,3,3,11,27,15,130,46,06,03,290,,08,03,160,51,1*53
$GPGSV,2,1,06,04,80,009,43,09,41,310,37,03,39,199,48,26,38,053,41,8*68
$GPGSV,2,2,06,27,15,130,40,08,03,160,46,8*62
$GLGSV,2,1,06,79,81,286,40,69,76,338,41,68,47,140,42,78,37,035,46,1*70
$GLGSV,2,2,06,80,29,227,49,70,12,326,13,1*76
$GAGSV,2,1,08,09,71,097,40,31,60,070,38,24,53,185,45,05,48,312,36,7*74
$GAGSV,2,2,08,04,22,118,44,25,06,208,49,34,04,274,38,15,02,321,12,7*7D
$GAGSV,2,1,07,09,71,097,40,31,60,070,34,24,53,185,43,05,48,312,40,1*76
$GAGSV,2,2,07,04,22,118,41,25,06,208,33,34,04,274,32,1*43
$GBGSV,3,1,09,19,69,186,44,36,62,243,48,46,62,045,38,57,47,313,,1*71
$GBGSV,3,2,09,22,46,308,41,20,23,152,48,45,10,236,43,37,09,053,38,1*7B
$GBGSV,3,3,09,58,,,17,1*74
$GBGSV,2,1,07,19,69,186,41,46,62,045,34,36,62,243,42,22,46,308,25,5*77
$GBGSV,2,2,07,20,23,152,37,45,10,236,36,37,09,053,34,5*4A
$GNGGA,110857.000,4005.098560,N,10513.207500,W,2,45,0.54,1584.228,M,-20.670,M,,*72
$GPGSV,3,1,11,04,80,009,41,16,65,096,38,09,41,310,40,03,39,199,45,1*65
$GPGSV,3,2,11,48,39,209,47,26,38,053,43,31,21,065,43,07,19,263,42,1*6E
$GPGSV,3,3,11,27,15,130,46,06,03,290,,08,03,160,51,1*53
$GPGSV,2,1,06,04,80,009,43,09,41,310,37,03,39,199,48,26,38,053,41,8*68
$GPGSV,2,2,06,27,15,130,40,08,03,160,46,8*62
$GLGSV,2,1,06,79,81,286,40,69,76,338,41,68,47,140,41,78,37,035,46,1*73
$GLGSV,2,2,06,80,29,227,49,70,12,326,15,1*70
$GAGSV,2,1,08,09,71,097,40,31,60,070,38,24,53,185,45,05,48,312,36,7*74
$GAGSV,2,2,08,04,22,118,44,25,06,208,49,34,04,274,38,15,02,321,09,7*77
$GAGSV,2,1,07,09,71,097,40,31,60,070,34,24,53,185,43,05,48,312,40,1*76
$GAGSV,2,2,07,04,22,118,41,25,06,208,30,34,04,274,31,1*43
$GBGSV,3,1,09,19,69,186,44,36,62,243,48,46,62,045,38,57,47,313,,1*71
$GBGSV,3,2,09,22,46,308,41,20,23,152,48,45,10,236,45,37,09,053,39,1*7C
$GBGSV,3,3,09,58,,,17,1*74
$GBGSV,2,1,07,19,69,186,41,46,62,045,34,36,62,243,42,22,46,308,23,5*71
$GBGSV,2,2,07,20,23,152,37,45,10,236,36,37,09,053,35,5*4B
$GNGGA,110902.000,4005.098638,N,10513.207626,W,2,45,0.54,1584.286,M,-20.670,M,,*7E
$GPGSV,3,1,11,04,81,015,41,16,65,096,38,09,41,310,39,48,39,209,47,1*60
$GPGSV,3,2,11,03,38,199,45,26,38,053,43,31,21,065,43,07,19,263,42,1*68
$GPGSV,3,3,11,27,15,130,46,06,03,290,,08,03,160,51,1*53
$GPGSV,2,1,06,04,81,015,43,09,41,310,37,03,38,199,48,26,38,053,41,8*65
$GPGSV,2,2,06,27,15,130,41,08,03,160,46,8*63
$GLGSV,2,1,06,79,81,286,41,69,76,338,41,68,47,140,41,78,37,035,46,1*72
$GLGSV,2,2,06,80,29,227,49,70,12,326,19,1*7C
$GAGSV,2,1,08,09,71,097,40,31,60,070,38,24,53,185,45,05,48,312,37,7*75
$GAGSV,2,2,08,04,22,118,44,25,06,208,49,34,04,274,37,15,02,321,08,7*79
$GAGSV,2,1,07,09,71,097,40,31,60,070,34,24,53,185,43,05,48,312,40,1*76
$GAGSV,2,2,07,04,22,118,41,25,06,208,33,34,04,274,30,1*41
$GBGSV,3,1,09,19,69,186,44,36,62,243,48,46,62,045,38,57,47,313,,1*71
$GBGSV,3,2,09,22,46,308,41,20,23,152,48,45,10,236,44,37,09,053,39,1*7D
$GBGSV,3,3,09,58,,,17,1*74
$GBGSV,2,1,07,19,69,186,41,46,62,045,33,36,62,243,42,22,46,308,22,5*77
$GBGSV,2,2,07,20,23,152,38,45,10,236,36,37,09,053,35,5*44
$GNGGA,110907.000,4005.098674,N,10513.207824,W,2,45,0.54,1584.199,M,-20.669,M,,*7A
$GPGSV,3,1,11,04,81,015,41,16,65,096,39,09,42,311,39,48,39,209,47,1*63
$GPGSV,3,2,11,03,38,199,45,26,38,053,43,31,21,065,43,07,20,264,41,1*66
$GPGSV,3,3,11,27,15,130,46,08,04,160,51,06,02,289,,1*5D
$GPGSV,2,1,06,04,81,015,43,09,42,311,37,03,38,199,48,26,38,053,41,8*67
$GPGSV,2,2,06,27,15,130,42,08,04,160,47,8*66
$GLGSV,2,1,06,79,81,286,41,69,76,338,41,68,47,140,41,78,37,035,46,1*72
$GLGSV,2,2,06,80,29,227,49,70,12,326,21,1*77
$GAGSV,2,1,08,09,71,097,40,31,60,070,38,24,53,185,45,05,48,312,37,7*75
$GAGSV,2,2,08,04,22,118,44,25,06,208,49,34,04,274,35,15,02,321,09,7*7A
$GAGSV,2,1,07,09,71,097,40,31,60,070,35,24,53,185,43,05,48,312,40,1*77
$GAGSV,2,2,07,04,22,118,40,25,06,208,31,34,04,274,29,1*4A
$GBGSV,3,1,09,19,69,186,44,36,62,243,48,46,62,045,38,57,47,313,,1*71
$GBGSV,3,2,09,22,46,308,41,20,23,152,48,45,10,236,45,37,09,053,39,1*7C
$GBGSV,3,3,09,58,,,17,1*74
$GBGSV,2,1,07,19,69,186,41,46,62,045,33,36,62,243,42,22,46,308,22,5*77
$GBGSV,2,2,07,20,23,152,38,45,10,236,37,37,09,053,35,5*45
$GNGGA,110912.000,4005.098794,N,10513.208094,W,2,45,0.54,1584.095,M,-20.670,M,,*78
$GPGSV,3,1,11,04,81,015,41,16,65,096,39,09,42,311,39,48,39,209,47,1*63
$GPGSV,3,2,11,03,38,199,45,26,38,053,43,31,21,065,43,07,20,264,40,1*67
$GPGSV,3,3,11,27,15,130,45,08,04,160,51,06,02,289,,1*5E
$GPGSV,2,1,06,04,81,015,43,09,42,311,37,03,38,199,48,26,38,053,41,8*67
$GPGSV,2,2,06,27,15,130,42,08,04,160,47,8*66
$GLGSV,2,1,06,79,81,286,41,69,76,338,41,68,47,140,41,78,37,035,47,1*73
$GLGSV,2,2,06,80,29,227,49,70,12,326,23,1*75
$GAGSV,2,1,08,09,71,097,40,31,60,070,38,24,53,185,45,05,48,312,37,7*75
$GAGSV,2,2,08,04,22,118,44,25,06,208,48,34,04,274,35,15,02,321,13,7*70
$GAGSV,2,1,07,09,71,097,40,31,60,070,34,24,53,185,43,05,48,312,40,1*76
$GAGSV,2,2,07,04,22,118,40,25,06,208,32,34,04,274,27,1*47
$GBGSV,3,1,09,19,69,186,44,36,62,243,48,46,62,045,39,57,47,313,,1*70
$GBGSV,3,2,09,22,46,308,41,20,23,152,48,45,10,236,44,37,09,053,39,1*7D
$GBGSV,3,3,09,58,,,16,1*75
$GBGSV,2,1,07,19,69,186,41,46,62,045,32,36,62,243,42,22,46,308,21,5*75
$GBGSV,2,2,07,20,23,152,38,45,10,236,37,37,09,053,35,5*45
$GNGGA,110917.000,4005.098866,N,10513.208262,W,2,45,0.54,1583.843,M,-20.670,M,,*70
$GPGSV,3,1,11,04,81,015,41,16,65,093,39,09,42,311,39,48,39,209,47,1*66
$GPGSV,3,2,11,03,38,199,45,26,38,053,43,31,21,065,42,07,20,264,40,1*66
$GPGSV,3,3,11,27,15,130,45,08,04,160,51,06,02,289,,1*5E
$GPGSV,2,1,06,04,81,015,43,09,42,311,38,03,38,199,48,26,38,053,42,8*6B
$GPGSV,2,2,06,27,15,130,42,08,04,160,47,8*66
$GLGSV,2,1,06,79,81,286,41,69,76,338,41,68,47,140,40,78,37,035,47,1*72
$GLGSV,2,2,06,80,29,227,49,70,12,326,23,1*75
$GAGSV,2,1,08,09,71,097,40,31,60,070,38,24,53,185,45,05,48,312,37,7*75
$GAGSV,2,2,08,04,22,118,44,25,06,208,48,34,04,274,34,15,02,321,13,7*71
$GAGSV,2,1,07,09,71,097,40,31,60,070,34,24,53,185,43,05,48,312,40,1*76
$GAGSV,2,2,07,04,22,118,40,25,06,208,34,34,04,274,27,1*41
$GBGSV,3,1,09,19,69,186,44,36,62,243,48,46,62,045,39,57,47,313,,1*70
$GBGSV,3,2,09,22,46,308,41,20,23,152,48,45,10,236,44,37,09,053,39,1*7D
$GBGSV,3,3,09,58,,,16,1*75
$GBGSV,2,1,07,19,69,186,41,46,62,045,32,36,62,243,42,22,46,308,21,5*75
$GBGSV,2,2,07,20,23,152,38,45,10,236,37,37,09,053,36,5*46
$GNGGA,110922.000,4005.098890,N,10513.208226,W,2,45,0.54,1583.746,M,-20.670,M,,*75
$GPGSV,3,1,11,04,81,015,41,16,65,093,39,09,42,311,38,48,39,209,47,1*67
$GPGSV,3,2,11,03,38,199,45,26,38,053,43,31,21,065,42,07,20,264,41,1*67
$GPGSV,3,3,11,27,15,130,45,08,04,160,51,06,02,289,,1*5E
$GPGSV,2,1,06,04,81,015,43,09,42,311,38,03,38,199,48,26,38,053,42,8*6B
$GPGSV,2,2,06,27,15,130,42,08,04,160,48,8*69
$GLGSV,2,1,06,79,81,286,40,69,76,338,42,68,47,140,40,78,37,035,47,1*70
$GLGSV,2,2,06,80,29,227,49,70,12,326,24,1*72
$GAGSV,2,1,08,09,71,097,40,31,60,070,38,24,53,185,45,05,48,312,37,7*75
$GAGSV,2,2,08,04,22,118,44,25,06,208,48,34,04,274,31,15,02,321,13,7*74
$GAGSV,2,1,07,09,71,097,40,31,60,070,34,24,53,185,43,05,48,312,40,1*76
$GAGSV,2,2,07,04,22,118,40,25,06,208,33,34,04,274,26,1*47
$GBGSV,3,1,09,19,69,186,44,36,62,243,48,46,62,045,40,57,47,313,,1*7E
$GBGSV,3,2,09,22,46,308,41,20,23,152,48,45,10,236,46,37,09,053,39,1*7F
$GBGSV,3,3,09,58,,,16,1*75
$GBGSV,2,1,07,19,69,186,41,46,62,045,32,36,62,243,42,22,46,308,20,5*74
$GBGSV,2,2,07,20,23,152,39,45,10,236,37,37,09,053,36,5*47
$GNGGA,110927.000,4005.098836,N,10513.208148,W,2,45,0.54,1583.649,M,-20.670,M,,*79
$GPGSV,3,1,11,04,81,015,41,16,65,093,40,09,42,311,37,48,39,209,47,1*66
$GPGSV,3,2,11,03,38,199,46,26,37,052,43,31,21,065,41,07,20,264,41,1*69
$GPGSV,3,3,11,27,16,129,45,08,04,160,51,06,02,289,,1*55
$GPGSV,2,1,06,04,81,015,43,09,42,311,38,03,38,199,48,26,37,052,42,8*65
$GPGSV,2,2,06,27,16,129,42,08,04,160,48,8*62
$GLGSV,2,1,06,79,81,286,40,69,76,338,42,68,47,140,39,78,37,035,47,1*7E
$GLGSV,2,2,06,80,29,227,49,70,12,326,23,1*75
$GAGSV,2,1,08,09,71,097,40,31,60,070,39,24,53,185,45,05,48,312,38,7*7B
$GAGSV,2,2,08,04,22,118,44,25,06,208,48,34,04,274,30,15,02,321,07,7*70
$GAGSV,2,1,07,09,71,097,40,31,60,070,34,24,53,185,43,05,48,312,40,1*76
$GAGSV,2,2,07,04,22,118,40,25,06,208,34,34,04,274,24,1*42
$GBGSV,3,1,09,19,69,186,44,36,62,243,48,46,62,045,40,57,47,313,,1*7E
$GBGSV,3,2,09,22,46,308,40,20,23,152,48,45,10,236,45,37,09,053,39,1*7D
$GBGSV,3,3,09,58,,,16,1*75
$GBGSV,2,1,07,19,69,186,41,46,62,045,32,36,62,243,42,22,46,308,21,5*75
$GBGSV,2,2,07,20,23,152,39,45,10,236,37,37,09,053,36,5*47
$GNGGA,110932.000,4005.098794,N,10513.208082,W,2,45,0.54,1583.453,M,-20.669,M,,*7C
$GPGSV,3,1,11,04,81,015,40,16,65,093,40,09,42,311,37,48,39,209,47,1*67
$GPGSV,3,2,11,03,38,199,46,26,37,052,43,31,20,066,41,07,20,264,41,1*6B
$GPGSV,3,3,11,27,16,129,45,08,04,160,51,06,02,289,,1*55
$GPGSV,2,1,06,04,81,015,43,09,42,311,38,03,38,199,48,26,37,052,42,8*65
$GPGSV,2,2,06,27,16,129,42,08,04,160,48,8*62
$GLGSV,2,1,06,79,81,286,40,69,76,338,42,68,47,140,40,78,37,035,46,1*71
$GLGSV,2,2,06,80,29,227,49,70,12,326,23,1*75
$GAGSV,2,1,08,09,71,097,40,31,60,070,39,24,53,185,45,05,48,312,38,7*7B
$GAGSV,2,2,08,04,22,118,44,25,06,208,48,34,04,274,28,15,02,321,07,7*79
$GAGSV,2,1,07,09,71,097,40,31,60,070,34,24,53,185,43,05,48,312,40,1*76
$GAGSV,2,2,07,04,22,118,40,25,06,208,35,34,04,274,24,1*43
$GBGSV,3,1,09,19,69,186,44,36,62,243,48,46,62,045,40,57,47,313,,1*7E
$GBGSV,3,2,09,22,46,308,40,20,23,152,48,45,10,236,46,37,09,053,39,1*7E
$GBGSV,3,3,09,58,,,16,1*75
$GBGSV,2,1,07,19,69,186,41,46,62,045,32,36,62,243,42,22,46,308,21,5*75
$GBGSV,2,2,07,20,23,152,39,45,10,236,37,37,09,053,37,5*46
$GNGGA,110937.000,4005.098770,N,10513.207956,W,2,44,0.54,1583.297,M,-20.670,M,,*7B
$GPGSV,3,1,11,04,81,015,39,16,65,093,40,09,42,311,36,48,39,209,47,1*68
$GPGSV,3,2,11,03,38,199,46,26,37,052,44,31,20,066,41,07,20,264,42,1*6F
$GPGSV,3,3,11,27,16,129,44,08,04,160,51,06,02,289,,1*54
$GPGSV,2,1,06,04,81,015,43,09,42,311,38,03,38,199,48,26,37,052,42,8*65
$GPGSV,2,2,06,27,16,129,42,08,04,160,48,8*62
$GLGSV,2,1,06,79,81,286,41,69,76,338,41,68,47,140,40,78,37,035,46,1*73
$GLGSV,2,2,06,80,29,227,49,70,12,326,23,1*75
$GAGSV,2,1,08,09,71,097,40,31,60,070,39,24,53,185,45,05,48,312,38,7*7B
$GAGSV,2,2,08,04,22,118,44,25,06,208,48,34,04,274,29,15,02,321,07,7*78
$GAGSV,2,1,07,09,71,097,40,31,60,070,33,24,53,185,43,05,48,312,40,1*71
$GAGSV,2,2,07,04,22,118,40,25,06,208,35,34,04,274,22,1*45
$GBGSV,3,1,09,19,69,186,44,36,62,243,48,46,62,045,40,57,47,313,,1*7E
$GBGSV,3,2,09,22,46,308,40,20,23,152,48,45,10,236,45,37,09,053,39,1*7D
$GBGSV,3,3,09,58,,,16,1*75
$GBGSV,2,1,07,19,69,186,41,46,62,045,32,36,62,243,42,22,46,308,20,5*74
$GBGSV,2,2,07,20,23,152,39,45,10,236,37,37,09,053,37,5*46
$GNGGA,110942.000,4005.098848,N,10513.207998,W,2,45,0.54,1583.206,M,-20.670,M,,*76
$GPGSV,3,1,11,04,81,015,38,16,65,093,40,09,42,311,34,48,39,209,47,1*6B
$GPGSV,3,2,11,03,38,199,46,26,37,052,44,31,20,066,41,07,20,264,42,1*6F
$GPGSV,3,3,11,27,16,129,44,08,04,160,51,06,02,289,,1*54
$GPGSV,2,1,06,04,81,015,43,09,42,311,39,03,38,199,48,26,37,052,43,8*65
$GPGSV,2,2,06,27,16,129,43,08,04,160,48,8*63
$GLGSV,2,1,06,79,81,286,40,69,76,338,41,68,47,140,40,78,37,035,46,1*72
$GLGSV,2,2,06,80,29,227,49,70,12,326,24,1*72
$GAGSV,3,1,09,09,71,097,40,31,60,070,39,24,53,185,45,05,49,312,38,7*7A
$GAGSV,3,2,09,04,21,119,44,25,06,208,48,34,04,274,29,15,02,321,12,7*7E
$GAGSV,3,3,09,03,01,304,,7*4F
$GAGSV,2,1,07,09,71,097,40,31,60,070,33,24,53,185,43,05,49,312,40,1*70
$GAGSV,2,2,07,04,21,119,40,25,06,208,37,34,04,274,22,1*45
$GBGSV,3,1,09,19,69,186,44,36,62,243,48,46,62,045,40,57,47,313,,1*7E
$GBGSV,3,2,09,22,46,308,40,20,23,152,48,45,10,236,47,37,09,053,39,1*7F
$GBGSV,3,3,09,58,,,16,1*75
$GBGSV,2,1,07,19,69,186,41,46,62,045,32,36,62,243,42,22,46,308,21,5*75
$GBGSV,2,2,07,20,23,152,40,45,10,236,38,37,09,053,37,5*47
$GNGGA,110947.000,4005.098800,N,10513.208100,W,2,44,0.54,1583.223,M,-20.670,M,,*7F
$GPGSV,3,1,11,04,81,015,38,16,65,093,40,09,42,311,34,48,39,209,47,1*6B
$GPGSV,3,2,11,03,38,199,46,26,37,052,45,31,20,066,41,07,20,264,42,1*6E
$GPGSV,3,3,11,27,16,129,43,08,04,160,50,06,02,289,,1*52
$GPGSV,2,1,06,04,81,015,43,09,42,311,39,03,38,199,48,26,37,052,43,8*65
$GPGSV,2,2,06,27,16,129,43,08,04,160,49,8*62
$GLGSV,2,1,06,79,81,286,40,69,76,338,41,68,47,140,40,78,37,035,45,1*71
$GLGSV,2,2,06,80,29,227,49,70,12,326,24,1*72
$GAGSV,3,1,09,09,71,099,40,31,60,070,39,24,53,185,45,05,49,312,38,7*74
$GAGSV,3,2,09,04,21,119,44,25,06,208,47,34,04,274,26,15,02,321,15,7*79
$GAGSV,3,3,09,03,01,304,,7*4F
$GAGSV,2,1,07,09,71,099,40,31,60,070,33,24,53,185,43,05,49,312,40,1*7E
$GAGSV,2,2,07,04,21,119,40,25,06,208,38,34,04,274,21,1*49
$GBGSV,3,1,09,19,69,186,44,36,62,243,48,46,62,045,40,57,47,313,,1*7E
$GBGSV,3,2,09,22,46,308,40,20,23,152,48,45,10,236,47,37,09,053,39,1*7F
$GBGSV,3,3,09,58,,,16,1*75
$GBGSV,2,1,07,19,69,186,41,46,62,045,33,36,62,243,42,22,46,308,21,5*74
$GBGSV,2,2,07,20,23,152,40,45,10,236,38,37,09,053,37,5*47
$GNGGA,110952.000,4005.098842,N,10513.208244,W,2,44,0.54,1583.208,M,-20.669,M,,*7F
$GPGSV,3,1,11,04,81,015,38,16,65,093,40,09,42,311,34,48,39,209,47,1*6B
$GPGSV,3,2,11,03,38,199,46,26,37,052,45,31,20,066,41,07,20,264,42,1*6E
$GPGSV,3,3,11,27,16,129,43,08,04,160,50,06,02,289,,1*52
$GPGSV,2,1,06,04,81,015,43,09,42,311,39,03,38,199,48,26,37,052,43,8*65
$GPGSV,2,2,06,27,16,129,43,08,04,160,49,8*62
$GLGSV,2,1,06,79,81,286,39,69,76,338,41,68,47,140,41,78,37,035,45,1*7E
$GLGSV,2,2,06,80,29,227,48,70,12,326,24,1*73
$GAGSV,3,1,09,09,71,099,40,31,60,070,39,24,53,185,45,05,49,312,38,7*74
$GAGSV,3,2,09,04,21,119,44,25,06,208,47,34,04,274,27,15,02,320,18,7*74
$GAGSV,3,3,09,03,01,304,,7*4F
$GAGSV,2,1,07,09,71,099,40,31,60,070,33,24,53,185,43,05,49,312,40,1*7E
$GAGSV,2,2,07,04,21,119,40,25,06,208,38,34,04,274,21,1*49
$GBGSV,3,1,09,19,69,186,44,36,62,243,48,46,62,045,40,57,47,313,,1*7E
$GBGSV,3,2,09,22,46,308,40,20,23,152,48,45,10,236,46,37,09,053,39,1*7E
$GBGSV,3,3,09,58,,,15,1*76
$GBGSV,2,1,07,19,69,186,41,46,62,045,33,36,62,243,42,22,46,308,22,5*77
$GBGSV,2,2,07,20,23,152,40,45,10,236,38,37,09,053,37,5*47
$GNGGA,110957.000,4005.098914,N,10513.208400,W,2,44,0.54,1583.052,M,-20.670,M,,*7B
$GPGSV,3,1,11,04,81,015,38,16,65,093,40,09,42,311,34,48,39,209,47,1*6B
$GPGSV,3,2,11,03,38,199,46,26,37,052,45,31,20,066,41,07,20,264,42,1*6E
$GPGSV,3,3,11,27,16,129,43,08,04,160,50,06,02,289,,1*52
$GPGSV,2,1,06,04,81,015,43,09,42,311,39,03,38,199,48,26,37,052,43,8*65
$GPGSV,2,2,06,27,16,129,43,08,04,160,49,8*62
$GLGSV,2,1,06,79,81,286,40,69,76,338,41,68,47,140,41,78,37,035,45,1*70
$GLGSV,2,2,06,80,29,227,48,70,12,326,26,1*71
$GAGSV,3,1,09,09,71,099,40,31,60,070,39,24,53,185,45,05,49,312,38,7*74
$GAGSV,3,2,09,04,21,119,43,25,06,208,46,34,04,274,26,15,02,320,20,7*78
$GAGSV,3,3,09,03,01,304,,7*4F
$GAGSV,2,1,07,09,71,099,40,31,60,070,33,24,53,185,43,05,49,312,40,1*7E
$GAGSV,2,2,07,04,21,119,40,25,06,208,39,34,04,274,21,1*48
$GBGSV,3,1,09,19,69,186,44,36,62,243,48,46,62,045,41,57,47,313,,1*7F
$GBGSV,3,2,09,22,46,308,40,20,23,152,48,45,10,236,47,37,09,053,39,1*7F
$GBGSV,3,3,09,58,,,16,1*75
$GBGSV,2,1,07,19,69,186,41,46,62,045,33,36,62,243,42,22,46,308,22,5*77
$GBGSV,2,2,07,20,23,152,40,45,10,236,38,37,09,053,37,5*47
$GNGGA,111002.000,4005.098968,N,10513.208418,W,2,43,0.54,1582.905,M,-20.670,M,,*7C
$GPGSV,3,1,11,04,81,015,38,16,65,093,40,09,42,311,34,48,39,209,47,1*6B
$GPGSV,3,2,11,03,38,199,46,26,37,052,45,31,20,066,41,07,20,264,43,1*6F
$GPGSV,3,3,11,27,16,129,43,08,04,160,49,06,02,289,,1*5A
$GPGSV,2,1,06,04,81,015,43,09,42,311,39,03,38,199,48,26,37,052,43,8*65
$GPGSV,2,2,06,27,16,129,43,08,04,160,49,8*62
$GLGSV,2,1,06,79,81,286,41,69,76,338,41,68,47,140,41,78,37,035,45,1*71
$GLGSV,2,2,06,80,29,227,48,70,12,326,26,1*71
$GAGSV,3,1,09,09,71,099,41,31,60,070,38,24,54,185,45,05,49,312,38,7*73
$GAGSV,3,2,09,04,21,119,43,25,07,209,46,34,04,274,27,15,02,320,21,7*78
$GAGSV,3,3,09,03,01,304,,7*4F
$GAGSV,2,1,07,09,71,099,40,31,60,070,33,24,54,185,43,05,49,312,40,1*79
$GAGSV,2,2,07,04,21,119,40,25,07,209,39,34,04,274,19,1*43
$GBGSV,3,1,09,19,69,186,45,36,62,243,48,46,62,045,41,57,47,313,,1*7E
$GBGSV,3,2,09,22,46,308,39,20,23,152,48,45,10,236,46,37,09,053,39,1*70
$GBGSV,3,3,09,58,,,16,1*75
$GBGSV,2,1,06,19,69,186,41,36,62,243,42,46,62,045,33,20,23,152,40,5*7E
$GBGSV,2,2,06,45,10,236,38,37,09,053,37,5*77
$GNGGA,111007.000,4005.098998,N,10513.208430,W,2,45,0.54,1582.939,M,-20.670,M,,*75
$GPGSV,3,1,11,04,81,015,38,16,65,093,40,09,42,311,35,48,39,209,47,1*6A
$GPGSV,3,2,11,03,38,199,46,26,37,052,45,31,20,066,41,07,20,264,43,1*6F
$GPGSV,3,3,11,27,16,129,43,08,04,160,49,06,02,289,,1*5A
$GPGSV,2,1,06,04,81,015,43,09,42,311,40,03,38,199,48,26,37,052,43,8*6B
$GPGSV,2,2,06,27,16,129,44,08,04,160,49,8*65
$GLGSV,2,1,06,79,81,286,40,69,76,338,41,68,47,140,40,78,37,035,45,1*71
$GLGSV,2,2,06,80,29,227,48,70,12,326,26,1*71
$GAGSV,3,1,09,09,71,099,41,31,60,068,38,24,54,185,45,05,49,312,38,7*7A
$GAGSV,3,2,09,04,21,119,43,25,07,209,45,34,04,274,26,15,02,320,19,7*71
$GAGSV,3,3,09,03,01,304,,7*4F
$GAGSV,2,1,07,09,71,099,40,31,60,068,33,24,54,185,43,05,49,312,40,1*70
$GAGSV,2,2,07,04,21,119,40,25,07,209,39,34,04,274,19,1*43
$GBGSV,3,1,09,19,69,186,45,36,62,243,48,46,62,045,42,57,47,313,,1*7D
$GBGSV,3,2,09,22,46,308,36,20,23,152,49,45,10,236,48,37,09,053,39,1*70
$GBGSV,3,3,09,58,,,17,1*74
$GBGSV,2,1,07,19,69,186,41,46,62,045,33,36,62,243,42,22,46,308,21,5*74
$GBGSV,2,2,07,20,23,152,41,45,10,236,39,37,09,053,37,5*47
$GNGGA,111012.000,4005.099040,N,10513.208424,W,2,44,0.54,1582.982,M,-20.670,M,,*78
$GPGSV,3,1,11,04,81,015,38,16,65,093,40,09,42,311,35,48,39,209,47,1*6A
$GPGSV,3,2,11,03,38,199,47,26,37,052,45,31,20,066,41,07,20,264,43,1*6E
$GPGSV,3,3,11,27,16,129,42,08,04,160,49,06,02,289,,1*5B
$GPGSV,2,1,06,04,81,015,43,09,42,311,40,03,38,199,48,26,37,052,43,8*6B
$GPGSV,2,2,06,27,16,129,44,08,04,160,49,8*65
$GLGSV,2,1,06,79,81,286,40,69,76,338,41,68,47,140,39,78,37,035,45,1*7F
$GLGSV,2,2,06,80,29,227,48,70,12,326,26,1*71
$GAGSV,3,1,09,09,71,099,41,31,60,068,38,24,54,185,45,05,49,312,38,7*7A
$GAGSV,3,2,09,04,21,119,43,25,07,209,45,34,04,274,25,15,02,320,18,7*73
$GAGSV,3,3,09,03,01,304,,7*4F
$GAGSV,2,1,07,09,71,099,40,31,60,068,33,24,54,185,43,05,49,312,40,1*70
$GAGSV,2,2,07,04,21,119,40,25,07,209,41,34,04,274,18,1*4D
$GBGSV,2,1,08,19,69,186,45,36,62,243,48,46,62,045,42,22,46,308,35,1*72
$GBGSV,2,2,08,20,23,152,49,45,10,236,47,37,09,053,39,58,,,16,1*49
$GBGSV,2,1,07,19,69,186,41,46,62,045,33,36,62,243,42,22,46,308,22,5*77
$GBGSV,2,2,07,20,23,152,41,45,10,236,40,37,09,053,37,5*49
$GNGGA,111017.000,4005.099088,N,10513.208460,W,2,44,0.54,1583.119,M,-20.669,M,,*7A
$GPGSV,3,1,11,04,81,015,39,16,65,093,40,09,42,311,35,48,39,209,47,1*6B
$GPGSV,3,2,11,03,38,199,47,26,37,052,45,31,20,066,41,07,20,264,43,1*6E
$GPGSV,3,3,11,27,16,129,42,08,04,160,49,06,02,289,,1*5B
$GPGSV,2,1,06,04,81,015,43,09,42,311,40,03,38,199,48,26,37,052,43,8*6B
$GPGSV,2,2,06,27,16,129,44,08,04,160,49,8*65
$GLGSV,2,1,06,79,81,286,40,69,78,338,40,68,46,142,40,78,37,035,45,1*7D
$GLGSV,2,2,06,80,29,227,48,70,12,326,27,1*70
$GAGSV,3,1,09,09,71,099,41,31,60,068,38,24,54,185,45,05,49,312,38,7*7A
$GAGSV,3,2,09,04,21,119,43,25,07,209,45,34,04,274,25,15,02,320,12,7*79
$GAGSV,3,3,09,03,01,304,,7*4F
$GAGSV,2,1,07,09,71,099,40,31,60,068,33,24,54,185,43,05,49,312,40,1*70
$GAGSV,2,2,07,04,21,119,39,25,07,209,41,34,04,274,17,1*4C
$GBGSV,3,1,09,19,69,186,45,36,62,243,47,46,62,045,42,57,47,313,,1*72
$GBGSV,3,2,09,22,46,308,34,20,23,152,49,45,10,236,48,37,09,053,39,1*72
$GBGSV,3,3,09,58,,,16,1*75
$GBGSV,2,1,07,19,69,186,41,46,62,045,33,36,62,243,42,22,46,308,22,5*77
$GBGSV,2,2,07,20,23,152,41,45,10,236,40,37,09,053,37,5*49
$GNGGA,111022.000,4005.099148,N,10513.208556,W,2,45,0.54,1583.067,M,-20.670,M,,*74
$GPGSV,3,1,11,04,81,015,39,16,65,093,40,09,42,311,35,48,39,209,47,1*6B
$GPGSV,3,2,11,03,38,199,47,26,37,052,45,31,20,066,41,07,20,264,44,1*69
$GPGSV,3,3,11,27,16,129,41,08,04,160,49,06,02,289,,1*58
$GPGSV,2,1,06,04,81,015,43,09,42,311,40,03,38,199,48,26,37,052,43,8*6B
$GPGSV,2,2,06,27,16,129,44,08,04,160,49,8*65
$GLGSV,2,1,06,79,81,286,41,69,78,338,40,68,46,142,41,78,37,035,45,1*7D
$GLGSV,2,2,06,80,29,227,46,70,13,326,27,1*7F
$GAGSV,2,1,08,09,71,099,41,31,60,068,38,24,54,185,45,05,49,312,38,7*7A
$GAGSV,2,2,08,04,21,119,42,25,07,209,44,34,04,274,20,15,02,320,09,7*76
$GAGSV,2,1,07,09,71,099,40,31,60,068,33,24,54,185,43,05,49,312,40,1*70
$GAGSV,2,2,07,04,21,119,39,25,07,209,41,34,04,274,17,1*4C
$GBGSV,3,1,09,19,69,186,45,36,62,243,47,46,62,045,42,57,47,313,,1*72
$GBGSV,3,2,09,22,46,308,36,20,23,152,49,45,10,236,48,37,09,053,39,1*70
$GBGSV,3,3,09,58,,,15,1*76
$GBGSV,2,1,07,19,69,186,41,46,62,045,33,36,62,243,42,22,46,308,24,5*71
$GBGSV,2,2,07,20,23,152,41,45,10,236,40,37,09,053,37,5*49
$GNGGA,111027.000,4005.099208,N,10513.208580,W,2,45,0.54,1582.896,M,-20.670,M,,*7A
$GPGSV,3,1,11,04,81,015,39,16,65,093,40,09,42,311,35,48,39,209,47,1*6B
$GPGSV,3,2,11,03,38,199,47,26,37,052,45,31,20,066,40,07,20,264,44,1*68
$GPGSV,3,3,11,27,16,129,41,08,04,160,49,06,02,289,,1*58
$GPGSV,2,1,06,04,81,015,43,09,42,311,40,03,38,199,48,26,37,052,43,8*6B
$GPGSV,2,2,06,27,16,129,44,08,04,160,50,8*6D
$GLGSV,2,1,06,79,81,296,39,69,78,338,42,68,46,142,42,78,36,035,45,1*73
$GLGSV,2,2,06,80,29,227,45,70,13,326,27,1*7C
$GAGSV,3,1,09,09,71,099,41,31,60,068,39,24,54,185,45,05,49,312,38,7*7B
$GAGSV,3,2,09,04,21,119,42,25,07,209,44,34,04,274,19,15,02,320,13,7*77
$GAGSV,3,3,09,03,01,304,,7*4F
$GAGSV,2,1,07,09,71,099,40,31,60,068,32,24,54,185,43,05,49,312,40,1*71
$GAGSV,2,2,07,04,21,119,39,25,07,209,42,34,04,274,17,1*4F
$GBGSV,2,1,08,19,69,186,45,36,62,243,47,46,62,045,42,22,46,308,37,1*7F
$GBGSV,2,2,08,20,23,152,49,45,10,236,48,37,09,053,39,58,,,16,1*46
$GBGSV,2,1,07,19,69,186,41,46,62,045,32,36,62,243,42,22,46,308,25,5*71
$GBGSV,2,2,07,20,23,152,41,45,10,236,40,37,09,053,37,5*49
$GNGGA,111032.000,4005.099262,N,10513.208592,W,2,45,0.54,1582.871,M,-20.670,M,,*78
$GPGSV,3,1,11,04,81,015,39,16,65,093,40,09,42,311,33,48,39,209,47,1*6D
$GPGSV,3,2,11,03,38,199,47,26,37,052,45,31,20,066,39,07,20,264,44,1*66
$GPGSV,3,3,11,27,16,129,41,08,04,160,48,06,02,289,,1*59
$GPGSV,2,1,06,04,81,015,43,09,42,311,41,03,38,199,48,26,37,052,43,8*6A
$GPGSV,2,2,06,27,16,129,45,08,04,160,50,8*6C
$GLGSV,2,1,06,79,81,296,37,69,78,338,42,68,46,142,42,78,36,035,45,1*7D
$GLGSV,2,2,06,80,30,228,45,70,13,326,28,1*74
$GAGSV,3,1,09,09,71,099,41,31,60,068,39,24,54,185,45,05,49,312,38,7*7B
$GAGSV,3,2,09,04,21,119,42,25,07,209,42,34,04,274,20,15,02,320,16,7*7E
$GAGSV,3,3,09,03,01,304,,7*4F
$GAGSV,2,1,07,09,71,099,40,31,60,068,32,24,54,185,43,05,49,312,40,1*71
$GAGSV,2,2,07,04,21,119,39,25,07,209,42,34,04,274,16,1*4E
$GBGSV,3,1,09,19,69,186,45,36,62,243,47,46,62,045,42,57,47,313,,1*72
$GBGSV,3,2,09,22,46,308,37,20,23,152,49,45,10,236,48,37,09,053,39,1*71
$GBGSV,3,3,09,58,,,16,1*75
$GBGSV,2,1,07,19,69,186,41,46,62,045,32,36,62,243,42,22,46,308,26,5*72
$GBGSV,2,2,07,20,23,152,42,45,10,236,40,37,09,053,37,5*4A
$GNGGA,111037.000,4005.099310,N,10513.208472,W,2,45,0.54,1582.875,M,-20.670,M,,*72
$GPGSV,3,1,11,04,81,015,38,16,65,093,40,09,42,311,30,48,39,209,47,1*6F
$GPGSV,3,2,11,03,38,199,47,26,37,052,45,31,20,066,38,07,20,264,45,1*66
$GPGSV,3,3,11,27,16,129,41,08,04,160,48,06,02,289,,1*59
$GPGSV,2,1,06,04,81,015,43,09,42,311,41,03,38,199,48,26,37,052,43,8*6A
$GPGSV,2,2,06,27,16,129,45,08,04,160,50,8*6C
$GLGSV,2,1,07,79,81,296,39,69,78,338,41,68,46,142,42,78,36,035,45,1*71
$GLGSV,2,2,07,80,30,228,46,70,13,326,28,87,01,029,,1*43
$GAGSV,3,1,09,09,71,099,41,31,60,068,39,24,54,185,45,05,49,312,38,7*7B
$GAGSV,3,2,09,04,21,119,42,25,07,209,42,34,04,274,18,15,02,320,17,7*74
$GAGSV,3,3,09,03,01,304,,7*4F
$GAGSV,2,1,07,09,71,099,40,31,60,068,31,24,54,185,43,05,49,312,40,1*72
$GAGSV,2,2,07,04,21,119,39,25,07,209,42,34,04,274,17,1*4F
$GBGSV,2,1,08,19,69,186,45,36,62,243,47,46,62,045,42,22,46,308,37,1*7F
$GBGSV,2,2,08,20,23,152,49,45,10,236,48,37,09,053,39,58,,,17,1*47
$GBGSV,2,1,07,19,69,186,41,46,62,045,32,36,62,243,42,22,46,308,27,5*73
$GBGSV,2,2,07,20,23,152,42,45,10,236,40,37,09,053,37,5*4A
$GNGGA,111042.000,4005.099418,N,10513.208412,W,2,45,0.54,1582.826,M,-20.670,M,,*7F
$GPGSV,3,1,11,04,81,015,38,16,65,093,41,09,42,311,23,48,39,209,47,1*6C
$GPGSV,3,2,11,03,38,199,47,26,37,052,45,31,20,066,38,07,20,264,45,1*66
$GPGSV,3,3,11,27,16,129,41,08,04,160,47,06,02,289,,1*56
$GPGSV,2,1,06,04,81,015,43,09,42,311,41,03,38,199,48,26,37,052,43,8*6A
$GPGSV,2,2,06,27,16,129,45,08,04,160,50,8*6C
$GLGSV,2,1,07,79,81,296,40,69,78,338,40,68,46,142,44,78,36,035,45,1*78
$GLGSV,2,2,07,80,30,228,46,70,13,326,25,87,01,029,,1*4E
$GAGSV,3,1,09,09,71,099,41,31,60,068,39,24,54,185,45,05,49,312,38,7*7B
$GAGSV,3,2,09,04,21,119,42,25,07,209,41,34,04,274,18,15,02,320,16,7*76
$GAGSV,3,3,09,03,01,304,,7*4F
$GAGSV,2,1,07,09,71,099,40,31,60,068,31,24,54,185,43,05,49,312,40,1*72
$GAGSV,2,2,07,04,21,119,38,25,07,209,42,34,04,274,16,1*4F
$GBGSV,3,1,09,19,69,186,45,36,62,243,47,46,62,045,42,57,47,313,,1*72
$GBGSV,3,2,09,22,46,308,37,20,23,152,49,45,10,236,47,37,09,053,38,1*7F
$GBGSV,3,3,09,58,,,17,1*74
$GBGSV,2,1,07,19,69,186,41,46,62,045,31,36,62,243,42,22,46,308,27,5*70
$GBGSV,2,2,07,20,23,152,42,45,10,236,40,37,09,053,37,5*4A
$GNGGA,111047.000,4005.099544,N,10513.208364,W,2,45,0.54,1582.825,M,-20.670,M,,*77
$GPGSV,3,1,11,04,81,015,38,16,65,093,41,09,42,311,20,48,39,209,47,1*6F
$GPGSV,3,2,11,03,38,199,47,26,37,052,45,07,20,264,45,31,20,066,38,1*66
$GPGSV,3,3,11,27,16,129,41,08,04,160,46,06,02,289,,1*57
$GPGSV,2,1,06,04,81,015,43,09,42,311,41,03,38,199,48,26,37,052,43,8*6A
$GPGSV,2,2,06,27,16,129,45,08,04,160,50,8*6C
$GLGSV,2,1,07,79,81,296,40,69,78,338,39,68,46,142,44,78,36,035,45,1*76
$GLGSV,2,2,07,80,30,228,46,70,13,326,24,87,01,029,,1*4F
$GAGSV,2,1,08,09,71,099,41,31,60,068,39,24,54,185,45,05,49,312,38,7*7B
$GAGSV,2,2,08,04,21,119,42,25,07,209,42,34,04,274,20,15,02,320,15,7*7D
$GAGSV,2,1,07,09,71,099,40,31,60,068,30,24,54,185,43,05,49,312,40,1*73
$GAGSV,2,2,07,04,21,119,38,25,07,209,43,34,04,274,16,1*4E
$GBGSV,3,1,09,19,69,186,45,36,62,243,47,46,62,045,42,57,47,313,,1*72
$GBGSV,3,2,09,22,46,308,36,20,23,152,49,45,10,236,48,37,09,053,38,1*71
$GBGSV,3,3,09,58,,,17,1*74
$GBGSV,2,1,07,19,69,186,41,46,62,045,31,36,62,243,42,22,46,308,28,5*7F
$GBGSV,2,2,07,20,23,152,42,45,10,236,40,37,09,053,37,5*4A
$GNGGA,111052.000,4005.099622,N,10513.208346,W,2,45,0.54,1582.861,M,-20.670,M,,*70
$GPGSV,3,1,11,04,81,015,38,16,65,093,41,09,42,311,25,48,39,209,47,1*6A
$GPGSV,3,2,11,03,38,199,47,26,37,052,45,31,20,066,37,07,20,264,45,1*69
$GPGSV,3,3,11,27,16,129,41,08,04,160,46,06,02,289,,1*57
$GPGSV,2,1,06,04,81,015,43,09,42,311,41,03,38,199,48,26,37,052,43,8*6A
$GPGSV,2,2,06,27,16,129,45,08,04,160,50,8*6C
$GLGSV,2,1,06,79,81,296,40,69,78,338,40,68,46,142,44,78,36,035,45,1*79
$GLGSV,2,2,06,80,30,228,46,70,13,326,24,1*7B
$GAGSV,3,1,09,09,71,099,41,31,60,068,39,24,54,185,45,05,49,312,38,7*7B
$GAGSV,3,2,09,04,21,119,42,25,07,209,39,34,04,274,22,15,02,320,14,7*72
$GAGSV,3,3,09,03,01,304,,7*4F
$GAGSV,2,1,07,09,71,099,40,31,60,068,30,24,54,185,43,05,49,312,40,1*73
$GAGSV,2,2,07,04,21,119,38,25,07,209,43,34,04,274,16,1*4E
$GBGSV,3,1,09,19,69,186,45,36,62,243,47,46,62,045,42,57,47,313,,1*72
$GBGSV,3,2,09,22,46,308,35,20,23,152,49,45,10,236,47,37,09,053,38,1*7D
$GBGSV,3,3,09,58,,,16,1*75
$GBGSV,2,1,07,19,69,186,41,46,62,045,31,36,62,243,42,22,46,308,29,5*7E
$GBGSV,2,2,07,20,23,152,42,45,10,236,41,37,09,053,37,5*4B
$GNGGA,111057.000,4005.099616,N,10513.208346,W,2,45,0.54,1582.912,M,-20.670,M,,*77
$GPGSV,3,1,10,04,81,015,38,16,65,093,41,09,42,311,26,48,39,209,47,1*68
$GPGSV,3,2,10,03,38,199,47,26,37,052,45,07,20,264,45,31,20,066,37,1*68
$GPGSV,3,3,10,27,16,129,40,08,04,160,45,1*63
$GPGSV,2,1,06,04,81,015,43,09,42,311,41,03,38,199,48,26,37,052,43,8*6A
$GPGSV,2,2,06,27,16,129,45,08,04,160,50,8*6C
$GLGSV,2,1,07,79,81,296,40,69,78,338,40,68,46,142,43,78,36,035,45,1*7F
$GLGSV,2,2,07,80,30,228,46,70,13,326,24,87,01,029,,1*4F
$GAGSV,3,1,09,09,71,099,41,31,60,068,39,24,54,185,45,05,49,312,38,7*7B
$GAGSV,3,2,09,04,21,119,42,25,07,209,39,34,04,274,21,15,02,320,10,7*75
$GAGSV,3,3,09,03,01,304,,7*4F
$GAGSV,2,1,07,09,71,099,40,31,60,068,30,24,54,185,43,05,49,312,40,1*73
$GAGSV,2,2,07,04,21,119,38,25,07,209,43,34,04,274,16,1*4E
$GBGSV,3,1,09,19,68,185,45,36,62,243,47,46,62,045,42,57,47,313,,1*70
$GBGSV,3,2,09,22,46,308,32,20,22,152,49,45,10,236,48,37,09,053,38,1*74
$GBGSV,3,3,09,58,,,16,1*75
$GBGSV,2,1,07,19,68,185,41,46,62,045,31,36,62,243,42,22,46,308,29,5*7C
$GBGSV,2,2,07,20,22,152,42,45,10,236,41,37,09,053,37,5*4A
$GNGGA,111102.000,4005.099664,N,10513.208328,W,2,45,0.54,1583.048,M,-20.670,M,,*7C
$GPGSV,3,1,11,04,81,015,39,16,65,093,40,09,42,311,26,48,39,209,47,1*69
$GPGSV,3,2,11,03,38,199,47,26,37,052,45,31,20,066,37,07,20,264,45,1*69
$GPGSV,3,3,11,27,16,129,40,08,04,160,45,06,02,289,,1*55
$GPGSV,2,1,06,04,81,015,43,09,42,311,42,03,38,199,48,26,37,052,43,8*69
$GPGSV,2,2,06,27,16,129,46,08,04,160,51,8*6E
$GLGSV,2,1,07,79,81,296,40,69,78,338,40,68,46,142,43,78,36,035,45,1*7F
$GLGSV,2,2,07,80,30,228,46,70,13,326,25,87,01,029,,1*4E
$GAGSV,3,1,09,09,71,099,41,31,60,068,39,24,54,185,45,05,49,312,38,7*7B
$GAGSV,3,2,09,04,21,119,41,25,07,209,40,34,04,274,21,15,02,320,08,7*71
$GAGSV,3,3,09,03,01,304,,7*4F
$GAGSV,2,1,07,09,71,099,40,31,60,068,30,24,54,185,44,05,49,312,40,1*74
$GAGSV,2,2,07,04,21,119,38,25,07,209,44,34,04,274,16,1*49
$GBGSV,3,1,09,19,68,185,45,46,62,045,42,36,62,243,47,57,47,313,,1*70
$GBGSV,3,2,09,22,47,308,33,20,22,152,49,45,10,236,48,37,09,053,38,1*74
$GBGSV,3,3,09,58,,,17,1*74
$GBGSV,2,1,07,19,68,185,41,46,62,045,31,36,62,243,42,22,47,308,30,5*75
$GBGSV,2,2,07,20,22,152,43,45,10,236,42,37,09,053,37,5*48
