$GNGGA,140637.000,4005.098530,N,10513.209156,W,2,74,0.36,1585.089,M,-20.670,M,,*7D
$GPGSV,4,1,16,07,75,356,36,08,52,077,43,30,47,306,35,09,46,183,48,1*60
$GPGSV,4,2,16,48,39,209,47,14,34,250,42,27,24,045,41,22,15,243,46,1*6C
$GPGSV,4,3,16,04,12,158,50,21,08,118,46,05,07,309,31,13,05,322,24,1*63
$GPGSV,4,4,16,20,05,279,28,02,05,132,46,16,01,057,,17,01,197,,1*6B
$GPGSV,2,1,06,08,52,077,32,30,47,306,40,09,46,183,48,14,34,250,41,8*6A
$GPGSV,2,2,06,27,24,045,38,04,12,158,44,8*69
$GLGSV,3,1,11,80,53,025,38,70,44,229,38,71,41,304,30,73,41,293,36,1*76
$GLGSV,3,2,11,82,29,097,39,81,22,044,39,79,12,067,39,83,12,138,37,1*7F
$GLGSV,3,3,11,72,06,338,35,74,05,269,37,69,01,180,51,1*49
$GAGSV,3,1,11,25,63,264,42,05,57,191,43,24,56,044,35,03,51,296,39,7*7F
$GAGSV,3,2,11,02,13,245,40,09,11,158,44,12,08,093,26,31,08,058,34,7*75
$GAGSV,3,3,11,08,08,323,31,10,05,115,40,33,05,043,27,7*41
$GAGSV,3,1,11,25,63,264,37,05,57,191,45,24,56,044,28,03,51,296,33,1*7B
$GAGSV,3,2,11,02,13,245,39,09,11,158,35,31,08,058,33,12,08,093,28,1*72
$GAGSV,3,3,11,08,08,323,32,10,05,115,41,33,05,043,27,1*45
$GBGSV,4,1,14,45,62,308,37,57,52,182,,36,51,064,43,21,36,272,44,1*77
$GBGSV,4,2,14,30,34,080,46,29,28,145,48,22,26,211,51,26,13,277,45,1*71
$GBGSV,4,3,14,42,12,322,34,27,08,036,40,08,07,336,30,46,05,084,40,1*7C
$GBGSV,4,4,14,38,05,324,27,13,02,348,21,1*71
$GBGSV,3,1,11,45,62,308,40,36,51,064,38,21,36,272,36,30,34,080,32,5*7B
$GBGSV,3,2,11,29,28,145,40,22,26,211,38,26,13,277,38,42,12,322,29,5*79
$GBGSV,3,3,11,27,08,036,30,38,05,324,21,46,05,084,32,5*4B
$PAIR001,062,0*3F
$PAIR001,062,0*3F
$PAIR001,062,0*3F
$PAIR001,062,0*3F
$PAIR001,062,0*3F
$PAIR001,062,0*3F
$PAIR001,062,0*3F
$PAIR001,062,0*3F
$PAIR001,062,0*3F
$GNGGA,140642.000,4005.098524,N,10513.209180,W,2,74,0.36,1585.142,M,-20.670,M,,*77
$GPGSV,4,1,16,07,75,356,40,08,52,077,43,30,47,306,34,09,46,183,48,1*60
$GPGSV,4,2,16,48,39,209,47,14,34,250,43,27,24,045,41,22,15,243,46,1*6D
$GPGSV,4,3,16,04,12,158,50,21,08,118,46,05,07,309,32,13,05,322,28,1*6C
$GPGSV,4,4,16,20,05,279,29,02,05,132,47,16,01,057,,17,01,197,22,1*6B
$GPGSV,2,1,06,08,52,077,37,30,47,306,41,09,46,183,48,14,34,250,42,8*6D
$GPGSV,2,2,06,27,24,045,41,04,12,158,45,8*66
$GLGSV,3,1,11,80,53,025,37,70,44,229,37,71,41,304,29,73,41,293,36,1*7E
$GLGSV,3,2,11,82,29,097,40,81,22,044,38,79,12,067,39,83,12,138,37,1*70
$GLGSV,3,3,11,72,06,338,35,74,05,269,36,69,01,180,51,1*48
$GAGSV,3,1,11,25,63,264,42,05,57,191,43,24,56,044,36,03,51,296,39,7*7C
$GAGSV,3,2,11,02,13,245,40,09,11,158,44,12,08,093,21,31,08,058,34,7*72
$GAGSV,3,3,11,08,08,323,33,10,05,115,40,33,05,043,28,7*4C
$GAGSV,3,1,11,25,63,264,36,05,57,191,46,24,56,044,27,03,51,296,35,1*70
$GAGSV,3,2,11,02,13,245,38,09,11,158,37,31,08,058,34,12,08,093,20,1*7E
$GAGSV,3,3,11,08,08,323,34,10,05,115,42,33,05,043,27,1*40
$GBGSV,4,1,14,45,62,308,39,57,52,182,,36,50,065,44,21,36,272,43,1*79
$GBGSV,4,2,14,30,34,080,46,29,28,145,47,22,26,211,51,26,13,277,45,1*7E
$GBGSV,4,3,14,42,12,322,29,27,08,036,41,08,07,336,33,46,05,084,39,1*7C
$GBGSV,4,4,14,38,05,324,29,13,02,348,20,1*7E
$GBGSV,3,1,11,45,62,308,39,36,50,065,33,21,36,272,38,30,34,080,32,5*70
$GBGSV,3,2,11,29,28,145,41,22,26,211,39,26,13,277,40,42,12,322,30,5*7E
$GBGSV,3,3,11,27,08,036,32,38,05,324,21,46,05,084,31,5*4A
$GNGGA,140647.000,4005.098542,N,10513.209180,W,2,74,0.36,1585.259,M,-20.670,M,,*7B
$GPGSV,4,1,16,07,75,356,40,08,52,077,43,30,47,306,33,09,46,183,48,1*67
$GPGSV,4,2,16,48,39,209,47,14,34,250,43,27,24,045,41,22,15,243,46,1*6D
$GPGSV,4,3,16,04,12,158,50,21,08,118,46,05,07,309,35,13,05,322,28,1*6B
$GPGSV,4,4,16,20,05,279,29,02,05,132,47,16,01,057,,17,01,197,23,1*6A
$GPGSV,2,1,06,08,52,077,36,30,47,306,41,09,46,183,48,14,34,250,44,8*6A
$GPGSV,2,2,06,27,24,045,43,04,12,158,46,8*67
$GLGSV,3,1,11,80,53,025,37,70,44,229,37,71,41,304,34,73,41,293,37,1*73
$GLGSV,3,2,11,82,29,097,41,81,22,044,38,79,12,067,40,83,12,138,37,1*7F
$GLGSV,3,3,11,72,06,338,38,74,05,269,36,69,01,180,51,1*45
$GAGSV,3,1,11,25,63,264,42,05,57,191,43,24,56,044,36,03,51,296,38,7*7D
$GAGSV,3,2,11,02,13,245,40,09,11,158,44,12,08,093,24,31,08,058,33,7*70
$GAGSV,3,3,11,08,08,323,34,10,05,115,39,33,05,043,29,7*44
$GAGSV,3,1,11,25,63,264,36,05,57,191,47,24,56,044,28,03,51,296,37,1*7C
$GAGSV,3,2,11,02,13,245,40,09,11,158,38,31,08,058,36,12,08,093,24,1*78
$GAGSV,3,3,11,08,08,323,34,10,05,115,42,33,05,043,29,1*4E
$GBGSV,4,1,14,45,62,308,39,57,52,182,,36,50,065,43,21,36,272,43,1*7E
$GBGSV,4,2,14,30,34,080,46,29,28,145,47,22,26,211,51,26,13,277,45,1*7E
$GBGSV,4,3,14,42,12,322,32,27,08,036,41,08,07,336,34,46,05,084,39,1*71
$GBGSV,4,4,14,38,05,323,30,13,02,348,19,1*7B
$GBGSV,3,1,11,45,62,308,39,36,50,065,31,21,36,272,41,30,34,080,32,5*7C
$GBGSV,3,2,11,29,28,145,41,22,26,211,40,26,13,277,40,42,12,322,34,5*74
$GBGSV,3,3,11,27,08,036,31,38,05,323,22,46,05,084,31,5*4D
$GNGGA,140652.000,4005.098566,N,10513.209108,W,2,74,0.36,1585.384,M,-20.670,M,,*78
$GPGSV,4,1,16,07,75,356,39,08,52,077,43,30,47,306,38,09,46,183,48,1*62
$GPGSV,4,2,16,48,39,209,47,14,34,250,42,27,24,045,42,22,15,243,46,1*6F
$GPGSV,4,3,16,04,12,158,50,21,08,118,46,05,07,309,34,13,05,322,28,1*6A
$GPGSV,4,4,16,20,05,279,21,02,05,132,47,16,01,057,,17,01,197,26,1*67
$GPGSV,2,1,06,08,52,077,38,30,47,306,40,09,46,183,48,14,34,250,41,8*60
$GPGSV,2,2,06,27,24,045,41,04,12,158,45,8*66
$GLGSV,3,1,11,80,53,025,37,70,44,229,38,71,41,304,32,73,41,293,37,1*7A
$GLGSV,3,2,11,82,29,097,40,81,22,044,37,79,12,067,41,83,12,138,37,1*70
$GLGSV,3,3,11,72,06,338,36,74,05,269,38,69,01,180,51,1*45
$GAGSV,3,1,11,25,63,264,41,05,57,191,43,24,56,044,34,03,51,296,38,7*7C
$GAGSV,3,2,11,02,13,245,40,09,11,158,43,12,08,093,18,31,08,058,33,7*78
$GAGSV,3,3,11,08,08,323,33,10,05,115,41,33,05,043,29,7*4C
$GAGSV,3,1,11,25,63,264,36,05,57,191,46,24,56,044,29,03,51,296,37,1*7C
$GAGSV,3,2,11,02,13,245,38,09,11,158,36,31,08,058,34,12,08,093,34,1*7A
$GAGSV,3,3,11,08,08,323,33,10,05,115,41,33,05,043,28,1*4B
$GBGSV,4,1,14,45,63,310,40,57,52,182,,36,50,065,43,21,36,272,43,1*78
$GBGSV,4,2,14,30,34,080,45,29,28,145,48,22,26,211,51,26,13,277,44,1*73
$GBGSV,4,3,14,42,13,321,33,27,08,036,41,08,07,336,35,38,05,323,31,1*7C
$GBGSV,4,4,14,46,04,085,41,13,02,348,19,1*7A
$GBGSV,3,1,11,45,63,310,38,36,50,065,34,21,36,272,38,30,34,080,26,5*7B
$GBGSV,3,2,11,29,28,145,40,22,26,211,39,42,13,321,32,26,13,277,39,5*71
$GBGSV,3,3,11,27,08,036,31,38,05,323,21,46,04,085,32,5*4D
$GNGGA,140657.000,4005.098560,N,10513.209066,W,2,72,0.36,1585.406,M,-20.670,M,,*79
$GPGSV,4,1,16,07,75,356,41,08,52,077,44,30,47,306,36,09,46,183,48,1*64
$GPGSV,4,2,16,48,39,209,47,14,34,250,41,27,24,045,42,22,15,243,46,1*6C
$GPGSV,4,3,16,04,12,158,50,21,08,118,46,05,07,309,33,13,05,322,30,1*64
$GPGSV,4,4,16,20,05,279,29,02,05,132,47,16,01,057,,17,01,197,28,1*61
$GPGSV,2,1,06,08,52,077,37,30,47,306,40,09,46,183,48,14,34,250,40,8*6E
$GPGSV,2,2,06,27,24,045,41,04,12,158,44,8*67
$GLGSV,3,1,11,80,53,025,36,70,44,229,38,71,41,304,31,73,41,293,37,1*78
$GLGSV,3,2,11,82,29,097,39,81,22,044,37,79,12,067,41,83,12,138,37,1*7E
$GLGSV,3,3,11,72,06,338,37,74,05,269,38,69,01,180,51,1*44
$GAGSV,3,1,11,25,63,264,41,05,57,191,43,24,56,044,33,03,51,296,39,7*7A
$GAGSV,3,2,11,02,13,245,40,09,11,158,43,12,08,093,19,31,08,058,33,7*79
$GAGSV,3,3,11,08,08,323,33,10,05,115,41,33,05,043,27,7*42
$GAGSV,3,1,11,25,63,264,36,05,57,191,46,24,56,044,30,03,51,296,37,1*74
$GAGSV,3,2,11,02,13,245,39,09,11,158,37,31,08,058,34,12,08,093,28,1*77
$GAGSV,3,3,11,08,08,323,34,10,05,115,41,33,05,043,26,1*42
$GBGSV,4,1,14,45,63,310,40,57,52,182,,36,50,065,43,21,36,272,43,1*78
$GBGSV,4,2,14,30,34,080,45,29,28,145,48,22,26,211,51,26,13,277,43,1*74
$GBGSV,4,3,14,42,13,321,34,27,08,036,41,08,07,336,34,38,05,323,32,1*79
$GBGSV,4,4,14,46,04,085,41,13,02,348,18,1*7B
$GBGSV,3,1,11,45,63,310,38,36,50,065,34,21,36,272,39,30,34,080,35,5*78
$GBGSV,3,2,11,29,28,145,41,22,26,211,38,42,13,321,35,26,13,277,40,5*78
$GBGSV,3,3,11,27,08,036,31,38,05,323,23,46,04,085,30,5*4D
$GNGGA,140702.000,4005.098554,N,10513.208988,W,2,72,0.36,1585.319,M,-20.670,M,,*7E
$GPGSV,4,1,16,07,75,356,40,08,52,077,42,30,47,306,33,09,46,183,48,1*66
$GPGSV,4,2,16,48,39,209,47,14,34,250,40,27,24,045,42,22,15,243,46,1*6D
$GPGSV,4,3,16,04,12,158,49,21,08,118,46,05,07,309,34,13,05,322,31,1*6A
$GPGSV,4,4,16,20,05,279,31,02,05,132,47,16,01,057,,17,01,197,29,1*69
$GPGSV,2,1,06,08,52,077,39,30,47,306,38,09,46,183,48,14,34,250,42,8*6D
$GPGSV,2,2,06,27,24,045,39,04,12,158,44,8*68
$GLGSV,3,1,11,80,53,025,37,70,44,229,39,71,41,304,39,73,41,293,38,1*7F
$GLGSV,3,2,11,82,29,097,38,81,22,044,37,79,12,067,42,83,12,138,36,1*7D
$GLGSV,3,3,11,72,06,338,35,74,05,269,37,69,01,180,50,1*48
$GAGSV,3,1,11,25,63,264,42,05,57,191,43,24,56,044,31,03,51,296,37,7*75
$GAGSV,3,2,11,02,13,245,41,09,11,158,43,12,08,093,18,31,08,058,33,7*79
$GAGSV,3,3,11,08,08,323,33,10,05,115,41,33,05,043,27,7*42
$GAGSV,3,1,11,25,63,264,35,05,57,191,46,24,56,044,33,03,51,296,38,1*7B
$GAGSV,3,2,11,02,13,245,40,09,11,158,36,31,08,058,34,12,08,093,33,1*72
$GAGSV,3,3,11,08,08,323,34,10,05,115,40,33,05,043,29,1*4C
$GBGSV,4,1,14,45,63,310,39,57,52,182,,36,50,065,43,21,36,272,43,1*76
$GBGSV,4,2,14,30,34,080,45,29,28,145,48,22,26,211,51,26,13,277,44,1*73
$GBGSV,4,3,14,42,13,321,32,27,08,036,41,08,07,336,32,38,05,323,32,1*79
$GBGSV,4,4,14,46,04,085,41,13,02,348,18,1*7B
$GBGSV,3,1,11,45,63,310,39,36,50,065,38,21,36,272,39,30,34,080,32,5*72
$GBGSV,3,2,11,29,28,145,41,22,26,211,37,42,13,321,36,26,13,277,40,5*74
$GBGSV,3,3,11,27,08,036,33,38,05,323,23,46,04,085,33,5*4C
$GNGGA,140707.000,4005.098548,N,10513.208934,W,2,72,0.36,1585.099,M,-20.670,M,,*7A
$GPGSV,4,1,16,07,75,356,40,08,52,077,42,30,47,306,33,09,46,183,48,1*66
$GPGSV,4,2,16,48,39,209,47,14,34,250,39,27,24,045,40,22,15,243,46,1*61
$GPGSV,4,3,16,04,12,158,49,21,08,118,46,05,07,309,31,13,05,322,31,1*6F
$GPGSV,4,4,16,20,05,279,31,02,05,132,48,16,01,057,,17,01,197,31,1*6F
$GPGSV,2,1,06,08,52,077,40,30,47,306,39,09,46,183,48,14,34,250,41,8*61
$GPGSV,2,2,06,27,24,045,37,04,12,158,44,8*66
$GLGSV,3,1,11,80,53,025,39,70,44,229,39,71,41,304,26,73,41,293,36,1*71
$GLGSV,3,2,11,82,29,097,37,81,22,044,36,79,12,067,41,83,12,138,36,1*70
$GLGSV,3,3,11,72,06,338,38,74,05,269,37,69,01,180,51,1*44
$GAGSV,3,1,11,25,63,264,42,05,57,191,43,24,56,044,30,03,51,296,37,7*74
$GAGSV,3,2,11,02,13,245,41,09,11,158,42,12,08,093,18,31,08,058,33,7*78
$GAGSV,3,3,11,08,08,323,35,10,05,115,41,33,05,043,27,7*44
$GAGSV,3,1,11,25,63,264,34,05,57,191,45,24,56,044,34,03,51,296,38,1*7E
$GAGSV,3,2,11,02,13,245,39,09,11,158,35,31,08,058,34,12,08,093,33,1*7F
$GAGSV,3,3,11,08,08,323,30,10,05,115,40,33,05,043,29,1*48
$GBGSV,4,1,14,45,63,310,38,57,51,182,,36,50,065,43,21,36,272,43,1*74
$GBGSV,4,2,14,30,34,080,46,29,28,145,48,22,26,211,51,26,13,277,43,1*77
$GBGSV,4,3,14,42,13,321,33,27,08,036,40,08,07,336,34,38,05,323,31,1*7C
$GBGSV,4,4,14,46,04,085,42,13,02,348,19,1*79
$GBGSV,3,1,11,45,63,310,39,36,50,065,38,21,36,272,39,30,34,080,33,5*73
$GBGSV,3,2,11,29,28,145,41,22,26,211,38,42,13,321,37,26,13,277,40,5*7A
$GBGSV,3,3,11,27,08,036,33,38,05,323,21,46,04,085,33,5*4E
$GNGGA,140712.000,4005.098542,N,10513.208988,W,2,72,0.36,1585.015,M,-20.670,M,,*77
$GPGSV,4,1,16,07,75,356,41,08,52,077,43,30,47,306,32,09,46,183,49,1*66
$GPGSV,4,2,16,48,39,209,47,14,34,250,40,27,24,045,40,22,15,243,45,1*6C
$GPGSV,4,3,16,04,12,158,48,21,08,118,46,05,07,309,37,20,05,279,34,1*62
$GPGSV,4,4,16,13,05,322,29,02,05,131,48,16,01,057,,17,01,197,32,1*69
$GPGSV,2,1,06,08,52,077,37,30,47,306,38,09,46,183,48,14,34,250,40,8*61
$GPGSV,2,2,06,27,24,045,38,04,12,158,43,8*6E
$GLGSV,3,1,11,80,53,025,40,70,44,229,39,71,41,304,25,73,41,293,36,1*7C
$GLGSV,3,2,11,82,29,097,38,81,22,044,37,83,12,138,37,79,12,067,41,1*7F
$GLGSV,3,3,11,72,06,338,37,74,05,269,38,69,01,180,51,1*44
$GAGSV,3,1,11,25,63,264,42,05,57,191,43,24,56,044,31,03,51,296,37,7*75
$GAGSV,3,2,11,02,13,245,41,09,11,158,42,12,08,093,19,31,08,058,32,7*78
$GAGSV,3,3,11,08,08,323,35,10,05,115,41,33,05,043,27,7*44
$GAGSV,3,1,11,25,63,264,35,05,57,191,45,24,56,044,30,03,51,296,36,1*75
$GAGSV,3,2,11,02,13,245,36,09,11,158,34,31,08,058,33,12,08,093,30,1*75
$GAGSV,3,3,11,08,08,323,29,10,05,115,39,33,05,043,28,1*4F
$GBGSV,4,1,15,45,63,310,38,57,51,182,,36,50,065,44,21,36,272,43,1*72
$GBGSV,4,2,15,30,34,080,46,29,28,145,48,22,26,211,51,26,13,277,43,1*76
$GBGSV,4,3,15,42,13,321,36,27,08,036,40,08,07,336,33,38,05,323,30,1*7E
$GBGSV,4,4,15,46,04,085,42,13,02,348,18,58,,,28,1*7E
$GBGSV,3,1,11,45,63,310,39,36,50,065,36,21,36,272,37,30,34,080,31,5*71
$GBGSV,3,2,11,29,28,145,40,22,26,211,37,42,13,321,35,26,13,277,38,5*79
$GBGSV,3,3,11,27,08,036,30,38,05,323,18,46,04,085,30,5*44
$GNGGA,140717.000,4005.098560,N,10513.209036,W,2,72,0.36,1584.899,M,-20.669,M,,*7A
$GPGSV,4,1,16,07,75,000,41,08,52,075,43,30,47,306,40,09,46,183,49,1*61
$GPGSV,4,2,16,48,39,209,47,14,34,250,40,27,24,045,41,22,15,243,46,1*6E
$GPGSV,4,3,16,04,11,158,48,21,08,118,47,05,07,308,34,20,05,279,35,1*63
$GPGSV,4,4,16,13,05,322,31,02,05,131,48,16,01,057,,17,01,197,35,1*67
$GPGSV,2,1,06,08,52,075,39,30,47,306,40,09,46,183,48,14,34,250,41,8*63
$GPGSV,2,2,06,27,24,045,37,04,11,158,43,8*62
$GLGSV,3,1,11,80,53,025,39,70,44,229,39,71,41,304,25,73,41,293,36,1*72
$GLGSV,3,2,11,82,29,097,38,81,22,044,37,83,12,138,36,79,12,067,40,1*7F
$GLGSV,3,3,11,72,06,338,36,74,05,269,39,69,01,180,51,1*44
$GAGSV,3,1,11,25,63,264,42,05,57,191,42,24,56,044,29,03,51,296,39,7*73
$GAGSV,3,2,11,02,13,245,41,09,11,158,42,12,08,093,17,31,08,058,32,7*76
$GAGSV,3,3,11,08,08,323,34,10,05,115,42,33,05,043,27,7*46
$GAGSV,3,1,11,25,63,264,34,05,57,191,45,24,56,044,33,03,51,296,36,1*77
$GAGSV,3,2,11,02,13,245,35,09,11,158,35,31,08,058,33,12,08,093,31,1*76
$GAGSV,3,3,11,08,08,323,31,10,05,115,39,33,05,043,28,1*46
$GBGSV,4,1,15,45,63,310,38,57,51,182,,36,50,065,44,21,36,272,43,1*72
$GBGSV,4,2,15,30,34,080,46,29,28,145,48,22,26,211,51,26,13,277,43,1*76
$GBGSV,4,3,15,42,13,321,32,27,08,036,40,08,07,336,33,38,05,323,30,1*7A
$GBGSV,4,4,15,46,04,085,43,13,02,348,19,58,,,13,1*76
$GBGSV,3,1,11,45,63,310,39,36,50,065,37,21,36,272,37,30,34,080,32,5*73
$GBGSV,3,2,11,29,28,145,41,22,26,211,36,42,13,321,35,26,13,277,39,5*78
$GBGSV,3,3,11,27,08,036,32,38,05,323,18,46,04,085,31,5*47
$GNGGA,140722.000,4005.098590,N,10513.209024,W,2,72,0.36,1584.837,M,-20.670,M,,*7C
$GPGSV,4,1,16,07,75,000,40,08,52,075,43,30,47,306,38,09,45,183,49,1*6C
$GPGSV,4,2,16,48,39,209,47,14,34,250,41,27,24,045,41,22,15,243,45,1*6C
$GPGSV,4,3,16,04,11,158,48,21,08,118,47,05,07,308,38,13,06,322,31,1*67
$GPGSV,4,4,16,20,05,279,35,02,05,131,48,16,01,057,,17,01,197,36,1*6F
$GPGSV,2,1,06,08,52,075,41,30,47,306,39,09,45,183,48,14,34,250,41,8*61
$GPGSV,2,2,06,27,24,045,38,04,11,158,43,8*6D
$GLGSV,3,1,11,80,53,025,39,70,44,229,38,71,41,304,35,73,41,293,37,1*73
$GLGSV,3,2,11,82,29,097,37,81,22,044,39,83,12,138,35,79,12,067,38,1*72
$GLGSV,3,3,11,72,06,338,35,74,05,269,39,69,01,180,51,1*47
$GAGSV,3,1,11,25,63,264,41,05,57,191,42,24,56,044,32,03,51,296,39,7*7A
$GAGSV,3,2,11,02,13,245,42,09,11,158,42,12,08,093,21,31,08,058,30,7*72
$GAGSV,3,3,11,08,08,323,34,10,05,115,43,33,05,043,26,7*46
$GAGSV,3,1,11,25,63,264,37,05,57,191,45,24,56,044,27,03,51,296,37,1*70
$GAGSV,3,2,11,02,13,245,37,09,11,158,36,31,08,058,34,12,08,093,32,1*73
$GAGSV,3,3,11,08,08,323,37,10,05,115,40,33,05,043,30,1*47
$GBGSV,4,1,15,45,63,310,40,57,51,182,,36,50,065,43,21,36,272,44,1*7D
$GBGSV,4,2,15,30,34,080,46,29,28,145,48,22,26,211,51,26,13,277,43,1*76
$GBGSV,4,3,15,42,13,321,34,27,08,036,39,08,07,336,26,38,05,323,31,1*77
$GBGSV,4,4,15,46,04,085,43,13,02,348,20,63,,,27,1*73
$GBGSV,3,1,11,45,63,310,39,36,50,065,37,21,36,272,37,30,34,080,32,5*73
$GBGSV,3,2,11,29,28,145,42,22,26,211,33,42,13,321,30,26,13,277,39,5*7B
$GBGSV,3,3,11,27,08,036,33,38,05,323,20,46,04,085,30,5*4C
$GNGGA,140727.000,4005.098596,N,10513.208976,W,2,72,0.36,1584.965,M,-20.670,M,,*76
$GPGSV,4,1,15,07,75,000,39,08,52,075,44,30,47,306,40,09,45,183,49,1*69
$GPGSV,4,2,15,48,39,209,47,14,35,251,41,27,24,045,40,22,15,243,45,1*6E
$GPGSV,4,3,15,04,11,158,47,21,08,118,47,05,07,308,38,13,06,322,29,1*62
$GPGSV,4,4,15,02,05,131,49,20,05,279,35,17,02,197,38,1*54
$GPGSV,2,1,06,08,52,075,40,30,47,306,39,09,45,183,48,14,35,251,41,8*60
$GPGSV,2,2,06,27,24,045,38,04,11,158,40,8*6E
$GLGSV,3,1,11,80,53,025,38,70,44,229,38,73,41,293,38,71,41,304,35,1*7D
$GLGSV,3,2,11,82,29,097,37,81,22,044,38,79,12,067,38,83,12,138,36,1*70
$GLGSV,3,3,11,72,06,338,36,74,05,269,38,69,01,180,51,1*45
$GAGSV,3,1,11,25,63,264,40,05,57,191,43,24,56,044,35,03,51,296,41,7*72
$GAGSV,3,2,11,02,13,245,41,09,11,158,40,31,08,058,30,12,08,093,25,7*77
$GAGSV,3,3,11,08,08,323,33,33,05,043,28,10,05,115,43,7*4F
$GAGSV,3,1,11,25,63,264,37,05,57,191,44,24,56,044,20,03,51,296,30,1*71
$GAGSV,3,2,11,02,13,245,37,09,11,158,32,31,08,058,35,12,08,093,20,1*75
$GAGSV,3,3,11,08,08,323,21,10,05,115,41,33,05,043,30,1*41
$GBGSV,4,1,15,45,63,310,40,57,51,182,,36,50,065,42,21,36,272,43,1*7B
$GBGSV,4,2,15,30,34,080,46,29,28,145,48,22,26,211,51,42,13,321,33,1*71
$GBGSV,4,3,15,26,13,277,44,27,08,036,39,08,07,336,32,38,05,323,30,1*74
$GBGSV,4,4,15,46,04,085,43,13,02,348,20,63,,,28,1*7C
$GBGSV,3,1,11,45,63,310,37,36,50,065,34,21,36,272,37,30,34,080,35,5*79
$GBGSV,3,2,11,29,28,145,43,22,26,211,35,42,13,321,37,26,13,277,39,5*7B
$GBGSV,3,3,11,27,08,036,35,38,05,323,19,46,04,085,22,5*43
$GNGGA,140732.000,4005.098602,N,10513.208982,W,2,72,0.36,1584.996,M,-20.670,M,,*7B
$GPGSV,4,1,15,07,75,000,39,08,52,075,43,30,47,306,38,09,45,183,49,1*61
$GPGSV,4,2,15,48,39,209,47,14,35,251,41,27,24,045,40,22,16,243,44,1*6C
$GPGSV,4,3,15,04,11,158,47,21,09,117,48,05,07,308,36,13,06,322,27,1*63
$GPGSV,4,4,15,02,05,131,50,20,05,278,36,17,02,197,40,1*51
$GPGSV,2,1,06,08,52,075,39,30,47,306,38,09,45,183,48,14,35,251,41,8*6F
$GPGSV,2,2,06,27,24,045,38,04,11,158,40,8*6E
$GLGSV,3,1,11,80,53,025,36,70,44,229,38,73,41,293,27,71,41,304,23,1*7A
$GLGSV,3,2,11,82,29,097,37,81,22,044,38,79,12,067,40,83,12,138,35,1*7C
$GLGSV,3,3,11,72,06,338,36,74,05,269,38,69,01,180,51,1*45
$GAGSV,3,1,11,25,63,264,40,05,57,191,44,24,56,044,35,03,51,296,41,7*75
$GAGSV,3,2,11,02,13,245,42,09,11,158,39,31,08,058,31,12,08,093,29,7*77
$GAGSV,3,3,11,08,08,323,32,33,05,043,29,10,05,115,44,7*48
$GAGSV,3,1,11,25,63,264,36,05,57,191,44,24,56,044,24,03,51,296,32,1*76
$GAGSV,3,2,11,02,13,245,37,09,11,158,33,31,08,058,33,12,08,093,29,1*7B
$GAGSV,3,3,11,08,08,323,24,10,05,115,40,33,05,043,29,1*4D
$GBGSV,4,1,14,45,63,310,40,57,51,182,,36,50,065,43,21,36,272,43,1*7B
$GBGSV,4,2,14,30,34,080,46,29,28,145,48,22,26,211,51,42,13,321,34,1*77
$GBGSV,4,3,14,26,13,277,44,27,08,036,38,08,07,336,32,38,05,323,31,1*75
$GBGSV,4,4,14,46,04,085,43,13,02,348,21,1*73
$GBGSV,3,1,11,45,63,310,37,36,50,065,35,21,36,272,36,30,34,080,31,5*7D
$GBGSV,3,2,11,29,28,145,41,22,26,211,33,42,13,321,37,26,13,277,38,5*7E
$GBGSV,3,3,11,27,08,036,33,38,05,323,17,46,04,085,24,5*4D
$GNGGA,140737.000,4005.098590,N,10513.208952,W,2,72,0.36,1585.207,M,-20.670,M,,*79
$GPGSV,4,1,15,07,75,000,37,08,52,075,43,30,47,306,40,09,45,183,49,1*60
$GPGSV,4,2,15,48,39,209,47,14,35,251,39,27,23,045,40,22,16,243,44,1*64
$GPGSV,4,3,15,04,11,158,47,21,09,117,47,05,07,308,33,13,06,322,27,1*69
$GPGSV,4,4,15,02,05,131,50,20,05,278,37,17,02,197,40,1*50
$GPGSV,2,1,06,08,52,075,37,30,47,306,39,09,45,183,48,14,35,251,40,8*61
$GPGSV,2,2,06,27,23,045,37,04,11,158,38,8*69
$GLGSV,3,1,11,80,53,025,40,70,44,229,38,73,41,293,30,71,41,304,23,1*7D
$GLGSV,3,2,11,82,29,097,37,81,22,044,39,79,12,067,42,83,12,138,35,1*7F
$GLGSV,3,3,11,72,06,338,36,74,05,269,39,69,01,180,51,1*44
$GAGSV,3,1,11,25,63,264,40,05,57,191,44,24,56,044,33,03,51,296,41,7*73
$GAGSV,3,2,11,02,13,245,42,09,11,158,40,31,08,058,30,12,08,093,27,7*76
$GAGSV,3,3,11,08,08,323,32,33,05,043,27,10,05,115,44,7*46
$GAGSV,3,1,11,25,63,264,36,05,57,191,44,24,56,044,31,03,51,296,34,1*74
$GAGSV,3,2,11,02,13,245,36,09,11,158,33,31,08,058,35,12,08,093,30,1*74
$GAGSV,3,3,11,08,08,323,26,10,05,115,39,33,05,043,30,1*49
$GBGSV,4,1,13,45,63,310,40,36,50,065,44,21,36,272,43,30,34,080,45,1*7B
$GBGSV,4,2,13,29,28,145,48,22,26,211,51,42,13,321,34,26,13,277,44,1*7A
$GBGSV,4,3,13,27,08,036,37,08,07,336,32,38,05,323,31,46,04,085,43,1*75
$GBGSV,4,4,13,13,02,348,21,1*48
$GBGSV,3,1,11,45,63,310,39,36,50,065,37,21,36,272,35,30,34,080,30,5*73
$GBGSV,3,2,11,29,28,145,40,22,26,211,33,42,13,321,36,26,13,277,37,5*71
$GBGSV,3,3,11,27,08,036,31,38,05,323,19,46,04,085,29,5*4C
$GNGGA,140742.000,4005.098536,N,10513.208970,W,2,72,0.36,1585.302,M,-20.670,M,,*73
$GPGSV,4,1,15,07,75,000,36,08,52,075,43,30,48,307,40,09,45,183,49,1*6F
$GPGSV,4,2,15,48,39,209,47,14,35,251,38,27,23,045,39,22,16,243,43,1*6C
$GPGSV,4,3,15,04,11,158,47,21,09,117,47,05,07,308,31,13,06,322,28,1*64
$GPGSV,4,4,15,02,05,131,50,20,05,278,35,17,02,197,40,1*52
$GPGSV,2,1,06,08,52,075,35,30,48,307,40,09,45,183,48,14,35,251,41,8*62
$GPGSV,2,2,06,27,23,045,37,04,11,158,42,8*64
$GLGSV,3,1,11,80,53,025,41,70,44,229,38,73,41,293,33,71,41,304,25,1*79
$GLGSV,3,2,11,82,29,097,37,81,22,044,37,79,12,067,42,83,12,138,35,1*71
$GLGSV,3,3,11,72,06,338,37,74,05,269,39,69,01,180,51,1*45
$GAGSV,3,1,11,25,63,264,40,05,57,191,43,24,56,044,33,03,51,296,40,7*75
$GAGSV,3,2,11,02,13,245,42,09,11,158,43,31,08,058,30,12,08,093,25,7*77
$GAGSV,3,3,11,08,08,323,31,33,05,043,23,10,05,115,43,7*46
$GAGSV,3,1,11,25,63,264,37,05,57,191,45,24,56,044,32,03,51,296,35,1*76
$GAGSV,3,2,11,02,13,245,37,09,11,158,38,31,08,058,36,12,08,093,31,1*7C
$GAGSV,3,3,11,08,08,323,27,10,05,115,40,33,05,043,32,1*44
$GBGSV,4,1,14,45,63,310,41,57,51,182,,36,50,065,44,21,36,272,43,1*7D
$GBGSV,4,2,14,30,34,080,45,29,28,145,47,22,26,211,51,42,13,321,36,1*79
$GBGSV,4,3,14,26,13,277,43,27,08,036,37,08,07,336,33,38,05,323,31,1*7C
$GBGSV,4,4,14,46,04,085,43,13,02,348,20,1*72
$GBGSV,3,1,11,45,63,310,41,36,50,065,39,21,36,272,37,30,34,080,29,5*78
$GBGSV,3,2,11,29,28,145,43,22,26,211,33,42,13,321,37,26,13,277,38,5*7C
$GBGSV,3,3,11,27,08,036,34,38,05,323,20,46,04,085,31,5*4A
$GNGGA,140747.000,4005.098512,N,10513.208970,W,2,72,0.36,1585.364,M,-20.670,M,,*70
$GPGSV,4,1,15,07,75,000,37,08,52,075,43,30,48,307,39,09,45,183,49,1*60
$GPGSV,4,2,15,48,39,209,47,14,35,251,38,27,23,045,40,22,16,243,43,1*62
$GPGSV,4,3,15,04,11,158,46,21,09,117,47,05,07,308,29,13,06,322,29,1*6D
$GPGSV,4,4,15,02,05,131,50,20,05,278,33,17,02,197,38,1*5B
$GPGSV,2,1,06,08,52,075,33,30,48,307,40,09,45,183,47,14,35,251,41,8*6B
$GPGSV,2,2,06,27,23,045,37,04,11,158,39,8*68
$GLGSV,3,1,11,80,53,025,41,70,44,229,38,73,41,293,32,71,41,304,26,1*7B
$GLGSV,3,2,11,82,29,097,37,81,22,044,37,79,12,067,42,83,12,138,34,1*70
$GLGSV,3,3,11,72,06,338,37,74,05,269,38,69,01,180,50,1*45
$GAGSV,3,1,11,25,63,264,40,05,57,191,43,24,56,044,34,03,51,296,40,7*72
$GAGSV,3,2,11,02,13,245,43,09,11,158,41,31,08,058,30,12,08,093,22,7*73
$GAGSV,3,3,11,08,08,323,32,33,05,043,19,10,05,115,43,7*4C
$GAGSV,3,1,11,25,63,264,37,05,57,191,45,24,56,044,33,03,51,296,36,1*74
$GAGSV,3,2,11,02,13,245,37,09,11,158,33,31,08,058,36,12,08,093,30,1*76
$GAGSV,3,3,11,08,08,323,24,10,05,115,40,33,05,043,31,1*44
$GBGSV,4,1,15,45,63,310,40,57,51,182,,36,50,065,44,21,36,272,43,1*7D
$GBGSV,4,2,15,30,34,080,45,29,28,145,47,22,26,211,51,42,13,321,37,1*79
$GBGSV,4,3,15,26,13,277,43,27,08,036,37,08,07,336,32,38,05,323,30,1*7D
$GBGSV,4,4,15,46,04,085,43,13,02,348,21,58,,,26,1*7B
$GBGSV,3,1,11,45,63,310,41,36,50,065,39,21,36,272,37,30,34,080,30,5*70
$GBGSV,3,2,11,29,28,145,42,22,26,211,33,42,13,321,38,26,13,277,38,5*72
$GBGSV,3,3,11,27,08,036,34,38,05,323,19,46,04,085,31,5*40
$GNGGA,140752.000,4005.098446,N,10513.208994,W,2,72,0.36,1585.380,M,-20.670,M,,*74
$GPGSV,4,1,15,07,75,000,36,08,52,075,43,30,48,307,39,09,45,183,48,1*60
$GPGSV,4,2,15,48,39,209,47,14,35,251,39,27,23,045,40,22,16,243,44,1*64
$GPGSV,4,3,15,04,11,158,46,21,09,117,47,05,07,308,32,13,06,322,28,1*66
$GPGSV,4,4,15,02,05,131,50,20,05,278,32,17,02,197,37,1*55
$GPGSV,2,1,06,08,52,075,33,30,48,307,40,09,45,183,48,14,35,251,41,8*64
$GPGSV,2,2,06,27,23,045,38,04,11,158,37,8*69
$GLGSV,3,1,11,80,53,025,43,70,44,229,38,73,41,293,33,71,41,304,23,1*7D
$GLGSV,3,2,11,82,29,097,37,81,22,044,37,79,12,067,42,83,12,138,34,1*70
$GLGSV,3,3,11,72,06,338,38,74,05,269,39,69,01,180,48,1*42
$GAGSV,3,1,11,25,63,264,40,05,57,191,43,24,56,044,34,03,52,294,40,7*73
$GAGSV,3,2,11,02,14,246,43,09,11,158,41,31,08,058,29,12,08,093,25,7*78
$GAGSV,3,3,11,08,08,323,32,33,05,043,21,10,05,115,44,7*40
$GAGSV,3,1,11,25,63,264,37,05,57,191,45,24,56,044,33,03,52,294,36,1*75
$GAGSV,3,2,11,02,14,246,36,09,11,158,34,31,08,058,36,12,08,093,32,1*76
$GAGSV,3,3,11,08,08,323,24,10,05,115,40,33,05,043,31,1*44
$GBGSV,4,1,15,45,63,310,40,57,51,182,,36,50,065,44,21,36,272,43,1*7D
$GBGSV,4,2,15,30,34,080,46,29,28,145,47,22,26,211,51,42,13,321,38,1*75
$GBGSV,4,3,15,26,13,277,43,27,08,036,36,08,07,336,32,38,05,323,31,1*7D
$GBGSV,4,4,15,46,04,085,42,13,02,348,22,58,,,23,1*7C
$GBGSV,3,1,11,45,63,310,41,36,50,065,39,21,36,272,36,30,34,080,30,5*71
$GBGSV,3,2,11,29,28,145,42,22,26,211,36,42,13,321,38,26,13,277,38,5*77
$GBGSV,3,3,11,27,08,036,34,38,05,323,19,46,04,085,30,5*41
$GNGGA,140757.000,4005.098338,N,10513.209000,W,2,71,0.36,1585.229,M,-20.670,M,,*7B
$GPGSV,4,1,15,07,75,000,37,08,52,075,43,30,48,307,37,09,45,183,48,1*6F
$GPGSV,4,2,15,48,39,209,47,14,35,251,42,27,23,045,39,22,16,243,44,1*66
$GPGSV,4,3,15,04,11,158,46,21,09,117,47,05,07,308,36,13,06,322,29,1*63
$GPGSV,4,4,15,02,05,131,50,20,05,278,29,17,02,197,41,1*5E
$GPGSV,2,1,06,08,52,075,34,30,48,307,41,09,45,183,49,14,35,251,42,8*60
$GPGSV,2,2,06,27,23,045,40,04,11,158,38,8*69
$GLGSV,3,1,11,80,53,025,43,70,44,229,38,73,41,293,37,71,41,304,35,1*7E
$GLGSV,3,2,11,82,29,097,39,81,22,044,36,79,12,067,43,83,12,138,32,1*78
$GLGSV,3,3,11,72,06,338,39,74,05,269,40,69,01,180,43,1*46
$GAGSV,3,1,11,25,63,264,40,24,56,044,35,05,56,191,43,03,52,294,40,7*73
$GAGSV,3,2,11,02,14,246,43,09,10,158,41,31,08,058,29,12,08,093,26,7*7A
$GAGSV,3,3,11,08,08,323,33,33,05,043,24,10,05,115,44,7*44
$GAGSV,3,1,11,25,63,264,39,05,56,191,44,24,56,044,35,03,52,294,39,1*72
$GAGSV,3,2,11,02,14,246,36,09,10,158,38,31,08,058,35,12,08,093,31,1*7B
$GAGSV,3,3,11,08,08,323,25,10,05,115,39,33,05,043,31,1*4B
$GBGSV,4,1,14,45,63,310,40,36,50,065,44,21,36,272,44,30,34,080,45,1*7B
$GBGSV,4,2,14,29,28,145,47,22,26,211,51,42,13,321,38,26,13,277,42,1*78
$GBGSV,4,3,14,27,08,036,35,08,07,336,33,38,05,323,31,46,04,085,42,1*70
$GBGSV,4,4,14,13,02,348,23,58,,,23,1*41
$GBGSV,3,1,11,45,63,310,40,36,50,065,40,21,36,272,38,30,34,080,30,5*70
$GBGSV,3,2,11,29,28,145,42,22,26,211,38,42,13,321,36,26,13,277,37,5*78
$GBGSV,3,3,11,27,08,036,33,38,05,323,18,46,04,085,28,5*4E
$GNGGA,140802.000,4005.098248,N,10513.208904,W,2,71,0.36,1585.102,M,-20.670,M,,*74
$GPGSV,4,1,15,07,75,000,34,08,52,075,42,30,48,307,37,09,45,183,47,1*62
$GPGSV,4,2,15,48,39,209,47,14,35,251,42,27,23,045,38,22,16,243,42,1*61
$GPGSV,4,3,15,04,11,158,45,21,09,117,47,05,07,308,37,13,06,322,26,1*6E
$GPGSV,4,4,15,02,05,131,50,20,05,278,31,17,02,197,42,1*54
$GPGSV,2,1,06,08,52,075,31,30,48,307,40,09,45,183,47,14,35,251,39,8*66
$GPGSV,2,2,06,27,23,045,40,04,11,158,39,8*68
$GLGSV,3,1,11,80,53,025,43,70,44,229,38,71,41,304,36,73,41,293,39,1*73
$GLGSV,3,2,11,82,29,097,39,81,22,044,37,79,12,067,40,83,12,138,34,1*7C
$GLGSV,3,3,11,72,06,338,40,74,05,269,40,69,01,180,38,1*44
$GAGSV,3,1,11,25,63,264,41,05,56,191,44,24,56,044,37,03,52,294,39,7*79
$GAGSV,3,2,11,02,14,246,44,09,10,158,42,12,09,092,28,08,08,323,33,7*7E
$GAGSV,3,3,11,31,08,058,29,10,06,115,44,33,05,043,28,7*45
$GAGSV,3,1,11,25,63,264,39,05,56,191,44,24,56,044,31,03,52,294,36,1*79
$GAGSV,3,2,11,02,14,246,34,09,10,158,37,12,09,092,31,31,08,058,36,1*75
$GAGSV,3,3,11,08,08,323,26,10,06,115,40,33,05,043,29,1*4C
$GBGSV,4,1,15,45,63,310,40,57,51,182,,36,50,065,45,21,36,272,45,1*7A
$GBGSV,4,2,15,30,34,080,44,29,28,145,47,22,26,211,49,26,13,277,42,1*73
$GBGSV,4,3,15,42,13,321,38,27,08,036,35,08,07,336,31,38,05,323,30,1*70
$GBGSV,4,4,15,46,04,085,42,13,02,348,23,58,,,21,1*7F
$GBGSV,3,1,11,45,63,310,40,36,50,065,36,21,36,272,35,30,34,080,32,5*7E
$GBGSV,3,2,11,29,28,145,42,22,26,211,40,42,13,321,36,26,13,277,35,5*75
$GBGSV,3,3,11,27,08,036,34,38,05,323,19,46,04,085,27,5*47
$GNGGA,140807.000,4005.098248,N,10513.208826,W,2,72,0.36,1585.053,M,-20.669,M,,*7E
$GPGSV,4,1,15,07,75,000,37,08,52,075,42,30,48,307,38,09,45,183,49,1*60
$GPGSV,4,2,15,48,39,209,47,14,35,251,42,27,23,045,36,22,16,243,44,1*69
$GPGSV,4,3,15,04,11,158,44,21,09,117,46,05,07,308,33,13,06,322,26,1*6A
$GPGSV,4,4,15,02,05,131,50,20,05,278,20,17,02,197,40,1*56
$GPGSV,2,1,06,08,52,075,31,30,48,307,40,09,45,183,48,14,35,251,40,8*67
$GPGSV,2,2,06,27,23,045,39,04,11,158,35,8*6A
$GLGSV,3,1,11,80,53,025,42,70,44,229,38,71,41,304,26,73,41,293,36,1*7C
$GLGSV,3,2,11,82,29,097,39,81,22,044,37,79,12,067,40,83,12,138,34,1*7C
$GLGSV,3,3,11,72,06,338,40,74,05,269,40,69,01,180,33,1*4F
$GAGSV,3,1,11,25,63,264,41,05,56,191,44,24,56,044,34,03,52,294,39,7*7A
$GAGSV,3,2,11,02,14,246,43,09,10,158,41,12,09,092,28,08,08,323,32,7*7B
$GAGSV,3,3,11,31,08,058,32,10,06,115,44,33,05,043,28,7*4F
$GAGSV,3,1,11,25,63,264,39,05,56,191,44,24,56,044,32,03,52,294,35,1*79
$GAGSV,3,2,11,02,14,246,37,09,10,158,36,12,09,092,32,31,08,058,35,1*77
$GAGSV,3,3,11,08,08,323,21,10,06,115,38,33,05,043,29,1*44
$GBGSV,4,1,15,45,63,310,39,57,51,182,,36,50,065,45,21,36,272,45,1*74
$GBGSV,4,2,15,30,34,080,44,29,28,145,47,22,26,211,50,26,13,277,42,1*7B
$GBGSV,4,3,15,42,13,321,39,27,08,036,36,08,07,336,33,38,05,323,28,1*79
$GBGSV,4,4,15,46,04,085,42,13,02,348,22,58,,,22,1*7D
$GBGSV,3,1,11,45,63,310,40,36,50,065,37,21,36,272,34,30,34,080,31,5*7D
$GBGSV,3,2,11,29,28,145,40,22,26,211,37,42,13,321,36,26,13,277,36,5*74
$GBGSV,3,3,11,27,08,036,34,38,05,323,19,46,04,085,28,5*48
$GNGGA,140812.000,4005.098254,N,10513.208742,W,2,71,0.36,1585.063,M,-20.670,M,,*72
$GPGSV,4,1,15,07,75,000,38,08,52,075,42,30,48,307,38,09,45,183,49,1*6F
$GPGSV,4,2,15,48,39,209,47,14,35,251,43,27,23,045,39,22,16,243,44,1*67
$GPGSV,4,3,15,04,11,158,44,21,09,117,46,05,07,308,36,13,06,322,26,1*6F
$GPGSV,4,4,15,02,05,131,50,20,05,278,27,17,02,197,41,1*50
$GPGSV,2,1,06,08,52,075,34,30,48,307,40,09,45,183,49,14,35,251,41,8*62
$GPGSV,2,2,06,27,23,045,38,04,11,158,38,8*66
$GLGSV,3,1,11,80,53,025,42,70,44,229,38,71,41,304,32,73,41,293,35,1*7A
$GLGSV,3,2,11,82,29,097,36,81,22,044,39,79,12,067,40,83,12,138,33,1*7A
$GLGSV,3,3,11,72,06,338,40,74,05,269,41,69,01,180,29,1*45
$GAGSV,3,1,11,25,63,264,40,05,56,191,44,24,55,045,35,03,52,294,39,7*78
$GAGSV,3,2,11,02,14,246,43,09,10,158,41,12,09,092,27,08,08,323,33,7*75
$GAGSV,3,3,11,31,08,058,32,10,06,115,43,33,05,043,29,7*49
$GAGSV,3,1,11,25,63,264,39,05,56,191,44,24,55,045,34,03,52,294,37,1*7F
$GAGSV,3,2,11,02,14,246,37,09,10,158,38,12,09,092,32,31,08,058,36,1*7A
$GAGSV,3,3,11,08,08,323,19,10,06,115,39,33,05,043,30,1*46
$GBGSV,4,1,15,45,63,310,38,57,51,182,,36,50,065,45,21,36,272,45,1*75
$GBGSV,4,2,15,30,34,080,45,29,28,145,47,22,26,211,50,26,13,277,42,1*7A
$GBGSV,4,3,15,42,13,321,38,27,08,036,38,08,07,336,33,38,05,323,28,1*76
$GBGSV,4,4,15,46,04,085,42,13,02,348,22,58,,,22,1*7D
$GBGSV,3,1,11,45,63,310,40,36,50,065,38,21,36,272,38,30,34,080,30,5*7F
$GBGSV,3,2,11,29,28,145,42,22,26,211,39,42,13,321,36,26,13,277,37,5*79
$GBGSV,3,3,11,27,08,036,34,38,05,323,19,46,04,085,23,5*43
$GNGGA,140817.000,4005.098290,N,10513.208718,W,2,71,0.36,1584.982,M,-20.670,M,,*77
$GPGSV,4,1,15,07,75,000,38,08,52,075,42,30,48,307,38,09,45,183,49,1*6F
$GPGSV,4,2,15,48,39,209,47,14,35,251,43,27,23,045,39,22,16,243,44,1*67
$GPGSV,4,3,15,04,11,158,43,21,09,117,46,05,07,308,36,13,06,322,25,1*6B
$GPGSV,4,4,15,02,05,131,50,20,05,278,31,17,02,197,43,1*55
$GPGSV,2,1,06,08,52,075,37,30,48,307,41,09,45,183,49,14,35,251,42,8*63
$GPGSV,2,2,06,27,23,045,37,04,11,158,24,8*64
$GLGSV,3,1,11,80,53,025,41,70,44,229,38,71,41,304,34,73,41,293,38,1*72
$GLGSV,3,2,11,82,29,097,35,81,22,044,38,79,12,067,41,83,12,138,33,1*79
$GLGSV,3,3,11,72,06,338,40,74,05,269,41,69,01,180,25,1*49
$GAGSV,3,1,11,25,63,266,40,05,56,191,43,24,55,045,36,03,52,294,39,7*7E
$GAGSV,3,2,11,02,14,246,43,09,10,158,40,12,09,092,29,08,08,323,33,7*7A
$GAGSV,3,3,11,31,08,058,31,10,06,115,44,33,05,043,30,7*45
$GAGSV,3,1,11,25,63,266,39,05,56,191,44,24,55,045,35,03,52,294,39,1*72
$GAGSV,3,2,11,02,14,246,35,09,10,158,38,12,09,092,31,31,08,058,36,1*7B
$GAGSV,3,3,11,08,08,323,16,10,06,115,39,33,05,043,30,1*49
$GBGSV,4,1,15,45,63,310,39,57,51,182,,36,50,065,45,21,36,272,45,1*74
$GBGSV,4,2,15,30,34,080,46,29,28,145,47,22,26,211,50,26,13,277,42,1*79
$GBGSV,4,3,15,42,13,321,36,27,08,036,38,08,07,336,34,38,05,323,28,1*7F
$GBGSV,4,4,15,46,04,085,42,13,02,348,21,58,,,22,1*7E
$GBGSV,3,1,11,45,63,310,39,36,50,065,40,21,36,272,37,30,34,080,31,5*70
$GBGSV,3,2,11,29,28,145,43,22,26,211,39,42,13,321,38,26,13,277,37,5*76
$GBGSV,3,3,11,27,08,036,33,38,05,323,17,46,04,085,22,5*4B
$GNGGA,140822.000,4005.098392,N,10513.208736,W,2,71,0.36,1584.906,M,-20.670,M,,*72
$GPGSV,4,1,15,07,75,000,38,08,52,075,43,30,48,307,38,09,45,183,49,1*6E
$GPGSV,4,2,15,48,39,209,47,14,35,251,43,27,23,045,38,22,16,243,42,1*60
$GPGSV,4,3,15,04,11,158,43,21,09,117,46,05,07,308,37,13,06,322,24,1*6B
$GPGSV,4,4,15,20,05,278,31,02,05,131,50,17,02,197,44,1*52
$GPGSV,2,1,06,08,52,075,35,30,48,307,40,09,45,183,50,14,35,251,42,8*68
$GPGSV,2,2,06,27,23,045,37,04,11,158,34,8*65
$GLGSV,3,1,11,80,53,025,41,70,44,229,38,71,41,304,31,73,41,293,30,1*7F
$GLGSV,3,2,11,82,29,097,38,81,22,044,37,79,12,067,42,83,12,138,32,1*79
$GLGSV,3,3,11,72,06,338,40,74,05,269,41,69,01,180,23,1*4F
$GAGSV,3,1,11,25,63,266,40,05,56,191,43,24,55,045,34,03,52,294,40,7*72
$GAGSV,3,2,11,02,14,246,43,09,10,158,40,12,09,092,26,08,08,323,33,7*75
$GAGSV,3,3,11,31,07,059,31,33,06,042,28,10,06,115,44,7*40
$GAGSV,3,1,11,25,63,266,40,05,56,191,45,24,55,045,36,03,52,294,39,1*7E
$GAGSV,3,2,11,02,14,246,36,09,10,158,39,12,09,092,33,08,08,323,17,1*7D
$GAGSV,3,3,11,31,07,059,37,33,06,042,29,10,06,115,37,1*45
$GBGSV,4,1,15,45,63,310,38,57,51,182,,36,50,065,45,21,36,272,45,1*75
$GBGSV,4,2,15,30,34,080,45,29,28,145,47,22,26,211,50,26,13,277,42,1*7A
$GBGSV,4,3,15,42,13,321,37,27,08,036,39,08,07,336,34,38,05,323,30,1*76
$GBGSV,4,4,15,46,04,085,42,13,02,348,21,58,,,23,1*7F
$GBGSV,3,1,11,45,63,310,41,36,50,065,41,21,36,272,37,30,34,080,32,5*7D
$GBGSV,3,2,11,29,28,145,43,22,26,211,39,26,13,277,37,42,13,321,39,5*77
$GBGSV,3,3,11,27,08,036,33,38,05,323,18,46,04,085,24,5*42
$GNGGA,140827.000,4005.098512,N,10513.208772,W,2,71,0.36,1584.874,M,-20.670,M,,*7D
$GPGSV,4,1,15,07,75,000,36,08,52,075,43,30,48,307,38,09,45,183,49,1*60
$GPGSV,4,2,15,48,39,209,47,14,35,251,42,27,23,045,36,22,16,243,43,1*6E
$GPGSV,4,3,15,04,11,158,43,21,09,117,46,05,07,308,37,13,06,322,26,1*69
$GPGSV,4,4,15,20,05,278,32,02,05,131,50,17,02,197,45,1*50
$GPGSV,2,1,06,08,52,075,33,30,48,307,40,09,45,183,49,14,35,251,41,8*65
$GPGSV,2,2,06,27,23,045,35,04,11,158,33,8*60
$GLGSV,3,1,11,80,53,025,43,70,44,229,38,71,41,304,31,73,41,293,30,1*7D
$GLGSV,3,2,11,82,29,097,38,81,22,044,36,79,12,067,42,83,12,138,31,1*7B
$GLGSV,3,3,11,72,06,338,38,74,05,269,41,69,01,180,20,1*43
$GAGSV,3,1,11,25,63,266,41,05,56,191,43,24,55,045,35,03,52,294,40,7*72
$GAGSV,3,2,11,02,14,246,42,09,10,158,40,12,09,092,27,08,08,323,31,7*77
$GAGSV,3,3,11,31,07,059,31,10,06,115,44,33,06,042,28,7*40
$GAGSV,3,1,11,25,63,266,38,05,56,191,44,24,55,045,33,03,52,294,37,1*7B
$GAGSV,3,2,11,02,14,246,36,09,10,158,38,12,09,092,33,08,08,323,21,1*79
$GAGSV,3,3,11,31,07,059,36,33,06,042,29,10,06,115,38,1*4B
$GBGSV,4,1,14,45,63,310,37,36,50,065,45,21,36,272,43,30,34,080,45,1*7D
$GBGSV,4,2,14,29,28,145,47,22,26,211,50,26,13,277,41,42,13,321,37,1*75
$GBGSV,4,3,14,27,08,036,39,08,07,336,35,38,05,323,32,46,04,085,42,1*79
$GBGSV,4,4,14,13,02,348,21,58,,,22,1*42
$GBGSV,3,1,11,45,63,310,41,36,50,065,39,21,36,272,36,30,34,080,29,5*79
$GBGSV,3,2,11,29,28,145,42,22,26,211,37,26,13,277,37,42,13,321,38,5*79
$GBGSV,3,3,11,27,08,036,33,38,05,323,17,46,04,085,25,5*4C
$GNGGA,140832.000,4005.098584,N,10513.208850,W,2,72,0.36,1584.879,M,-20.670,M,,*77
$GPGSV,4,1,15,07,75,000,36,08,52,075,41,30,48,307,38,09,45,183,49,1*62
$GPGSV,4,2,15,48,39,209,47,14,35,251,40,27,23,045,36,22,16,243,41,1*6E
$GPGSV,4,3,15,04,11,158,43,21,09,117,46,05,07,308,37,13,06,322,27,1*68
$GPGSV,4,4,15,02,05,131,50,20,05,278,20,17,02,197,45,1*53
$GPGSV,2,1,06,08,52,075,31,30,48,307,40,09,45,183,49,14,35,251,41,8*67
$GPGSV,2,2,06,27,23,045,35,04,11,158,39,8*6A
$GLGSV,3,1,10,80,53,025,43,70,43,227,38,71,42,302,29,73,41,293,28,1*70
$GLGSV,3,2,10,82,29,097,37,81,22,044,37,79,12,067,42,83,12,138,32,1*77
$GLGSV,3,3,10,72,07,338,38,74,05,269,41,1*76
$GAGSV,3,1,11,25,63,266,40,05,56,191,42,24,55,045,35,03,52,294,40,7*72
$GAGSV,3,2,11,02,14,246,43,09,10,158,42,12,09,092,30,08,08,323,31,7*72
$GAGSV,3,3,11,31,07,059,32,33,06,042,26,10,06,115,45,7*4C
$GAGSV,3,1,11,25,63,266,37,05,56,191,44,24,55,045,32,03,52,294,36,1*74
$GAGSV,3,2,11,02,14,246,34,09,10,158,39,12,09,092,32,08,08,323,22,1*78
$GAGSV,3,3,11,31,07,059,36,33,06,042,29,10,06,115,38,1*4B
$GBGSV,4,1,14,45,63,310,38,36,50,065,45,21,36,272,43,30,34,080,46,1*71
$GBGSV,4,2,14,29,28,145,47,22,26,211,50,26,13,277,42,42,13,321,36,1*77
$GBGSV,4,3,14,27,08,036,39,08,07,336,34,38,05,323,32,46,04,085,42,1*78
$GBGSV,4,4,14,13,02,348,19,58,,,21,1*4A
$GBGSV,3,1,11,45,63,310,41,36,50,065,39,21,36,272,36,30,34,080,29,5*79
$GBGSV,3,2,11,29,28,145,41,22,26,211,35,26,13,277,37,42,13,321,39,5*79
$GBGSV,3,3,11,27,08,036,33,38,05,323,17,46,04,085,26,5*4F
$GNGGA,140837.000,4005.098560,N,10513.208952,W,2,71,0.36,1584.952,M,-20.670,M,,*70
$GPGSV,4,1,15,07,75,000,36,08,52,075,41,30,48,307,38,09,45,183,49,1*62
$GPGSV,4,2,15,48,39,209,47,14,35,251,41,27,23,045,37,22,16,243,40,1*6F
$GPGSV,4,3,15,04,11,158,42,21,09,117,46,05,07,308,36,13,06,322,26,1*69
$GPGSV,4,4,15,20,05,278,27,02,05,131,50,17,02,197,45,1*54
$GPGSV,2,1,06,08,52,075,36,30,48,307,40,09,45,183,49,14,35,251,40,8*61
$GPGSV,2,2,06,27,23,045,37,04,11,158,32,8*63
$GLGSV,3,1,10,80,53,025,44,70,43,227,38,71,42,302,28,73,42,295,28,1*73
$GLGSV,3,2,10,82,29,097,38,81,22,044,37,79,12,067,42,83,12,138,30,1*7A
$GLGSV,3,3,10,72,07,338,38,74,06,270,40,1*7C
$GAGSV,3,1,11,25,63,266,40,05,56,191,42,24,55,045,37,03,52,294,39,7*7E
$GAGSV,3,2,11,02,14,246,44,09,10,158,42,12,09,092,31,08,08,323,31,7*74
$GAGSV,3,3,11,31,07,059,29,33,06,042,28,10,06,115,45,7*48
$GAGSV,3,1,11,25,63,266,38,05,56,191,45,24,55,045,34,03,52,294,35,1*7F
$GAGSV,3,2,11,02,14,246,34,09,10,158,39,12,09,092,32,08,08,323,21,1*7B
$GAGSV,3,3,11,31,07,059,37,33,06,042,31,10,06,115,37,1*4C
$GBGSV,4,1,15,45,63,310,37,57,51,182,,36,50,065,44,21,36,272,42,1*7C
$GBGSV,4,2,15,30,34,080,45,29,28,145,48,22,26,211,50,42,13,321,37,1*77
$GBGSV,4,3,15,26,13,277,41,27,08,036,39,08,07,336,35,38,05,323,32,1*74
$GBGSV,4,4,15,46,04,085,42,13,02,348,18,58,,,22,1*74
$GBGSV,3,1,11,45,63,310,41,36,50,065,40,21,36,272,36,30,34,080,31,5*7E
$GBGSV,3,2,11,29,28,145,42,22,26,211,38,26,13,277,38,42,13,321,38,5*79
$GBGSV,3,3,11,27,08,036,35,38,05,323,17,46,04,085,25,5*4A
$GNGGA,140842.000,4005.098506,N,10513.209078,W,2,72,0.36,1584.967,M,-20.670,M,,*77
$GPGSV,4,1,15,07,75,000,34,08,52,075,42,30,48,307,40,09,45,183,49,1*6C
$GPGSV,4,2,15,48,39,209,47,14,35,251,39,27,23,045,37,22,16,243,41,1*61
$GPGSV,4,3,15,04,11,158,42,21,09,117,46,05,07,308,36,13,06,322,27,1*68
$GPGSV,4,4,15,20,05,278,25,02,05,131,50,17,02,197,45,1*56
$GPGSV,2,1,06,08,52,075,39,30,48,307,40,09,45,183,49,14,35,251,41,8*6F
$GPGSV,2,2,06,27,23,045,38,04,11,158,36,8*68
$GLGSV,3,1,10,80,52,027,43,70,43,227,38,71,42,302,30,73,42,295,29,1*7F
$GLGSV,3,2,10,82,30,096,38,81,22,043,39,83,12,138,31,79,11,068,42,1*77
$GLGSV,3,3,10,72,07,338,38,74,06,270,41,1*7D
$GAGSV,3,1,11,25,63,266,40,05,56,191,42,24,55,045,37,03,52,294,39,7*7E
$GAGSV,3,2,11,02,14,246,44,09,10,158,42,12,09,092,29,08,08,323,31,7*7D
$GAGSV,3,3,11,31,07,059,28,33,06,042,27,10,06,115,44,7*47
$GAGSV,3,1,11,25,63,266,38,05,56,191,45,24,55,045,33,03,52,294,35,1*78
$GAGSV,3,2,11,02,14,246,34,09,10,158,40,12,09,092,33,08,08,323,25,1*70
$GAGSV,3,3,11,31,07,059,37,33,06,042,30,10,06,115,39,1*43
$GBGSV,4,1,15,45,63,310,37,57,51,182,,36,50,065,43,21,36,272,42,1*7B
$GBGSV,4,2,15,30,34,080,43,29,28,145,48,22,26,211,50,42,13,321,36,1*70
$GBGSV,4,3,15,26,13,277,42,27,08,036,40,08,07,336,35,38,05,323,33,1*78
$GBGSV,4,4,15,46,04,085,43,13,02,348,18,58,,,22,1*75
$GBGSV,3,1,11,45,63,310,40,36,50,065,37,21,36,272,36,30,34,080,35,5*7B
$GBGSV,3,2,11,29,28,145,43,22,26,211,37,26,13,277,37,42,13,321,39,5*79
$GBGSV,3,3,11,27,08,036,35,38,05,323,17,46,04,085,24,5*4B
$GNGGA,140847.000,4005.098488,N,10513.209162,W,2,72,0.36,1585.043,M,-20.670,M,,*71
$GPGSV,4,1,15,07,75,000,36,08,52,075,42,30,48,307,39,09,45,183,49,1*60
$GPGSV,4,2,15,48,39,209,47,14,35,251,39,27,23,045,38,22,16,243,40,1*6F
$GPGSV,4,3,15,04,11,158,41,21,09,117,46,05,07,308,36,13,06,322,26,1*6A
$GPGSV,4,4,15,20,05,278,33,02,05,131,50,17,02,197,47,1*53
$GPGSV,2,1,06,08,52,075,35,30,48,307,41,09,45,183,48,14,35,251,41,8*63
$GPGSV,2,2,06,27,23,045,38,04,11,158,39,8*67
$GLGSV,3,1,10,80,52,027,44,70,43,227,37,71,42,302,32,73,42,295,32,1*7F
$GLGSV,3,2,10,82,30,096,39,81,22,043,39,83,13,138,32,79,11,068,43,1*75
$GLGSV,3,3,10,72,07,338,38,74,06,270,41,1*7D
$GAGSV,3,1,11,25,63,266,41,05,56,191,43,24,55,045,36,03,52,294,40,7*71
$GAGSV,3,2,11,02,14,246,44,09,10,158,43,12,09,092,34,08,08,323,31,7*70
$GAGSV,3,3,11,31,07,059,29,33,06,042,26,10,06,115,44,7*47
$GAGSV,3,1,11,25,63,266,38,05,56,191,45,24,55,045,35,03,52,294,35,1*7E
$GAGSV,3,2,11,02,14,246,36,09,10,158,42,12,09,092,34,08,08,323,32,1*71
$GAGSV,3,3,11,31,07,059,37,33,06,042,31,10,06,115,42,1*4E
$GBGSV,4,1,14,45,63,310,39,36,50,065,46,21,36,272,43,30,34,080,44,1*71
$GBGSV,4,2,14,29,28,145,47,22,26,211,50,42,13,321,36,26,13,277,40,1*75
$GBGSV,4,3,14,27,08,036,40,08,07,336,32,38,05,323,34,46,04,085,43,1*77
$GBGSV,4,4,14,13,02,348,17,58,,,21,1*44
$GBGSV,3,1,11,45,63,310,41,36,50,065,39,21,36,272,38,30,34,080,36,5*79
$GBGSV,3,2,11,29,28,145,43,22,26,211,40,26,13,277,37,42,13,321,41,5*76
$GBGSV,3,3,11,27,08,036,34,38,05,323,15,46,04,085,23,5*4F
$GNGGA,140852.000,4005.098446,N,10513.209258,W,2,71,0.36,1585.002,M,-20.669,M,,*73
$GPGSV,4,1,15,07,75,000,37,08,52,075,41,30,48,307,40,09,45,183,49,1*6C
$GPGSV,4,2,15,48,39,209,47,14,35,251,39,27,23,045,36,22,16,243,40,1*61
$GPGSV,4,3,15,04,11,158,41,21,09,117,46,05,07,308,37,13,06,322,25,1*68
$GPGSV,4,4,15,20,05,278,35,02,05,131,50,17,02,197,47,1*55
$GPGSV,2,1,06,08,52,075,33,30,48,307,40,09,45,183,48,14,35,251,40,8*65
$GPGSV,2,2,06,27,23,045,34,04,11,158,36,8*64
$GLGSV,3,1,10,80,52,027,44,70,43,227,38,71,42,302,26,73,42,295,31,1*76
$GLGSV,3,2,10,82,30,096,39,81,22,043,39,83,13,138,31,79,11,068,41,1*74
$GLGSV,3,3,10,72,07,338,38,74,06,270,41,1*7D
$GAGSV,3,1,11,25,63,266,40,05,56,191,42,24,55,045,35,03,52,294,40,7*72
$GAGSV,3,2,11,02,14,246,45,09,10,158,42,12,09,092,32,08,08,323,31,7*76
$GAGSV,3,3,11,31,07,059,26,33,06,042,24,10,06,115,44,7*4A
$GAGSV,3,1,11,25,63,266,36,05,56,191,44,24,55,045,33,03,52,294,35,1*77
$GAGSV,3,2,11,02,14,246,34,09,10,158,41,12,09,092,35,08,08,323,26,1*74
$GAGSV,3,3,11,31,07,059,36,10,06,115,38,33,06,042,30,1*43
$GBGSV,4,1,15,45,63,310,38,57,51,182,,36,50,065,45,21,36,272,44,1*74
$GBGSV,4,2,15,30,34,080,45,29,28,145,47,22,26,211,50,42,13,321,35,1*7A
$GBGSV,4,3,15,26,13,277,39,27,08,036,40,08,07,336,35,38,05,323,35,1*72
$GBGSV,4,4,15,46,04,085,43,13,02,348,17,58,,,21,1*79
$GBGSV,3,1,10,45,63,310,40,36,50,065,38,21,36,272,36,30,34,080,33,5*73
$GBGSV,3,2,10,29,28,145,42,22,26,211,37,42,13,321,40,26,13,277,36,5*76
$GBGSV,3,3,10,27,08,036,33,46,04,085,22,5*70
$GNGGA,140857.000,4005.098434,N,10513.209294,W,2,71,0.36,1584.966,M,-20.669,M,,*79
$GPGSV,4,1,15,07,75,000,38,08,52,075,41,30,48,307,40,09,45,183,49,1*63
$GPGSV,4,2,15,48,39,209,47,14,35,251,39,27,23,045,35,22,16,243,40,1*62
$GPGSV,4,3,15,04,11,158,41,21,09,117,46,05,07,308,35,13,06,322,22,1*6D
$GPGSV,4,4,15,20,05,278,36,02,05,131,50,17,02,197,47,1*56
$GPGSV,2,1,06,08,52,075,35,30,48,307,40,09,45,183,48,14,35,251,40,8*63
$GPGSV,2,2,06,27,23,045,32,04,11,158,36,8*62
$GLGSV,3,1,10,80,52,027,44,70,43,227,38,71,42,302,27,73,42,295,29,1*7E
$GLGSV,3,2,10,82,30,096,38,81,22,043,37,83,13,138,31,79,11,068,39,1*74
$GLGSV,3,3,10,72,07,338,38,74,06,270,41,1*7D
$GAGSV,3,1,11,25,63,266,39,05,56,191,42,24,55,045,35,03,52,294,40,7*7C
$GAGSV,3,2,11,02,14,246,45,09,10,158,43,12,09,092,31,08,08,323,31,7*74
$GAGSV,3,3,11,31,07,059,25,33,06,042,22,10,06,115,44,7*4F
$GAGSV,3,1,11,25,63,266,36,05,56,191,44,24,55,045,32,03,52,294,34,1*77
$GAGSV,3,2,11,02,14,246,34,09,10,158,41,12,09,092,34,08,08,323,27,1*74
$GAGSV,3,3,11,31,07,059,36,10,06,115,38,33,06,042,30,1*43
$GBGSV,4,1,14,45,63,310,39,36,50,065,45,21,36,272,44,30,34,080,44,1*75
$GBGSV,4,2,14,29,28,145,47,22,26,211,50,42,13,321,34,26,13,277,38,1*78
$GBGSV,4,3,14,27,08,036,39,08,07,335,35,38,05,323,36,46,04,085,42,1*7E
$GBGSV,4,4,14,13,02,348,16,58,,,21,1*45
$GBGSV,3,1,10,45,63,310,39,36,50,065,38,21,36,272,35,30,34,080,33,5*7E
$GBGSV,3,2,10,29,28,145,43,22,26,211,37,42,13,321,40,26,13,277,37,5*76
$GBGSV,3,3,10,27,08,036,33,46,04,085,21,5*73
$GNGGA,140902.000,4005.098518,N,10513.209222,W,2,71,0.36,1585.065,M,-20.670,M,,*79
$GPGSV,4,1,15,07,75,000,38,08,52,075,40,30,48,307,40,09,45,183,50,1*6A
$GPGSV,4,2,15,48,39,209,47,14,35,251,39,27,23,045,35,22,16,243,42,1*60
$GPGSV,4,3,15,04,11,158,41,21,09,117,45,05,07,308,35,13,06,322,22,1*6E
$GPGSV,4,4,15,20,05,278,38,02,05,131,50,17,02,197,49,1*56
$GPGSV,2,1,06,08,52,075,33,30,48,307,40,09,45,183,48,14,35,251,40,8*65
$GPGSV,2,2,06,27,23,045,33,04,11,158,38,8*6D
$GLGSV,3,1,10,80,52,027,44,70,43,227,37,71,42,302,28,73,42,295,26,1*71
$GLGSV,3,2,10,82,30,096,38,81,22,043,38,83,13,138,31,79,11,068,39,1*7B
$GLGSV,3,3,10,72,07,338,38,74,06,270,41,1*7D
$GAGSV,3,1,11,25,63,266,40,05,56,191,43,24,55,045,35,03,52,294,40,7*73
$GAGSV,3,2,11,02,14,246,45,09,10,158,43,12,09,092,30,08,08,323,31,7*75
$GAGSV,3,3,11,31,07,059,27,33,06,042,24,10,06,115,44,7*4B
$GAGSV,3,1,11,25,63,266,37,05,56,191,44,24,55,045,32,03,52,294,35,1*77
$GAGSV,3,2,11,02,14,246,34,09,10,158,42,12,09,092,34,08,08,323,27,1*77
$GAGSV,3,3,11,31,07,059,36,10,06,115,37,33,06,042,30,1*4C
$GBGSV,4,1,14,45,63,310,39,36,50,065,45,21,36,272,44,30,34,080,44,1*75
$GBGSV,4,2,14,29,28,145,46,22,26,211,50,42,13,321,35,26,13,277,39,1*79
$GBGSV,4,3,14,27,08,036,38,08,07,335,35,38,05,323,36,46,04,085,42,1*7F
$GBGSV,4,4,14,13,02,348,14,58,,,22,1*44
$GBGSV,3,1,10,45,63,310,40,36,50,065,40,21,36,272,35,30,34,080,29,5*74
$GBGSV,3,2,10,29,28,145,42,22,26,211,37,42,13,321,40,26,13,277,36,5*76
$GBGSV,3,3,10,27,08,036,33,46,04,085,28,5*7A
$GNGGA,140907.000,4005.098572,N,10513.209108,W,2,71,0.36,1584.951,M,-20.670,M,,*74
$GPGSV,4,1,15,07,75,000,39,08,52,075,40,30,48,307,39,09,45,183,50,1*65
$GPGSV,4,2,15,48,39,209,47,14,35,251,40,27,23,045,36,22,16,243,43,1*6C
$GPGSV,4,3,15,04,11,158,41,21,09,117,45,05,07,308,35,13,06,322,21,1*6D
$GPGSV,4,4,15,20,05,278,38,02,05,131,50,17,02,197,49,1*56
$GPGSV,2,1,06,08,52,075,35,30,48,307,40,09,45,183,49,14,35,251,40,8*62
$GPGSV,2,2,06,27,23,045,31,04,11,158,35,8*62
$GLGSV,3,1,10,80,52,027,44,70,43,227,37,71,42,302,37,73,42,295,37,1*7F
$GLGSV,3,2,10,82,30,096,38,81,22,043,35,83,13,138,30,79,11,068,39,1*77
$GLGSV,3,3,10,72,07,338,40,74,06,270,41,1*72
$GAGSV,3,1,11,25,63,266,39,05,56,191,43,24,55,045,37,03,52,294,40,7*7F
$GAGSV,3,2,11,02,14,246,45,09,10,158,43,12,09,092,31,08,08,323,32,7*77
$GAGSV,3,3,11,31,07,059,25,33,06,042,27,10,06,115,44,7*4A
$GAGSV,3,1,11,25,63,266,38,05,56,191,44,24,55,045,35,03,52,294,38,1*72
$GAGSV,3,2,11,02,14,246,31,09,10,158,40,12,09,092,33,08,08,323,29,1*79
$GAGSV,3,3,11,31,07,059,37,10,06,115,37,33,06,042,30,1*4D
$GBGSV,4,1,14,45,63,310,41,36,50,065,47,21,36,272,44,30,34,080,45,1*79
$GBGSV,4,2,14,29,28,145,46,22,26,211,50,42,13,321,33,26,13,277,38,1*7E
$GBGSV,4,3,14,27,08,036,37,08,07,335,35,38,05,323,36,46,04,085,42,1*70
$GBGSV,4,4,14,13,02,348,15,58,,,21,1*46
$GBGSV,3,1,10,45,63,310,38,36,50,065,41,21,36,272,34,30,34,080,31,5*72
$GBGSV,3,2,10,29,28,145,43,22,26,211,40,42,13,321,39,26,13,277,35,5*7A
$GBGSV,3,3,10,27,08,036,34,46,04,085,20,5*75
$GNGGA,140912.000,4005.098614,N,10513.209036,W,2,70,0.36,1584.825,M,-20.670,M,,*7C
$GPGSV,4,1,15,07,75,000,40,08,52,075,40,30,48,307,37,09,45,183,50,1*65
$GPGSV,4,2,15,48,39,209,47,14,35,251,41,27,23,045,37,22,16,243,42,1*6D
$GPGSV,4,3,15,04,11,158,41,21,09,117,45,05,07,308,37,13,06,322,22,1*6C
$GPGSV,4,4,15,20,05,278,38,02,05,131,50,17,02,197,49,1*56
$GPGSV,2,1,06,08,52,075,34,30,48,307,35,09,45,183,49,14,35,251,40,8*61
$GPGSV,2,2,06,27,23,045,36,04,11,158,38,8*68
$GLGSV,3,1,10,80,52,027,43,70,43,227,37,71,42,302,38,73,42,295,33,1*73
$GLGSV,3,2,10,82,30,096,40,81,22,043,38,83,13,138,30,79,11,068,41,1*7A
$GLGSV,3,3,10,72,07,338,40,74,06,270,41,1*72
$GAGSV,3,1,11,25,63,266,40,05,56,191,43,24,55,045,36,03,52,294,38,7*7F
$GAGSV,3,2,11,02,14,246,45,09,10,158,43,12,09,092,31,08,08,323,33,7*76
$GAGSV,3,3,11,31,07,059,28,33,06,042,29,10,06,115,44,7*49
$GAGSV,3,1,11,25,63,266,39,05,56,191,44,24,55,045,36,03,52,294,38,1*70
$GAGSV,3,2,11,02,14,246,33,09,10,158,41,12,09,092,33,08,08,323,28,1*7B
$GAGSV,3,3,11,31,07,059,37,10,06,115,36,33,06,042,29,1*44
$GBGSV,4,1,14,45,63,310,42,36,50,065,47,21,36,271,44,30,34,080,45,1*79
$GBGSV,4,2,14,29,28,145,46,22,25,211,49,42,13,321,38,26,13,277,35,1*73
$GBGSV,4,3,14,27,08,036,38,08,07,335,33,38,05,323,36,46,04,085,42,1*79
$GBGSV,4,4,14,13,02,348,16,58,,,21,1*45
$GBGSV,3,1,10,45,63,310,37,36,50,065,41,21,36,271,33,30,34,080,32,5*7A
$GBGSV,3,2,10,29,28,145,43,22,25,211,39,42,13,321,39,26,13,277,36,5*74
$GBGSV,3,3,10,27,08,036,33,46,04,085,27,5*75
$GNGGA,140917.000,4005.098554,N,10513.209042,W,2,70,0.36,1584.756,M,-20.669,M,,*7E
$GPGSV,4,1,15,07,75,000,40,08,52,075,40,30,48,307,40,09,45,183,49,1*6D
$GPGSV,4,2,15,48,39,209,47,14,35,251,42,27,23,045,35,22,16,243,43,1*6D
$GPGSV,4,3,15,04,11,158,41,21,09,117,45,05,07,308,38,13,06,322,20,1*61
$GPGSV,4,4,15,20,05,278,38,02,05,131,50,17,02,197,49,1*56
$GPGSV,2,1,06,08,52,075,33,30,48,307,38,09,45,183,49,14,35,251,41,8*6A
$GPGSV,2,2,06,27,23,045,36,04,11,158,38,8*68
$GLGSV,3,1,10,80,52,027,43,70,43,227,37,71,42,302,26,73,42,295,27,1*79
$GLGSV,3,2,10,82,30,096,39,81,22,043,39,83,13,138,30,79,11,068,41,1*75
$GLGSV,3,3,10,72,07,338,42,74,06,270,42,1*73
$GAGSV,3,1,11,25,63,266,40,05,56,191,43,24,55,045,37,03,52,294,38,7*7E
$GAGSV,3,2,11,02,14,246,45,09,10,158,43,12,09,092,31,08,08,323,24,7*70
$GAGSV,3,3,11,31,07,059,25,33,06,042,29,10,06,115,44,7*44
$GAGSV,3,1,11,25,63,266,39,05,56,191,43,24,55,045,33,03,52,294,37,1*7D
$GAGSV,3,2,11,02,14,246,35,09,10,158,42,12,09,092,34,08,08,323,28,1*79
$GAGSV,3,3,11,31,07,059,37,10,06,115,37,33,06,042,29,1*45
$GBGSV,4,1,15,45,63,310,40,57,51,182,,36,50,065,46,21,36,271,44,1*7B
$GBGSV,4,2,15,30,34,080,45,29,29,145,46,22,25,211,49,26,14,278,35,1*79
$GBGSV,4,3,15,42,13,321,37,27,08,035,38,08,07,335,33,38,05,323,35,1*75
$GBGSV,4,4,15,46,04,085,43,13,02,348,17,58,,,21,1*79
$GBGSV,3,1,10,45,63,310,39,36,50,065,40,21,36,271,32,30,34,080,31,5*77
$GBGSV,3,2,10,29,29,145,43,22,25,211,40,26,14,278,36,42,13,321,39,5*73
$GBGSV,3,3,10,27,08,035,33,46,04,085,28,5*79
$GNGGA,140922.000,4005.098470,N,10513.209174,W,2,70,0.36,1584.652,M,-20.669,M,,*7E
$GPGSV,4,1,15,07,75,000,38,08,52,075,40,30,48,307,42,09,45,183,49,1*60
$GPGSV,4,2,15,48,39,209,47,14,35,251,42,27,23,045,31,22,16,243,41,1*6B
$GPGSV,4,3,15,04,11,158,39,21,09,117,45,05,07,308,36,13,06,322,19,1*6A
$GPGSV,4,4,15,20,05,278,36,02,05,131,50,17,02,197,50,1*50
$GPGSV,2,1,06,08,52,075,33,30,48,307,39,09,45,183,49,14,35,251,41,8*6B
$GPGSV,2,2,06,27,23,045,34,04,11,158,40,8*65
$GLGSV,3,1,10,80,52,027,44,70,43,227,37,71,42,302,27,73,42,295,33,1*7A
$GLGSV,3,2,10,82,30,096,38,81,22,043,36,83,13,138,31,79,11,068,42,1*79
$GLGSV,3,3,10,72,07,338,42,74,06,270,41,1*70
$GAGSV,3,1,11,25,63,266,40,05,56,191,43,24,55,045,37,03,52,294,38,7*7E
$GAGSV,3,2,11,02,14,246,44,09,10,158,43,12,09,092,31,08,08,323,29,7*7C
$GAGSV,3,3,11,31,07,059,26,33,06,042,29,10,06,115,44,7*47
$GAGSV,3,1,11,25,63,266,38,05,56,191,44,24,55,045,31,03,52,294,36,1*78
$GAGSV,3,2,11,02,14,246,37,09,10,158,42,12,09,092,34,08,08,323,29,1*7A
$GAGSV,3,3,11,31,07,059,36,10,06,115,36,33,06,042,29,1*45
$GBGSV,4,1,15,45,63,310,39,57,51,182,,36,50,065,46,21,36,271,44,1*75
$GBGSV,4,2,15,30,34,079,45,29,29,145,46,22,25,211,49,26,14,278,38,1*72
$GBGSV,4,3,15,42,13,321,37,27,08,035,39,08,07,335,34,38,05,323,34,1*72
$GBGSV,4,4,15,46,04,085,43,13,02,348,16,58,,,21,1*78
$GBGSV,3,1,10,45,63,310,41,36,50,065,40,21,36,271,34,30,34,079,30,5*79
$GBGSV,3,2,10,29,29,145,43,22,25,211,40,26,14,278,36,42,13,321,39,5*73
$GBGSV,3,3,10,27,08,035,34,46,04,085,24,5*72
$GNGGA,140927.000,4005.098368,N,10513.209300,W,2,70,0.36,1584.501,M,-20.670,M,,*79
$GPGSV,4,1,15,07,75,000,38,08,52,075,40,30,48,307,42,09,45,183,49,1*60
$GPGSV,4,2,15,48,39,209,47,14,35,251,43,27,23,045,33,22,16,243,43,1*6A
$GPGSV,4,3,15,04,11,158,41,21,09,117,45,05,07,308,36,13,06,322,15,1*69
$GPGSV,4,4,15,20,05,278,36,02,05,131,50,17,02,197,50,1*50
$GPGSV,2,1,06,08,52,075,33,30,48,307,40,09,45,183,49,14,35,251,41,8*65
$GPGSV,2,2,06,27,23,045,31,04,11,158,40,8*60
$GLGSV,3,1,10,80,52,027,43,70,43,227,37,71,42,302,31,73,42,295,29,1*71
$GLGSV,3,2,10,82,30,096,40,81,22,043,38,83,13,138,31,79,11,068,42,1*78
$GLGSV,3,3,10,72,07,338,42,74,06,270,41,1*70
$GAGSV,3,1,11,25,63,266,40,05,56,191,43,24,55,045,37,03,52,294,39,7*7F
$GAGSV,3,2,11,02,14,246,44,09,10,158,43,12,09,092,33,08,08,323,29,7*7E
$GAGSV,3,3,11,31,07,059,26,33,06,042,30,10,06,115,44,7*4F
$GAGSV,3,1,11,25,63,266,38,05,56,191,44,24,55,045,31,03,52,294,36,1*78
$GAGSV,3,2,11,02,14,246,37,09,10,158,42,12,09,092,34,08,08,323,29,1*7A
$GAGSV,3,3,11,31,07,059,36,10,06,115,36,33,06,042,28,1*44
$GBGSV,4,1,15,45,63,310,40,57,51,182,,36,49,066,46,21,36,271,45,1*71
$GBGSV,4,2,15,30,34,079,47,29,29,145,46,22,25,211,49,26,14,278,39,1*71
$GBGSV,4,3,15,42,13,321,38,27,08,035,39,08,07,335,33,38,05,323,34,1*7A
$GBGSV,4,4,15,46,04,085,43,13,02,348,16,58,,,20,1*79
$GBGSV,3,1,10,45,63,310,40,36,49,066,41,21,36,271,34,30,34,079,29,5*7A
$GBGSV,3,2,10,29,29,145,43,22,25,211,40,26,14,278,36,42,13,321,39,5*73
$GBGSV,3,3,10,27,08,035,34,46,04,085,27,5*71
$GNGGA,140932.000,4005.098272,N,10513.209360,W,2,71,0.36,1584.253,M,-20.670,M,,*70
$GPGSV,4,1,15,07,75,000,36,08,52,075,41,30,48,307,42,09,45,183,49,1*6F
$GPGSV,4,2,15,48,39,209,47,14,35,251,43,27,23,045,34,22,16,243,41,1*6F
$GPGSV,4,3,15,04,11,158,41,21,09,117,45,05,07,308,36,13,06,322,16,1*6A
$GPGSV,4,4,15,20,05,278,40,02,05,131,50,17,02,197,50,1*51
$GPGSV,2,1,06,08,52,075,33,30,48,307,40,09,45,183,49,14,35,251,41,8*65
$GPGSV,2,2,06,27,23,045,31,04,11,158,41,8*61
$GLGSV,3,1,10,80,52,027,43,70,43,227,38,71,42,302,33,73,42,295,32,1*76
$GLGSV,3,2,10,82,30,096,41,81,22,043,40,83,13,138,31,79,11,068,43,1*77
$GLGSV,3,3,10,72,07,338,43,74,06,270,41,1*71
$GAGSV,3,1,11,25,63,266,40,05,56,191,43,24,55,045,40,03,52,294,39,7*7F
$GAGSV,3,2,11,02,14,246,45,09,10,158,44,12,09,092,33,08,08,323,31,7*71
$GAGSV,3,3,11,31,07,059,27,33,06,042,30,10,06,115,44,7*4E
$GAGSV,3,1,11,25,63,266,38,05,56,191,44,24,55,045,33,03,52,294,37,1*7B
$GAGSV,3,2,11,02,14,246,33,09,10,158,42,12,09,092,34,08,08,323,32,1*74
$GAGSV,3,3,11,31,07,059,36,10,06,115,34,33,06,042,27,1*49
$GBGSV,4,1,15,45,63,310,39,57,51,182,,36,49,066,46,21,36,271,45,1*7F
$GBGSV,4,2,15,30,34,079,47,29,29,145,46,22,25,211,49,42,14,320,36,1*70
$GBGSV,4,3,15,26,14,278,41,27,08,035,39,08,07,335,32,38,05,323,34,1*7D
$GBGSV,4,4,15,46,04,085,43,13,02,348,16,58,,,20,1*79
$GBGSV,3,1,10,45,63,310,40,36,49,066,41,21,36,271,37,30,34,079,27,5*77
$GBGSV,3,2,10,29,29,145,43,22,25,211,40,42,14,320,39,26,14,278,36,5*75
$GBGSV,3,3,10,27,08,035,32,46,04,085,27,5*77
$GNGGA,140937.000,4005.098296,N,10513.209342,W,2,70,0.36,1584.136,M,-20.670,M,,*7E
$GPGSV,4,1,15,07,75,000,36,08,52,075,41,30,48,307,41,09,45,183,48,1*6D
$GPGSV,4,2,15,48,39,209,47,14,35,251,42,27,23,045,31,22,16,243,43,1*69
$GPGSV,4,3,15,04,11,158,41,21,09,117,45,05,07,308,36,13,06,322,18,1*64
$GPGSV,4,4,15,20,05,278,40,02,05,131,50,17,02,197,50,1*51
$GPGSV,2,1,06,08,52,075,33,30,48,307,41,09,45,183,49,14,35,251,42,8*67
$GPGSV,2,2,06,27,23,045,31,04,11,158,40,8*60
$GLGSV,3,1,10,80,52,027,42,70,43,227,38,71,42,302,33,73,42,295,31,1*74
$GLGSV,3,2,10,82,30,096,40,81,22,043,39,83,13,138,31,79,11,068,42,1*79
$GLGSV,3,3,10,72,07,338,43,74,06,270,41,1*71
$GAGSV,3,1,11,25,63,266,40,05,56,191,43,24,55,045,39,03,52,294,39,7*71
$GAGSV,3,2,11,02,14,246,46,09,10,158,44,12,09,092,34,08,08,323,30,7*74
$GAGSV,3,3,11,31,07,059,27,33,06,042,29,10,06,115,44,7*46
$GAGSV,3,1,11,25,63,266,40,05,56,191,44,24,55,045,32,03,52,294,37,1*75
$GAGSV,3,2,11,02,14,246,33,09,10,158,43,12,09,092,34,08,08,323,32,1*75
$GAGSV,3,3,11,31,07,059,37,10,06,115,37,33,06,042,26,1*4A
$GBGSV,4,1,14,45,63,312,39,36,49,066,46,21,36,271,45,30,34,079,46,1*79
$GBGSV,4,2,14,29,29,145,46,22,25,211,49,42,14,320,37,26,14,278,41,1*70
$GBGSV,4,3,14,27,08,035,39,08,07,335,32,38,05,323,34,46,04,085,43,1*79
$GBGSV,4,4,14,13,02,348,15,58,,,20,1*47
$GBGSV,3,1,10,45,63,312,41,36,49,066,42,21,36,271,36,30,34,079,28,5*79
$GBGSV,3,2,10,29,29,145,42,22,25,211,42,42,14,320,40,26,14,278,36,5*78
$GBGSV,3,3,10,27,08,035,32,46,04,085,30,5*71
$GNGGA,140942.000,4005.098350,N,10513.209270,W,2,71,0.36,1584.166,M,-20.670,M,,*73
$GPGSV,4,1,15,07,75,000,36,08,52,075,40,30,48,307,40,09,45,183,48,1*6D
$GPGSV,4,2,15,48,39,209,47,14,35,251,41,27,23,045,30,22,16,243,44,1*6C
$GPGSV,4,3,15,04,11,158,43,21,09,117,45,05,07,308,36,13,06,322,18,1*66
$GPGSV,4,4,15,20,05,278,38,02,05,131,50,17,02,197,51,1*5F
$GPGSV,2,1,06,08,52,075,34,30,48,307,41,09,45,183,48,14,35,251,41,8*62
$GPGSV,2,2,06,27,23,045,32,04,11,158,41,8*62
$GLGSV,3,1,10,80,52,027,42,70,43,227,38,71,42,302,26,73,42,295,23,1*73
$GLGSV,3,2,10,82,30,096,40,81,22,043,37,83,13,138,32,79,11,068,41,1*77
$GLGSV,3,3,10,72,07,338,44,74,06,270,41,1*76
$GAGSV,3,1,11,25,63,266,40,05,56,191,43,24,55,045,37,03,52,294,37,7*71
$GAGSV,3,2,11,02,14,246,46,09,10,158,44,12,09,092,34,08,08,323,29,7*7C
$GAGSV,3,3,11,31,07,059,26,33,06,042,26,10,06,115,44,7*48
$GAGSV,3,1,11,25,63,266,40,05,56,191,44,24,55,045,33,03,52,294,36,1*75
$GAGSV,3,2,11,02,14,246,34,09,10,158,43,12,09,092,34,08,08,323,32,1*72
$GAGSV,3,3,11,31,07,059,37,10,06,115,37,33,06,042,26,1*4A
$GBGSV,4,1,14,45,63,312,40,36,49,066,46,21,36,271,45,30,34,079,46,1*77
$GBGSV,4,2,14,29,29,145,46,22,25,211,49,42,14,320,39,26,14,278,41,1*7E
$GBGSV,4,3,14,27,08,035,39,08,07,335,31,38,05,323,33,46,04,085,43,1*7D
$GBGSV,4,4,14,13,02,348,16,58,,,20,1*44
$GBGSV,3,1,10,45,63,312,41,36,49,066,42,21,36,271,35,30,34,079,27,5*75
$GBGSV,3,2,10,29,29,145,43,22,25,211,42,42,14,320,39,26,14,278,36,5*77
$GBGSV,3,3,10,27,08,035,32,46,04,085,30,5*71
$GNGGA,140947.000,4005.098344,N,10513.209192,W,2,70,0.36,1584.289,M,-20.670,M,,*7F
$GPGSV,4,1,15,07,75,000,36,08,52,075,41,30,48,307,41,09,45,183,48,1*6D
$GPGSV,4,2,15,48,39,209,47,14,35,251,42,27,23,045,33,22,16,243,44,1*6C
$GPGSV,4,3,15,04,11,158,43,21,09,117,44,05,07,308,36,13,06,322,21,1*6D
$GPGSV,4,4,15,20,05,278,39,02,05,131,50,17,02,197,51,1*5E
$GPGSV,2,1,06,08,52,075,31,30,48,307,42,09,45,183,49,14,35,251,42,8*66
$GPGSV,2,2,06,27,23,045,33,04,11,158,43,8*61
$GLGSV,3,1,10,80,52,027,42,70,43,227,37,71,42,302,38,73,42,295,37,1*76
$GLGSV,3,2,10,82,30,096,39,81,22,043,34,83,13,138,32,79,11,068,39,1*75
$GLGSV,3,3,10,72,07,338,43,74,06,270,42,1*72
$GAGSV,3,1,11,25,63,266,40,05,56,191,43,24,55,045,38,03,52,294,37,7*7E
$GAGSV,3,2,11,02,14,246,45,09,10,158,45,12,09,092,34,08,08,323,27,7*70
$GAGSV,3,3,11,31,07,059,24,33,06,042,27,10,06,115,44,7*4B
$GAGSV,3,1,11,25,63,266,40,05,56,191,44,24,55,045,32,03,52,294,38,1*7A
$GAGSV,3,2,11,02,14,246,36,09,10,158,44,12,09,092,34,08,08,323,30,1*75
$GAGSV,3,3,11,31,07,059,38,10,06,115,36,33,06,042,27,1*45
