GLGSV,3,3,09,76,05,125,47,1*40
$GAGSV,2,1,07,12,78,189,36,10,69,298,40,19,66,045,35,04,51,234,43,7*7A
$GAGSV,2,2,07,11,41,314,28,33,24,148,45,09,03,231,36,7*48
$GAGSV,2,1,06,12,78,189,39,10,69,298,40,19,66,045,29,04,51,234,45,1*79
$GAGSV,2,2,06,11,41,314,24,33,24,148,43,1*7A
$GBGSV,3,1,10,32,70,324,39,30,49,252,48,41,37,060,44,27,29,188,49,1*7E
$GBGSV,3,2,10,20,23,266,45,29,22,314,39,23,19,120,43,25,19,069,35,1*7A
$GBGSV,3,3,10,40,06,333,34,63,,,27,1*41
$GBGSV,3,1,09,32,70,324,40,30,49,252,42,41,37,$GNGGA,050637.000,4005.098776,N,10513.208376,W,2,57,0.44,1584.371,M,-20.670,M,,*7D
$GPGSV,3,1,11,32,71,243,45,10,70,010,40,23,46,078,39,48,39,209,47,1*6E
$GPGSV,3,2,11,24,24,051,40,27,24,243,48,08,23,282,37,21,21,316,36,1*6B
$GPGSV,3,3,11,18,20,147,43,28,16,178,49,02,06,320,27,1*54
$GPGSV,2,1,08,32,71,243,35,10,70,010,36,23,46,078,40,27,24,243,45,8*6F
$GPGSV,2,2,08,24,24,051,43,08,23,282,35,18,20,147,41,28,16,178,46,8*6C
$GLGSV,3,1,09,81,65,273,41,66,62,314,40,65,38,040,31,88,36,182,48,1*70
$GLGSV,3,2,09,82,27,327,33,67,22,259,39,75,18,070,33,74,06,020,36,1*72
$GLGSV,3,3,09,76,06,124,43,1*46
$GAGSV,2,1,07,12,78,189,36,10,69,298,39,19,66,045,34,04,51,234,42,7*74
$GAGSV,2,2,07,11,41,314,31,33,24,148,45,09,03,231,47,7*46
$GAGSV,2,1,07,12,78,189,39,10,69,298,41,19,66,045,27,04,51,234,45,1*77
$GAGSV,2,2,07,11,41,314,27,33,24,148,42,09,03,231,28,1*49
$GBGSV,3,1,10,32,70,324,39,30,49,250,48,41,37,060,40,27,28,188,48,1*78
$GBGSV,3,2,10,20,24,267,45,29,23,313,40,23,20,120,41,25,19,068,37,1*7F
$GBGSV,3,3,10,40,06,333,35,63,,,23,1*44
$GBGSV,3,1,09,32,70,324,39,30,49,250,42,41,37,060,40,27,28,188,46,5*70
$GBGSV,3,2,09,20,24,267,39,29,23,313,39,23,20,120,38,25,19,068,41,5*79
$GBGSV,3,3,09,40,06,333,26,5*4E
$PAIR001,062,0*3F
$PAIR001,062,0*3F
$PAIR001,062,0*3F
$PAIR001,062,0*3F
$PAIR001,062,0*3F
$PAIR001,062,0*3F
$PAIR001,062,0*3F
$PAIR001,062,0*3F
$PAIR001,062,0*3F
$GNGGA,050642.000,4005.098782,N,10513.208352,W,2,57,0.44,1584.233,M,-20.670,M,,*75
$GPGSV,3,1,11,32,71,243,44,10,70,010,40,23,46,078,39,48,39,209,47,1*6F
$GPGSV,3,2,11,24,24,051,40,27,24,243,48,08,23,282,37,21,21,316,36,1*6B
$GPGSV,3,3,11,18,20,147,43,28,16,178,49,02,06,320,27,1*54
$GPGSV,2,1,08,32,71,243,35,10,70,010,36,23,46,078,40,27,24,243,45,8*6F
$GPGSV,2,2,08,24,24,051,43,08,23,282,36,18,20,147,40,28,16,178,45,8*6D
$GLGSV,3,1,09,81,65,273,41,66,62,314,41,65,38,040,32,88,36,182,48,1*72
$GLGSV,3,2,09,82,27,327,33,67,22,259,39,75,18,070,34,76,06,124,43,1*70
$GLGSV,3,3,09,74,06,020,37,1*42
$GAGSV,2,1,07,12,78,189,36,10,69,298,39,19,66,045,34,04,51,234,42,7*74
$GAGSV,2,2,07,11,41,314,31,33,24,148,45,09,03,231,47,7*46
$GAGSV,2,1,07,12,78,189,39,10,69,298,41,19,66,045,28,04,51,234,44,1*79
$GAGSV,2,2,07,11,41,314,28,33,24,148,41,09,03,231,29,1*44
$GBGSV,3,1,09,32,70,327,39,30,49,250,48,41,37,060,40,27,28,188,47,1*7C
$GBGSV,3,2,09,20,24,267,45,29,23,313,40,23,20,120,40,25,19,068,37,1*76
$GBGSV,3,3,09,40,06,333,34,1*49
$GBGSV,3,1,09,32,70,327,39,30,49,250,42,41,37,060,40,27,28,188,46,5*73
$GBGSV,3,2,09,20,24,267,39,29,23,313,38,23,20,120,38,25,19,068,41,5*78
$GBGSV,3,3,09,40,06,333,27,5*4F
$GNGGA,050647.000,4005.098776,N,10513.208352,W,2,57,0.44,1584.011,M,-20.670,M,,*79
$GPGSV,3,1,11,32,71,243,44,10,70,010,40,23,46,078,40,48,39,209,47,1*61
$GPGSV,3,2,11,24,24,051,40,27,24,243,48,08,23,282,37,21,21,316,36,1*6B
$GPGSV,3,3,11,18,20,147,42,28,16,178,49,02,06,320,27,1*55
$GPGSV,2,1,08,32,71,243,35,10,70,010,36,23,46,078,40,27,24,243,45,8*6F
$GPGSV,2,2,08,24,24,051,43,08,23,282,36,18,20,147,40,28,16,178,45,8*6D
$GLGSV,3,1,09,81,65,273,41,66,62,314,41,65,38,040,32,88,36,182,48,1*72
$GLGSV,3,2,09,82,27,327,35,67,22,259,39,75,18,070,33,76,06,124,43,1*71
$GLGSV,3,3,09,74,06,020,37,1*42
$GAGSV,2,1,07,12,78,189,36,10,69,298,39,19,66,045,34,04,51,234,42,7*74
$GAGSV,2,2,07,11,41,314,31,33,24,148,45,09,03,231,47,7*46
$GAGSV,2,1,07,12,78,189,39,10,69,298,41,19,66,045,28,04,51,234,44,1*79
$GAGSV,2,2,07,11,41,314,29,33,24,148,41,09,03,231,30,1*4D
$GBGSV,3,1,10,32,70,327,40,30,49,250,48,41,36,061,40,27,28,188,47,1*7A
$GBGSV,3,2,10,20,24,267,45,29,23,313,40,23,20,120,40,25,19,068,37,1*7E
$GBGSV,3,3,10,40,06,333,34,37,01,165,52,1*71
$GBGSV,3,1,10,32,70,327,39,30,49,250,42,41,36,061,40,27,28,188,46,5*7B
$GBGSV,3,2,10,20,24,267,39,29,23,313,38,23,20,120,38,25,19,068,41,5*70
$GBGSV,3,3,10,40,06,333,28,37,01,165,51,5*7B
$GNGGA,050652.000,4005.098770,N,10513.208346,W,2,57,0.44,1583.825,M,-20.670,M,,*76
$GPGSV,3,1,11,32,71,243,44,10,70,010,40,23,46,078,41,48,39,209,47,1*60
$GPGSV,3,2,11,24,24,051,40,27,24,243,48,08,23,282,38,21,21,316,38,1*6A
$GPGSV,3,3,11,18,20,147,42,28,16,178,49,02,06,320,28,1*5A
$GPGSV,2,1,08,32,71,243,35,10,70,010,36,23,46,078,40,27,24,243,45,8*6F
$GPGSV,2,2,08,24,24,051,43,08,23,282,36,18,20,147,40,28,16,178,45,8*6D
$GLGSV,3,1,09,81,65,273,42,66,62,314,41,65,38,040,32,88,36,182,48,1*71
$GLGSV,3,2,09,82,27,327,35,67,22,259,39,75,18,070,31,76,06,124,43,1*73
$GLGSV,3,3,09,74,06,020,37,1*42
$GAGSV,2,1,07,12,78,189,36,10,69,298,39,19,66,045,34,04,51,234,42,7*74
$GAGSV,2,2,07,11,41,314,31,33,24,148,45,09,03,231,47,7*46
$GAGSV,2,1,07,12,78,189,39,10,69,298,41,19,66,045,28,04,51,234,44,1*79
$GAGSV,2,2,07,11,41,314,29,33,24,148,41,09,03,231,30,1*4D
$GBGSV,3,1,10,32,70,327,40,30,49,250,48,41,36,061,39,27,28,188,47,1*74
$GBGSV,3,2,10,20,24,267,45,29,23,313,40,23,20,120,41,25,19,068,37,1*7F
$GBGSV,3,3,10,40,06,333,35,37,01,165,52,1*70
$GBGSV,3,1,10,32,70,327,39,30,49,250,42,41,36,061,40,27,28,188,46,5*7B
$GBGSV,3,2,10,20,24,267,39,29,23,313,38,23,20,120,38,25,19,068,41,5*70
$GBGSV,3,3,10,40,06,333,28,37,01,165,51,5*7B
$GNGGA,050657.000,4005.098740,N,10513.208340,W,2,57,0.44,1583.622,M,-20.670,M,,*7F
$GPGSV,3,1,11,32,71,243,44,10,70,010,40,23,46,078,41,48,39,209,47,1*60
$GPGSV,3,2,11,24,24,051,40,27,24,243,48,08,23,282,38,21,21,316,38,1*6A
$GPGSV,3,3,11,18,20,147,42,28,16,178,49,02,06,320,30,1*53
$GPGSV,2,1,08,32,71,243,35,10,70,010,36,23,46,078,40,27,24,243,45,8*6F
$GPGSV,2,2,08,24,24,051,43,08,23,282,36,18,20,147,40,28,16,178,45,8*6D
$GLGSV,3,1,09,81,65,273,41,66,62,314,41,65,38,040,32,88,36,182,48,1*72
$GLGSV,3,2,09,82,27,327,35,67,22,259,39,75,18,070,32,76,06,124,43,1*70
$GLGSV,3,3,09,74,06,020,37,1*42
$GAGSV,2,1,07,12,78,189,36,10,69,298,39,19,66,045,34,04,51,234,41,7*77
$GAGSV,2,2,07,11,41,314,31,33,24,148,45,09,03,231,47,7*46
$GAGSV,2,1,07,12,78,189,39,10,69,298,41,19,66,045,28,04,51,234,44,1*79
$GAGSV,2,2,07,11,41,314,29,33,24,148,41,09,03,231,33,1*4E
$GBGSV,3,1,10,32,70,327,40,30,49,250,48,41,36,061,39,27,28,188,47,1*74
$GBGSV,3,2,10,20,24,267,46,29,23,313,40,23,20,120,41,25,19,068,37,1*7C
$GBGSV,3,3,10,40,06,333,35,37,01,165,52,1*70
$GBGSV,3,1,10,32,70,327,39,30,49,250,42,41,36,061,40,27,28,188,46,5*7B
$GBGSV,3,2,10,20,24,267,39,29,23,313,38,23,20,120,38,25,19,068,41,5*70
$GBGSV,3,3,10,40,06,333,28,37,01,165,51,5*7B
$GNGGA,050702.000,4005.098686,N,10513.208388,W,2,57,0.44,1583.526,M,-20.669,M,,*7E
$GPGSV,3,1,11,32,71,243,44,10,70,010,41,23,46,078,41,48,39,209,47,1*61
$GPGSV,3,2,11,24,24,051,40,27,24,243,48,08,23,282,38,21,21,316,38,1*6A
$GPGSV,3,3,11,18,20,147,42,28,16,178,49,02,06,320,31,1*52
$GPGSV,2,1,08,32,71,243,35,10,70,010,36,23,46,078,40,27,24,243,45,8*6F
$GPGSV,2,2,08,24,24,051,43,08,23,282,36,18,20,147,40,28,16,178,45,8*6D
$GLGSV,3,1,09,81,65,273,41,66,62,314,39,65,38,040,33,88,36,182,48,1*7C
$GLGSV,3,2,09,82,27,327,35,67,22,259,38,75,18,070,30,76,06,124,42,1*72
$GLGSV,3,3,09,74,06,020,37,1*42
$GAGSV,2,1,07,12,78,189,36,10,69,298,39,19,66,045,35,04,51,234,41,7*76
$GAGSV,2,2,07,11,41,314,30,33,24,148,45,09,03,231,47,7*47
$GAGSV,2,1,07,12,78,189,39,10,69,298,41,19,66,045,29,04,51,234,44,1*78
$GAGSV,2,2,07,11,41,314,29,33,24,148,41,09,03,231,34,1*49
$GBGSV,3,1,10,32,70,327,40,30,49,250,48,41,36,061,38,27,28,188,47,1*75
$GBGSV,3,2,10,20,24,267,46,29,23,313,40,23,20,120,41,25,19,068,38,1*73
$GBGSV,3,3,10,40,06,333,36,37,01,165,52,1*73
$GBGSV,3,1,10,32,70,327,39,30,49,250,42,41,36,061,40,27,28,188,46,5*7B
$GBGSV,3,2,10,20,24,267,40,29,23,313,38,23,20,120,38,25,19,068,41,5*7E
$GBGSV,3,3,10,40,06,333,28,37,01,165,51,5*7B
$GNGGA,050707.000,4005.098638,N,10513.208424,W,2,57,0.44,1583.428,M,-20.669,M,,*70
$GPGSV,3,1,11,32,71,243,44,10,70,010,41,23,46,078,41,48,39,209,47,1*61
$GPGSV,3,2,11,24,24,051,40,27,24,243,48,08,23,282,38,21,21,316,36,1*64
$GPGSV,3,3,11,18,20,147,42,28,16,178,49,02,06,320,31,1*52
$GPGSV,2,1,08,32,71,243,35,10,70,010,36,23,46,078,40,27,24,243,45,8*6F
$GPGSV,2,2,08,24,24,051,43,08,23,282,36,18,20,147,39,28,16,178,45,8*63
$GLGSV,3,1,09,81,65,273,41,66,62,314,39,65,38,040,33,88,36,182,48,1*7C
$GLGSV,3,2,09,82,27,327,35,67,22,259,38,75,18,070,31,76,06,124,41,1*70
$GLGSV,3,3,09,74,06,020,37,1*42
$GAGSV,2,1,07,12,78,189,36,10,69,298,39,19,66,045,35,04,51,234,41,7*76
$GAGSV,2,2,07,11,41,314,27,33,24,148,45,09,03,231,48,7*4E
$GAGSV,2,1,07,12,78,189,39,10,69,298,41,19,66,045,29,04,51,234,44,1*78
$GAGSV,2,2,07,11,41,314,30,33,24,148,41,09,03,231,35,1*40
$GBGSV,3,1,10,32,70,327,39,30,49,250,48,41,36,061,38,27,28,188,48,1*74
$GBGSV,3,2,10,20,24,267,46,29,23,313,41,23,20,120,41,25,19,068,38,1*72
$GBGSV,3,3,10,40,06,333,36,37,01,165,52,1*73
$GBGSV,3,1,10,32,70,327,39,30,49,250,42,41,36,061,40,27,28,188,46,5*7B
$GBGSV,3,2,10,20,24,267,40,29,23,313,38,23,20,120,38,25,19,068,41,5*7E
$GBGSV,3,3,10,40,06,333,28,37,01,165,51,5*7B
$GNGGA,050712.000,4005.098632,N,10513.208490,W,2,57,0.44,1583.239,M,-20.670,M,,*7F
$GPGSV,3,1,11,32,71,243,44,10,70,010,41,23,46,078,41,48,39,209,47,1*61
$GPGSV,3,2,11,24,24,051,41,27,24,243,48,08,23,282,38,21,21,316,35,1*66
$GPGSV,3,3,11,18,20,147,42,28,16,178,49,02,07,320,31,1*53
$GPGSV,2,1,08,32,71,243,35,10,70,010,36,23,46,078,40,27,24,243,45,8*6F
$GPGSV,2,2,08,24,24,051,43,08,23,282,36,18,20,147,39,28,16,178,45,8*63
$GLGSV,3,1,09,81,65,273,42,66,62,314,37,65,38,040,34,88,36,182,48,1*76
$GLGSV,3,2,09,82,27,327,35,67,22,259,40,75,18,070,32,76,06,124,41,1*7C
$GLGSV,3,3,09,74,06,020,37,1*42
$GAGSV,2,1,07,12,78,189,36,10,69,298,39,19,66,045,35,04,51,234,41,7*76
$GAGSV,2,2,07,11,41,314,27,33,24,148,45,09,03,231,48,7*4E
$GAGSV,2,1,07,12,78,189,39,10,69,298,41,19,66,045,29,04,51,234,44,1*78
$GAGSV,2,2,07,11,41,314,30,33,24,148,41,09,03,231,36,1*43
$GBGSV,3,1,10,32,70,327,39,30,49,250,48,41,36,061,38,27,28,188,48,1*74
$GBGSV,3,2,10,20,24,267,46,29,23,313,41,23,20,120,41,25,19,068,38,1*72
$GBGSV,3,3,10,40,06,333,36,37,01,165,52,1*73
$GBGSV,3,1,10,32,70,327,39,30,49,250,42,41,36,061,40,27,28,188,46,5*7B
$GBGSV,3,2,10,20,24,267,40,29,23,313,38,23,20,120,38,25,19,068,41,5*7E
$GBGSV,3,3,10,40,06,333,29,37,01,165,51,5*7A
$GNGGA,050717.000,4005.098614,N,10513.208484,W,2,57,0.44,1583.221,M,-20.670,M,,*72
$GPGSV,3,1,11,32,71,243,43,10,70,010,41,23,46,078,41,48,39,209,47,1*66
$GPGSV,3,2,11,24,24,051,41,27,24,243,48,08,22,281,38,21,21,316,34,1*65
$GPGSV,3,3,11,18,20,147,43,28,16,178,50,02,07,320,32,1*59
$GPGSV,2,1,08,32,71,243,35,10,70,010,37,23,46,078,40,27,24,243,45,8*6E
$GPGSV,2,2,08,24,24,051,43,08,22,281,36,18,20,147,39,28,16,178,44,8*60
$GLGSV,3,1,09,81,65,273,42,66,62,314,37,65,38,040,34,88,36,182,48,1*76
$GLGSV,3,2,09,82,27,327,34,67,22,259,39,75,18,070,32,76,06,124,41,1*73
$GLGSV,3,3,09,74,06,020,37,1*42
$GAGSV,2,1,07,12,78,189,36,10,69,298,39,19,66,045,35,04,51,234,41,7*76
$GAGSV,2,2,07,11,41,314,27,33,24,148,45,09,03,231,48,7*4E
$GAGSV,2,1,07,12,78,189,39,10,69,298,41,19,66,045,29,04,51,234,44,1*78
$GAGSV,2,2,07,11,41,314,31,33,24,148,41,09,03,231,37,1*43
$GBGSV,3,1,10,32,70,327,39,30,49,250,48,41,36,061,37,27,28,188,48,1*7B
$GBGSV,3,2,10,20,24,267,46,29,23,313,41,23,20,120,41,25,19,068,36,1*7C
$GBGSV,3,3,10,40,06,333,36,37,01,165,52,1*73
$GBGSV,3,1,10,32,70,327,39,30,49,250,42,41,36,061,40,27,28,188,46,5*7B
$GBGSV,3,2,10,20,24,267,40,29,23,313,38,23,20,120,38,25,19,068,41,5*7E
$GBGSV,3,3,10,40,06,333,29,37,01,165,51,5*7A
$GNGGA,050722.000,4005.098590,N,10513.208484,W,2,57,0.44,1583.141,M,-20.670,M,,*7E
$GPGSV,3,1,11,32,71,243,43,10,70,013,41,23,46,078,41,48,39,209,47,1*65
$GPGSV,3,2,11,24,24,051,41,27,24,243,48,08,22,281,38,21,21,316,34,1*65
$GPGSV,3,3,11,18,20,147,43,28,16,178,50,02,07,320,32,1*59
$GPGSV,2,1,08,32,71,243,35,10,70,013,37,23,46,078,40,27,24,243,45,8*6D
$GPGSV,2,2,08,24,24,051,43,08,22,281,36,18,20,147,38,28,16,178,44,8*61
$GLGSV,3,1,09,81,65,273,42,66,62,314,38,65,38,040,34,88,36,182,48,1*79
$GLGSV,3,2,09,82,27,327,33,67,22,259,39,75,18,070,33,76,06,124,41,1*75
$GLGSV,3,3,09,74,06,020,36,1*43
$GAGSV,2,1,07,12,78,189,36,10,69,298,39,19,66,045,36,04,51,234,41,7*75
$GAGSV,2,2,07,11,41,314,27,33,24,148,45,09,03,231,48,7*4E
$GAGSV,2,1,07,12,78,189,39,10,69,298,41,19,66,045,29,04,51,234,44,1*78
$GAGSV,2,2,07,11,41,314,31,33,24,148,40,09,03,231,37,1*42
$GBGSV,3,1,10,32,70,327,39,30,49,250,48,41,36,061,37,27,28,188,48,1*7B
$GBGSV,3,2,10,20,24,267,46,29,23,313,41,23,20,120,41,25,19,068,34,1*7E
$GBGSV,3,3,10,40,06,333,36,37,01,165,52,1*73
$GBGSV,3,1,10,32,70,327,39,30,49,250,42,41,36,061,40,27,28,188,46,5*7B
$GBGSV,3,2,10,20,24,267,40,29,23,313,38,23,20,120,38,25,19,068,41,5*7E
$GBGSV,3,3,10,40,06,333,29,37,01,165,51,5*7A
$GNGGA,050727.000,4005.098638,N,10513.208586,W,2,57,0.44,1583.112,M,-20.670,M,,*7F
$GPGSV,3,1,11,32,71,243,43,10,70,013,41,23,46,078,41,48,39,209,47,1*65
$GPGSV,3,2,11,27,24,243,48,24,24,051,41,08,22,281,38,21,21,316,34,1*65
$GPGSV,3,3,11,18,19,148,43,28,16,178,50,02,07,320,33,1*5D
$GPGSV,2,1,08,32,71,243,35,10,70,013,37,23,46,078,40,27,24,243,45,8*6D
$GPGSV,2,2,08,24,24,051,43,08,22,281,36,18,19,148,38,28,16,178,44,8*64
$GLGSV,3,1,09,81,65,273,41,66,62,314,38,65,38,040,35,88,36,182,48,1*7B
$GLGSV,3,2,09,82,27,327,31,67,22,259,38,75,18,070,33,76,06,124,41,1*76
$GLGSV,3,3,09,74,06,020,34,1*41
$GAGSV,2,1,07,12,78,189,36,10,69,298,39,19,66,045,36,04,51,234,41,7*75
$GAGSV,2,2,07,11,41,314,29,33,24,148,45,09,03,231,48,7*40
$GAGSV,2,1,07,12,78,189,39,10,69,298,41,19,66,045,29,04,51,234,44,1*78
$GAGSV,2,2,07,11,41,314,31,33,24,148,40,09,03,231,37,1*42
$GBGSV,3,1,10,32,70,327,37,30,49,250,48,41,36,061,36,27,28,188,48,1*74
$GBGSV,3,2,10,20,24,267,46,29,23,313,41,23,20,120,41,25,19,068,34,1*7E
$GBGSV,3,3,10,40,06,333,36,37,01,165,52,1*73
$GBGSV,3,1,10,32,70,327,39,30,49,250,42,41,36,061,40,27,28,188,46,5*7B
$GBGSV,3,2,10,20,24,267,40,29,23,313,38,23,20,120,38,25,19,068,41,5*7E
$GBGSV,3,3,10,40,06,333,29,37,01,165,51,5*7A
$GNGGA,050732.000,4005.098644,N,10513.208646,W,2,57,0.44,1583.130,M,-20.670,M,,*7F
$GPGSV,3,1,11,32,71,243,43,10,70,013,41,23,45,079,42,48,39,209,47,1*64
$GPGSV,3,2,11,27,24,243,48,24,24,051,40,21,22,316,33,08,22,281,38,1*60
$GPGSV,3,3,11,18,19,148,44,28,16,178,50,02,07,320,34,1*5D
$GPGSV,2,1,08,32,71,243,35,10,70,013,37,23,45,079,40,27,24,243,45,8*6F
$GPGSV,2,2,08,24,24,051,42,08,22,281,36,18,19,148,38,28,16,178,43,8*62
$GLGSV,3,1,09,81,65,273,40,66,62,314,39,65,38,040,35,88,36,182,48,1*7B
$GLGSV,3,2,09,82,27,327,32,67,22,259,38,75,18,070,34,76,06,124,41,1*72
$GLGSV,3,3,09,74,06,020,34,1*41
$GAGSV,2,1,07,12,78,189,36,10,69,298,39,19,66,045,36,04,51,234,41,7*75
$GAGSV,2,2,07,11,41,314,29,33,24,148,45,09,03,231,48,7*40
$GAGSV,2,1,07,12,78,189,39,10,69,298,41,19,66,045,29,04,51,234,44,1*78
$GAGSV,2,2,07,11,41,314,31,33,24,148,40,09,03,231,38,1*4D
$GBGSV,3,1,10,32,70,327,36,30,49,250,48,41,36,061,36,27,28,188,49,1*74
$GBGSV,3,2,10,20,24,267,46,29,23,313,40,23,20,120,41,25,19,068,36,1*7D
$GBGSV,3,3,10,40,06,333,36,37,01,165,52,1*73
$GBGSV,3,1,10,32,70,327,39,30,49,250,42,41,36,061,40,27,28,188,46,5*7B
$GBGSV,3,2,10,20,24,267,41,29,23,313,38,23,20,120,38,25,19,068,41,5*7F
$GBGSV,3,3,10,40,06,333,30,37,01,165,51,5*72
$GNGGA,050737.000,4005.098650,N,10513.208664,W,2,57,0.44,1583.124,M,-20.670,M,,*7A
$GPGSV,3,1,11,32,71,243,43,10,70,013,41,23,45,079,42,48,39,209,47,1*64
$GPGSV,3,2,11,27,24,242,48,24,23,050,40,21,22,316,32,08,22,281,38,1*66
$GPGSV,3,3,11,18,19,148,44,28,17,178,50,02,07,320,34,1*5C
$GPGSV,2,1,08,32,71,243,35,10,70,013,37,23,45,079,40,27,24,242,45,8*6E
$GPGSV,2,2,08,24,23,050,42,08,22,281,36,18,19,148,38,28,17,178,43,8*65
$GLGSV,3,1,09,81,65,273,41,66,62,314,39,65,38,040,35,88,36,182,48,1*7A
$GLGSV,3,2,09,82,27,327,30,67,22,259,38,75,18,070,34,76,06,124,40,1*71
$GLGSV,3,3,09,74,06,020,34,1*41
$GAGSV,2,1,07,12,78,189,36,10,69,298,39,19,66,045,35,04,51,234,41,7*76
$GAGSV,2,2,07,11,41,314,30,33,24,148,45,09,03,231,48,7*48
$GAGSV,2,1,07,12,78,189,39,10,69,298,41,19,66,045,29,04,51,234,44,1*78
$GAGSV,2,2,07,11,41,314,31,33,24,148,40,09,03,231,38,1*4D
$GBGSV,3,1,10,32,70,327,36,30,49,250,48,41,36,061,36,27,28,188,49,1*74
$GBGSV,3,2,10,20,24,267,46,29,23,313,41,23,20,120,41,25,19,068,37,1*7D
$GBGSV,3,3,10,40,06,333,36,37,01,165,52,1*73
$GBGSV,3,1,10,32,70,327,39,30,49,250,42,41,36,061,39,27,28,188,46,5*75
$GBGSV,3,2,10,20,24,267,41,29,23,313,38,23,20,120,38,25,19,068,42,5*7C
$GBGSV,3,3,10,40,06,333,31,37,01,165,51,5*73
$GNGGA,050742.000,4005.098662,N,10513.208658,W,2,57,0.44,1583.106,M,-20.670,M,,*76
$GPGSV,3,1,11,32,72,246,43,10,70,013,41,23,45,079,43,48,39,209,47,1*63
$GPGSV,3,2,11,27,24,242,48,24,23,050,40,21,22,316,34,08,22,281,38,1*60
$GPGSV,3,3,11,18,19,148,44,28,17,178,50,02,07,320,35,1*5D
$GPGSV,2,1,08,32,72,246,35,10,70,013,37,23,45,079,39,27,24,242,45,8*66
$GPGSV,2,2,08,24,23,050,42,08,22,281,36,18,19,148,37,28,17,178,42,8*6B
$GLGSV,3,1,09,81,65,273,41,66,62,314,38,65,38,040,34,88,36,182,48,1*7A
$GLGSV,3,2,09,82,27,327,29,67,22,259,40,75,18,070,31,76,06,124,40,1*73
$GLGSV,3,3,09,74,06,020,34,1*41
$GAGSV,2,1,07,12,78,189,36,10,69,298,39,19,66,045,35,04,51,234,41,7*76
$GAGSV,2,2,07,11,41,314,30,33,24,148,45,09,03,231,48,7*48
$GAGSV,2,1,07,12,78,189,39,10,69,298,41,19,66,045,29,04,51,234,44,1*78
$GAGSV,2,2,07,11,41,314,31,33,24,148,40,09,03,231,38,1*4D
$GBGSV,3,1,10,32,70,327,36,30,49,250,48,41,36,061,36,27,28,188,49,1*74
$GBGSV,3,2,10,20,24,267,46,29,23,313,41,23,20,120,41,25,19,068,37,1*7D
$GBGSV,3,3,10,40,06,333,36,37,01,165,52,1*73
$GBGSV,3,1,10,32,70,327,39,30,49,250,42,41,36,061,39,27,28,188,45,5*76
$GBGSV,3,2,10,20,24,267,41,29,23,313,38,23,20,120,38,25,19,068,42,5*7C
$GBGSV,3,3,10,40,06,333,31,37,01,165,51,5*73
$GNGGA,050747.000,4005.098650,N,10513.208604,W,2,57,0.44,1583.261,M,-20.670,M,,*79
$GPGSV,3,1,11,32,72,246,43,10,70,013,42,23,45,079,43,48,39,209,47,1*60
$GPGSV,3,2,11,27,24,242,48,24,23,050,41,21,22,316,35,08,22,281,38,1*60
$GPGSV,3,3,11,18,19,148,45,28,17,178,50,02,07,320,35,1*5C
$GPGSV,2,1,08,32,72,246,35,10,70,013,37,23,45,079,39,27,24,242,45,8*66
$GPGSV,2,2,08,24,23,050,42,08,22,281,37,18,19,148,37,28,17,178,42,8*6A
$GLGSV,3,1,09,81,65,273,40,66,62,314,38,65,38,040,34,88,36,182,48,1*7B
$GLGSV,3,2,09,82,27,327,33,67,22,259,41,75,18,070,30,76,06,124,39,1*76
$GLGSV,3,3,09,74,06,020,35,1*40
$GAGSV,2,1,07,12,78,189,36,10,69,298,39,19,66,045,34,04,51,234,41,7*77
$GAGSV,2,2,07,11,41,314,30,33,24,148,45,09,03,231,48,7*48
$GAGSV,2,1,07,12,78,189,39,10,69,298,41,19,66,045,29,04,51,234,44,1*78
$GAGSV,2,2,07,11,41,314,31,33,24,148,40,09,03,231,38,1*4D
$GBGSV,3,1,10,32,70,327,38,30,49,250,48,41,36,061,37,27,28,188,49,1*7B
$GBGSV,3,2,10,20,24,267,46,29,23,313,41,23,20,120,41,25,19,068,37,1*7D
$GBGSV,3,3,10,40,06,333,36,37,01,165,51,1*70
$GBGSV,3,1,10,32,70,327,39,30,49,250,42,41,36,061,39,27,28,188,45,5*76
$GBGSV,3,2,10,20,24,267,41,29,23,313,38,23,20,120,38,25,19,068,42,5*7C
$GBGSV,3,3,10,40,06,333,31,37,01,165,51,5*73
$GNGGA,050752.000,4005.098626,N,10513.208544,W,2,57,0.44,1583.346,M,-20.670,M,,*7F
$GPGSV,3,1,11,32,72,246,43,10,70,013,42,23,45,079,43,48,39,209,47,1*60
$GPGSV,3,2,11,27,24,242,48,24,23,050,41,21,22,316,35,08,22,281,38,1*60
$GPGSV,3,3,11,18,19,148,45,28,17,178,50,02,07,320,36,1*5F
$GPGSV,2,1,08,32,72,246,35,10,70,013,37,23,45,079,39,27,24,242,45,8*66
$GPGSV,2,2,08,24,23,050,42,08,22,281,37,18,19,148,37,28,17,178,42,8*6A
$GLGSV,3,1,09,81,65,273,42,66,62,314,38,65,38,040,34,88,36,182,48,1*79
$GLGSV,3,2,09,82,27,327,32,67,22,259,41,75,18,070,31,76,06,124,36,1*79
$GLGSV,3,3,09,74,06,020,36,1*43
$GAGSV,2,1,07,12,78,189,36,10,69,298,39,19,66,045,34,04,51,235,41,7*76
$GAGSV,2,2,07,11,41,314,27,33,24,148,45,09,03,231,48,7*4E
$GAGSV,2,1,07,12,78,189,39,10,69,298,41,19,66,045,29,04,51,235,44,1*79
$GAGSV,2,2,07,11,41,314,31,33,24,148,39,09,03,231,38,1*43
$GBGSV,3,1,10,32,70,327,38,30,49,250,48,41,36,061,38,27,28,188,49,1*74
$GBGSV,3,2,10,20,24,267,46,29,23,313,40,23,20,120,41,25,19,068,37,1*7C
$GBGSV,3,3,10,40,06,333,36,37,01,165,51,1*70
$GBGSV,3,1,10,32,70,327,39,30,49,250,42,41,36,061,39,27,28,188,45,5*76
$GBGSV,3,2,10,20,24,267,41,29,23,313,38,23,20,120,38,25,19,068,42,5*7C
$GBGSV,3,3,10,40,06,333,31,37,01,165,51,5*73
$GNGGA,050757.000,4005.098620,N,10513.208478,W,2,57,0.44,1583.218,M,-20.670,M,,*78
$GPGSV,3,1,11,32,72,246,43,10,70,013,42,23,45,079,43,48,39,209,47,1*60
$GPGSV,3,2,11,27,24,242,48,24,23,050,41,21,22,316,35,08,22,281,38,1*60
$GPGSV,3,3,11,18,19,148,45,28,17,178,50,02,07,320,36,1*5F
$GPGSV,2,1,08,32,72,246,35,10,70,013,37,23,45,079,39,27,24,242,45,8*66
$GPGSV,2,2,08,24,23,050,42,08,22,281,37,18,19,148,37,28,17,178,42,8*6A
$GLGSV,3,1,09,81,65,273,43,66,62,314,40,65,38,040,34,88,36,182,48,1*77
$GLGSV,3,2,09,82,27,327,34,67,22,259,41,75,18,070,32,76,06,124,36,1*7C
$GLGSV,3,3,09,74,06,020,36,1*43
$GAGSV,2,1,07,12,78,189,36,10,69,298,39,19,66,045,34,04,51,235,41,7*76
$GAGSV,2,2,07,11,41,314,27,33,24,148,45,09,03,232,48,7*4D
$GAGSV,2,1,07,12,78,189,39,10,69,298,41,19,66,045,29,04,51,235,44,1*79
$GAGSV,2,2,07,11,41,314,31,33,24,148,39,09,03,232,40,1*4F
$GBGSV,3,1,10,32,70,327,39,30,49,250,48,41,36,061,37,27,28,188,49,1*7A
$GBGSV,3,2,10,20,24,267,46,29,23,313,40,23,20,120,40,25,19,068,37,1*7D
$GBGSV,3,3,10,40,06,333,36,37,01,165,51,1*70
$GBGSV,3,1,10,32,70,327,39,30,49,250,42,41,36,061,39,27,28,188,45,5*76
$GBGSV,3,2,10,20,24,267,41,29,23,313,38,23,20,120,38,25,19,068,42,5*7C
$GBGSV,3,3,10,40,06,333,32,37,01,165,51,5*70
$GNGGA,050802.000,4005.098566,N,10513.208418,W,2,57,0.44,1583.160,M,-20.670,M,,*7C
$GPGSV,3,1,11,32,72,246,43,10,70,013,42,23,45,079,43,48,39,209,47,1*60
$GPGSV,3,2,11,27,24,242,48,24,23,050,41,21,22,316,35,08,22,281,39,1*61
$GPGSV,3,3,11,18,19,148,45,28,17,178,50,02,07,320,36,1*5F
$GPGSV,2,1,08,32,72,246,35,10,70,013,37,23,45,079,39,27,24,242,45,8*66
$GPGSV,2,2,08,24,23,050,41,08,22,281,37,18,19,148,37,28,17,178,41,8*6A
$GLGSV,3,1,09,81,65,273,42,66,62,314,39,65,38,040,34,88,36,182,47,1*77
$GLGSV,3,2,09,82,27,327,34,67,22,259,42,75,18,070,32,76,06,124,36,1*7F
$GLGSV,3,3,09,74,06,020,36,1*43
$GAGSV,2,1,07,12,76,188,36,10,70,295,39,19,66,045,34,04,51,235,41,7*7C
$GAGSV,2,2,07,11,42,313,28,33,24,148,45,09,03,232,48,7*46
$GAGSV,2,1,07,12,76,188,39,10,70,295,41,19,66,045,29,04,51,235,44,1*73
$GAGSV,2,2,07,11,42,313,31,33,24,148,39,09,03,232,40,1*4B
$GBGSV,3,1,10,32,70,327,39,30,49,250,48,41,36,061,36,27,28,188,49,1*7B
$GBGSV,3,2,10,20,24,267,46,29,23,313,40,23,20,120,40,25,19,068,37,1*7D
$GBGSV,3,3,10,40,06,333,35,37,01,165,51,1*73
$GBGSV,3,1,10,32,70,327,39,30,49,250,42,41,36,061,39,27,28,188,44,5*77
$GBGSV,3,2,10,20,24,267,41,29,23,313,38,23,20,120,38,25,19,068,42,5*7C
$GBGSV,3,3,10,40,06,333,32,37,01,165,51,5*70
$GNGGA,050807.000,4005.098548,N,10513.208352,W,2,57,0.44,1583.111,M,-20.670,M,,*7A
$GPGSV,3,1,11,32,72,246,43,10,70,013,42,23,45,079,43,48,39,209,47,1*60
$GPGSV,3,2,11,27,24,242,48,24,23,050,40,21,22,316,34,08,22,281,40,1*6F
$GPGSV,3,3,11,18,19,148,46,28,17,178,50,02,07,320,36,1*5C
$GPGSV,2,1,08,32,72,246,34,10,70,013,36,23,45,079,39,27,24,242,45,8*66
$GPGSV,2,2,08,24,23,050,41,08,22,281,37,18,19,148,37,28,17,178,41,8*6A
$GLGSV,3,1,09,81,65,273,42,66,62,314,39,65,38,040,35,88,36,182,47,1*76
$GLGSV,3,2,09,82,27,327,34,67,22,259,42,75,18,070,31,76,06,124,34,1*7E
$GLGSV,3,3,09,74,06,020,36,1*43
$GAGSV,2,1,07,12,76,188,36,10,70,295,38,19,65,045,34,04,51,235,41,7*7E
$GAGSV,2,2,07,11,42,313,28,33,24,148,45,09,03,232,48,7*46
$GAGSV,2,1,07,12,76,188,39,10,70,295,41,19,65,045,28,04,51,235,44,1*71
$GAGSV,2,2,07,11,42,313,32,33,24,148,39,09,03,232,40,1*48
$GBGSV,3,1,10,32,70,327,39,30,49,250,48,41,36,061,35,27,28,188,50,1*70
$GBGSV,3,2,10,20,24,267,46,29,23,313,40,23,20,120,40,25,19,068,37,1*7D
$GBGSV,3,3,10,40,06,333,35,37,01,165,50,1*72
$GBGSV,3,1,10,32,70,327,39,30,49,250,42,41,36,061,38,27,28,188,44,5*76
$GBGSV,3,2,10,20,24,267,41,29,23,313,37,23,20,120,38,25,19,068,42,5*73
$GBGSV,3,3,10,40,06,333,32,37,01,165,51,5*70
$GNGGA,050812.000,4005.098530,N,10513.208268,W,2,57,0.44,1583.025,M,-20.670,M,,*7F
$GPGSV,3,1,11,32,72,246,43,10,70,013,42,23,45,079,43,48,39,209,47,1*60
$GPGSV,3,2,11,27,24,242,48,24,23,050,39,21,22,316,34,08,22,281,40,1*61
$GPGSV,3,3,11,18,19,148,46,28,17,178,50,02,07,320,36,1*5C
$GPGSV,2,1,08,32,72,246,34,10,70,013,36,23,45,079,39,27,24,242,45,8*66
$GPGSV,2,2,08,24,23,050,41,08,22,281,37,18,19,148,37,28,17,178,40,8*6B
$GLGSV,3,1,09,81,65,273,42,66,62,314,39,65,38,040,34,88,36,182,48,1*78
$GLGSV,3,2,09,82,27,327,36,67,22,259,42,75,18,070,31,74,06,020,35,1*7A
$GLGSV,3,3,09,76,06,124,34,1*46
$GAGSV,2,1,07,12,76,188,36,10,70,295,37,19,65,045,34,04,51,235,41,7*71
$GAGSV,2,2,07,11,42,313,30,33,24,148,45,09,03,232,48,7*4F
$GAGSV,2,1,07,12,76,188,39,10,70,295,41,19,65,045,28,04,51,235,44,1*71
$GAGSV,2,2,07,11,42,313,32,33,24,148,38,09,03,232,42,1*4B
$GBGSV,3,1,11,32,70,327,39,30,49,250,48,41,36,061,34,27,28,188,50,1*70
$GBGSV,3,2,11,20,24,267,46,29,23,313,40,23,20,120,40,25,19,068,37,1*7C
$GBGSV,3,3,11,40,06,333,35,37,01,165,50,63,,,28,1*7C
$GBGSV,3,1,10,32,70,327,39,30,49,250,42,41,36,061,38,27,28,188,44,5*76
$GBGSV,3,2,10,20,24,267,41,29,23,313,37,23,20,120,38,25,19,068,42,5*73
$GBGSV,3,3,10,40,06,333,33,37,01,165,51,5*71
$GNGGA,050817.000,4005.098506,N,10513.208274,W,2,57,0.44,1582.953,M,-20.670,M,,*7B
$GPGSV,3,1,11,32,72,246,43,10,70,013,42,23,45,079,43,48,39,209,47,1*60
$GPGSV,3,2,11,27,24,242,48,24,23,050,39,21,22,316,34,08,22,281,40,1*61
$GPGSV,3,3,11,18,19,148,47,28,17,178,50,02,07,320,37,1*5C
$GPGSV,2,1,08,32,72,246,34,10,70,013,36,23,45,079,39,27,24,242,45,8*66
$GPGSV,2,2,08,24,23,050,42,08,22,281,37,18,19,148,37,28,17,178,40,8*68
$GLGSV,3,1,09,81,65,273,42,66,62,314,38,65,38,040,34,88,36,182,48,1*79
$GLGSV,3,2,09,82,27,327,35,67,22,259,42,75,18,070,33,76,06,124,37,1*7E
$GLGSV,3,3,09,74,06,020,34,1*41
$GAGSV,2,1,07,12,76,188,37,10,70,295,37,19,65,045,34,04,51,235,41,7*70
$GAGSV,2,2,07,11,42,313,31,33,24,148,45,09,03,232,48,7*4E
$GAGSV,2,1,07,12,76,188,39,10,70,295,41,19,65,045,28,04,51,235,44,1*71
$GAGSV,2,2,07,11,42,313,32,33,24,148,38,09,03,232,42,1*4B
$GBGSV,3,1,10,32,70,327,39,30,49,250,48,41,36,061,33,27,28,188,50,1*76
$GBGSV,3,2,10,20,24,267,46,29,23,313,41,23,20,120,40,25,19,068,37,1*7C
$GBGSV,3,3,10,40,06,333,34,37,01,165,49,1*7B
$GBGSV,3,1,10,32,70,327,39,30,49,250,42,41,36,061,38,27,28,188,44,5*76
$GBGSV,3,2,10,20,24,267,41,29,23,313,36,23,20,120,38,25,19,068,42,5*72
$GBGSV,3,3,10,40,06,333,33,37,01,165,51,5*71
$GNGGA,050822.000,4005.098494,N,10513.208346,W,2,57,0.44,1582.914,M,-20.669,M,,*7C
$GPGSV,3,1,11,32,72,246,43,10,70,013,42,23,45,079,43,48,39,209,47,1*60
$GPGSV,3,2,11,27,24,242,48,24,23,050,39,21,22,316,35,08,22,281,40,1*60
$GPGSV,3,3,11,18,19,148,47,28,17,178,50,02,07,320,37,1*5C
$GPGSV,2,1,08,32,72,246,35,10,70,013,36,23,45,079,39,27,24,242,45,8*67
$GPGSV,2,2,08,24,23,050,42,08,22,281,37,18,19,148,38,28,17,178,40,8*67
$GLGSV,3,1,09,81,65,273,43,66,62,314,39,65,38,040,35,88,36,182,48,1*78
$GLGSV,3,2,09,82,27,327,33,67,22,259,42,75,18,070,34,74,06,020,32,1*7D
$GLGSV,3,3,09,76,06,124,37,1*45
$GAGSV,2,1,07,12,76,188,37,10,70,295,37,19,65,045,35,04,51,235,42,7*72
$GAGSV,2,2,07,11,42,313,31,33,23,148,45,09,03,232,48,7*49
$GAGSV,2,1,07,12,76,188,39,10,70,295,41,19,65,045,29,04,51,235,44,1*70
$GAGSV,2,2,07,11,42,313,33,33,23,148,38,09,03,232,43,1*4C
$GBGSV,3,1,11,32,70,327,39,30,49,250,48,41,36,061,33,27,28,188,51,1*76
$GBGSV,3,2,11,20,24,267,46,29,23,313,41,23,20,120,40,25,19,068,37,1*7D
$GBGSV,3,3,11,40,06,333,34,37,01,165,48,63,,,26,1*7A
$GBGSV,3,1,10,32,70,327,39,30,49,250,42,41,36,061,38,27,28,188,44,5*76
$GBGSV,3,2,10,20,24,267,41,29,23,313,36,23,20,120,38,25,19,068,42,5*72
$GBGSV,3,3,10,40,06,333,33,37,01,165,51,5*71
$GNGGA,050827.000,4005.098482,N,10513.208382,W,2,57,0.44,1582.945,M,-20.670,M,,*7A
$GPGSV,3,1,11,32,72,246,43,10,70,013,42,23,45,079,43,48,39,209,47,1*60
$GPGSV,3,2,11,27,24,242,48,24,23,050,39,21,22,316,34,08,22,281,40,1*61
$GPGSV,3,3,11,18,19,148,47,28,17,178,50,02,07,320,37,1*5C
$GPGSV,2,1,08,32,72,246,35,10,70,013,36,23,45,079,39,27,24,242,45,8*67
$GPGSV,2,2,08,24,23,050,42,08,22,281,37,18,19,148,38,28,17,178,39,8*69
$GLGSV,3,1,09,81,65,273,43,66,62,317,39,65,37,041,35,88,36,182,48,1*75
$GLGSV,3,2,09,82,27,327,33,67,23,261,42,75,18,070,31,76,06,124,37,1*70
$GLGSV,3,3,09,74,06,020,32,1*47
$GAGSV,2,1,07,12,76,188,37,10,70,295,39,19,65,045,35,04,51,235,42,7*7C
$GAGSV,2,2,07,11,42,313,31,33,23,148,45,09,03,232,48,7*49
$GAGSV,2,1,07,12,76,188,39,10,70,295,41,19,65,045,28,04,51,235,44,1*71
$GAGSV,2,2,07,11,42,313,33,33,23,148,38,09,03,232,43,1*4C
$GBGSV,3,1,10,32,70,327,38,30,49,250,47,41,36,061,31,27,28,188,51,1*7B
$GBGSV,3,2,10,20,24,267,46,29,23,313,42,23,20,120,41,25,19,068,36,1*7F
$GBGSV,3,3,10,40,06,333,34,37,01,165,48,1*7A
$GBGSV,3,1,10,32,70,327,39,30,49,250,42,41,36,061,38,27,28,188,44,5*76
$GBGSV,3,2,10,20,24,267,41,29,23,313,36,23,20,120,38,25,19,068,42,5*72
$GBGSV,3,3,10,40,06,333,33,37,01,165,51,5*71
$GNGGA,050832.000,4005.098494,N,10513.208394,W,2,57,0.44,1582.965,M,-20.670,M,,*7C
$GPGSV,3,1,11,32,72,246,43,10,70,013,42,23,45,079,43,48,39,209,47,1*60
$GPGSV,3,2,11,27,24,242,48,24,23,050,38,21,22,316,34,08,22,281,40,1*60
$GPGSV,3,3,11,18,19,148,47,28,17,178,50,02,07,320,37,1*5C
$GPGSV,2,1,08,32,72,246,35,10,70,013,36,23,45,079,39,27,24,242,45,8*67
$GPGSV,2,2,08,24,23,050,42,08,22,281,37,18,19,148,38,28,17,178,39,8*69
$GLGSV,3,1,09,81,65,273,42,66,62,317,40,65,37,041,36,88,36,182,48,1*79
$GLGSV,3,2,09,82,27,327,33,67,23,261,43,75,18,070,29,76,06,124,39,1*76
$GLGSV,3,3,09,74,06,020,31,1*44
$GAGSV,2,1,07,12,76,188,37,10,70,295,39,19,65,045,35,04,51,235,42,7*7C
$GAGSV,2,2,07,11,42,313,30,33,23,148,45,09,03,232,48,7*48
$GAGSV,2,1,07,12,76,188,39,10,70,295,41,19,65,045,28,04,51,235,44,1*71
$GAGSV,2,2,07,11,42,313,33,33,23,148,38,09,03,232,43,1*4C
$GBGSV,3,1,10,32,70,327,38,30,49,250,47,41,36,061,31,27,28,188,51,1*7B
$GBGSV,3,2,10,20,24,267,46,29,23,313,42,23,20,120,41,25,19,068,35,1*7C
$GBGSV,3,3,10,40,06,333,34,37,01,165,48,1*7A
$GBGSV,3,1,10,32,70,327,39,30,49,250,42,41,36,061,38,27,28,188,43,5*71
$GBGSV,3,2,10,20,24,267,41,29,23,313,36,23,20,120,38,25,19,068,42,5*72
$GBGSV,3,3,10,40,06,333,33,37,01,165,51,5*71
$GNGGA,050837.000,4005.098506,N,10513.208424,W,2,57,0.44,1582.924,M,-20.670,M,,*7A
$GPGSV,3,1,11,32,72,246,43,10,70,013,42,23,45,079,43,48,39,209,47,1*60
$GPGSV,3,2,11,27,24,242,48,24,23,050,37,21,22,316,34,08,22,281,40,1*6F
$GPGSV,3,3,11,18,19,148,47,28,17,178,49,02,07,320,37,1*54
$GPGSV,2,1,08,32,72,246,35,10,70,013,36,23,45,079,39,27,24,242,44,8*66
$GPGSV,2,2,08,24,23,050,42,08,22,281,37,18,19,148,38,28,17,178,38,8*68
$GLGSV,3,1,09,81,65,273,42,66,62,317,40,65,37,041,36,88,36,182,48,1*79
$GLGSV,3,2,09,82,27,327,33,67,23,261,43,75,19,068,27,76,08,123,37,1*77
$GLGSV,3,3,09,74,05,018,29,1*45
$GAGSV,2,1,07,12,76,188,36,10,70,295,39,19,65,045,35,04,51,235,42,7*7D
$GAGSV,2,2,07,11,42,313,29,33,23,148,45,09,03,232,48,7*40
$GAGSV,2,1,07,12,76,188,39,10,70,295,41,19,65,045,27,04,51,235,44,1*7E
$GAGSV,2,2,07,11,42,313,33,33,23,148,38,09,03,232,43,1*4C
$GBGSV,3,1,10,32,70,327,38,30,49,250,47,41,36,061,32,27,28,188,51,1*78
$GBGSV,3,2,10,20,24,267,46,29,23,313,42,23,20,120,41,25,19,068,34,1*7D
$GBGSV,3,3,10,40,06,333,34,37,01,165,48,1*7A
$GBGSV,3,1,10,32,70,327,39,30,49,250,42,41,36,061,38,27,28,188,43,5*71
$GBGSV,3,2,10,20,24,267,41,29,23,313,35,23,20,120,38,25,19,068,42,5*71
$GBGSV,3,3,10,40,06,333,33,37,01,165,51,5*71
$GNGGA,050842.000,4005.098536,N,10513.208424,W,2,57,0.44,1582.782,M,-20.670,M,,*79
$GPGSV,3,1,11,32,72,246,43,10,70,013,42,23,45,079,43,48,39,209,47,1*60
$GPGSV,3,2,11,27,24,242,48,24,23,050,37,21,22,316,36,08,22,281,40,1*6D
$GPGSV,3,3,11,18,19,148,47,28,17,178,49,02,07,320,37,1*54
$GPGSV,2,1,08,32,72,246,35,10,70,013,36,23,45,079,38,27,24,242,44,8*67
$GPGSV,2,2,08,24,23,050,42,08,22,281,37,18,19,148,39,28,17,178,38,8*69
$GLGSV,3,1,09,81,65,269,42,66,62,317,40,65,37,041,36,88,36,182,48,1*72
$GLGSV,3,2,09,82,28,327,34,67,23,261,43,75,19,068,20,76,08,123,37,1*78
$GLGSV,3,3,09,74,05,018,29,1*45
$GAGSV,2,1,07,12,76,188,36,10,70,295,39,19,65,045,35,04,51,235,42,7*7D
$GAGSV,2,2,07,11,42,313,27,33,23,148,45,09,03,232,48,7*4E
$GAGSV,2,1,07,12,76,188,39,10,70,295,41,19,65,045,28,04,51,235,44,1*71
$GAGSV,2,2,07,11,42,313,33,33,23,148,37,09,03,232,43,1*43
$GBGSV,3,1,11,32,70,327,38,30,49,250,47,41,36,061,32,27,28,188,51,1*79
$GBGSV,3,2,11,20,24,267,46,29,23,313,42,23,20,120,41,25,19,068,35,1*7D
$GBGSV,3,3,11,40,06,333,34,37,01,165,48,63,,,28,1*74
$GBGSV,3,1,10,32,70,327,39,30,49,250,42,41,36,061,38,27,28,188,43,5*71
$GBGSV,3,2,10,20,24,267,41,29,23,313,35,23,20,120,38,25,19,068,42,5*71
$GBGSV,3,3,10,40,06,333,33,37,01,165,51,5*71
$GNGGA,050847.000,4005.098530,N,10513.208370,W,2,57,0.44,1582.706,M,-20.669,M,,*78
$GPGSV,3,1,11,32,72,246,43,10,70,013,42,23,45,079,43,48,39,209,47,1*60
$GPGSV,3,2,11,27,24,242,47,24,23,050,36,21,22,316,37,08,22,281,40,1*62
$GPGSV,3,3,11,18,19,148,48,28,17,178,49,02,07,320,37,1*5B
$GPGSV,2,1,08,32,72,246,35,10,70,013,36,23,45,079,38,27,24,242,44,8*67
$GPGSV,2,2,08,24,23,050,42,08,22,281,37,18,19,148,39,28,17,178,38,8*69
$GLGSV,3,1,09,81,65,269,42,66,62,317,39,65,37,041,36,88,36,182,48,1*7C
$GLGSV,3,2,09,82,28,327,34,67,23,261,43,75,19,068,22,76,08,123,38,1*75
$GLGSV,3,3,09,74,05,018,29,1*45
$GAGSV,2,1,07,12,76,188,36,10,70,295,39,19,65,045,35,04,51,235,42,7*7D
$GAGSV,2,2,07,11,42,313,27,33,23,148,45,09,03,232,48,7*4E
$GAGSV,2,1,07,12,76,188,39,10,70,295,41,19,65,045,28,04,51,235,44,1*71
$GAGSV,2,2,07,11,42,313,34,33,23,148,37,09,03,232,43,1*44
$GBGSV,3,1,11,32,70,327,38,30,49,250,47,41,36,061,33,27,28,188,51,1*78
$GBGSV,3,2,11,20,24,267,46,29,23,313,42,23,20,120,41,25,19,068,36,1*7E
$GBGSV,3,3,11,40,06,333,34,37,01,165,48,63,,,29,1*75
$GBGSV,3,1,10,32,70,327,39,30,49,250,42,41,36,061,38,27,28,188,42,5*70
$GBGSV,3,2,10,20,24,267,41,29,23,313,35,23,20,120,39,25,19,068,42,5*70
$GBGSV,3,3,10,40,06,333,33,37,01,165,51,5*71
$GNGGA,050852.000,4005.098542,N,10513.208304,W,2,57,0.44,1582.621,M,-20.670,M,,*76
$GPGSV,3,1,11,32,72,246,43,10,70,013,42,23,45,079,43,48,39,209,47,1*60
$GPGSV,3,2,11,27,24,242,47,24,23,050,36,21,22,316,37,08,22,281,40,1*62
$GPGSV,3,3,11,18,19,148,48,28,17,178,49,02,07,320,37,1*5B
$GPGSV,2,1,08,32,72,246,35,10,70,013,36,23,45,079,38,27,24,242,44,8*67
$GPGSV,2,2,08,24,23,050,42,08,22,281,38,18,19,148,40,28,17,178,38,8*68
$GLGSV,3,1,09,81,65,269,42,66,62,317,40,65,37,041,36,88,34,183,47,1*7E
$GLGSV,3,2,09,82,28,327,35,67,23,261,43,75,19,068,27,76,08,123,38,1*71
$GLGSV,3,3,09,74,05,018,30,1*4D
$GAGSV,2,1,07,12,76,188,36,10,70,295,39,19,65,045,34,04,51,235,42,7*7C
$GAGSV,2,2,07,11,42,313,27,33,23,148,45,09,03,232,48,7*4E
$GAGSV,2,1,07,12,76,188,39,10,70,295,41,19,65,045,28,04,51,235,44,1*71
$GAGSV,2,2,07,11,42,313,35,33,23,148,37,09,03,232,43,1*45
$GBGSV,3,1,11,32,70,327,38,30,49,250,47,41,36,061,35,27,28,188,51,1*7E
$GBGSV,3,2,11,20,24,267,46,29,23,313,42,23,20,120,41,25,19,068,36,1*7E
$GBGSV,3,3,11,40,06,333,33,37,01,165,48,63,,,29,1*72
$GBGSV,3,1,10,32,70,327,39,30,49,250,42,41,36,061,38,27,28,188,42,5*70
$GBGSV,3,2,10,20,24,267,41,29,23,313,35,23,20,120,39,25,19,068,42,5*70
$GBGSV,3,3,10,40,06,333,33,37,01,165,51,5*71
$GNGGA,050857.000,4005.098512,N,10513.208232,W,2,57,0.44,1582.549,M,-20.670,M,,*7F
$GPGSV,3,1,11,32,72,246,43,10,70,013,42,23,45,079,43,48,39,209,47,1*60
$GPGSV,3,2,11,27,24,242,47,24,23,050,36,21,22,316,37,08,22,281,40,1*62
$GPGSV,3,3,11,18,19,148,48,28,17,178,48,02,07,320,37,1*5A
$GPGSV,2,1,08,32,72,246,35,10,70,013,36,23,45,079,38,27,24,242,44,8*67
$GPGSV,2,2,08,24,23,050,42,08,22,281,38,18,19,148,40,28,17,178,38,8*68
$GLGSV,3,1,09,81,65,269,42,66,62,317,40,65,37,041,37,88,34,183,47,1*7F
$GLGSV,3,2,09,82,28,327,36,67,23,261,44,75,19,068,29,76,08,123,38,1*7B
$GLGSV,3,3,09,74,05,018,29,1*45
$GAGSV,2,1,07,12,76,188,36,10,70,295,39,19,65,045,34,04,51,235,42,7*7C
$GAGSV,2,2,07,11,42,313,27,33,23,148,45,09,03,232,48,7*4E
$GAGSV,2,1,07,12,76,188,39,10,70,295,41,19,65,045,28,04,51,235,44,1*71
$GAGSV,2,2,07,11,42,313,35,33,23,148,37,09,03,232,43,1*45
$GBGSV,3,1,11,32,70,327,38,30,49,250,46,41,36,061,35,27,28,188,51,1*7F
$GBGSV,3,2,11,20,24,267,46,29,23,313,42,23,20,120,41,25,19,068,37,1*7F
$GBGSV,3,3,11,40,06,333,32,37,01,165,48,63,,,27,1*7D
$GBGSV,3,1,10,32,70,327,39,30,49,250,42,41,36,061,38,27,28,188,42,5*70
$GBGSV,3,2,10,20,24,267,41,29,23,313,35,23,20,120,39,25,19,068,42,5*70
$GBGSV,3,3,10,40,06,333,33,37,01,165,51,5*71
$GNGGA,050902.000,4005.098518,N,10513.208166,W,2,57,0.44,1582.487,M,-20.670,M,,*75
$GPGSV,3,1,11,32,72,246,43,10,70,013,42,23,45,079,43,48,39,209,47,1*60
$GPGSV,3,2,11,27,24,242,47,24,23,050,37,21,22,316,38,08,22,281,40,1*6C
$GPGSV,3,3,11,18,19,148,48,28,17,178,48,02,07,320,37,1*5A
$GPGSV,2,1,08,32,72,246,34,10,70,013,36,23,45,079,38,27,24,242,44,8*66
$GPGSV,2,2,08,24,23,050,42,08,22,281,38,18,19,148,41,28,17,178,38,8*69
$GLGSV,3,1,09,81,65,269,42,66,62,317,40,65,37,041,37,88,34,183,47,1*7F
$GLGSV,3,2,09,82,28,327,36,67,23,261,44,75,19,068,28,76,08,123,40,1*75
$GLGSV,3,3,09,74,05,018,30,1*4D
$GAGSV,2,1,07,12,76,188,36,10,70,295,39,19,65,045,34,04,51,235,42,7*7C
$GAGSV,2,2,07,11,42,313,27,33,23,148,45,09,03,232,48,7*4E
$GAGSV,2,1,07,12,76,188,39,10,70,295,41,19,65,045,28,04,51,235,44,1*71
$GAGSV,2,2,07,11,42,313,35,33,23,148,37,09,03,232,43,1*45
$GBGSV,3,1,10,32,70,327,38,30,49,250,46,41,36,061,36,27,28,188,51,1*7D
$GBGSV,3,2,10,20,24,267,46,29,23,313,42,23,20,120,42,25,19,068,37,1*7D
$GBGSV,3,3,10,40,06,333,32,37,01,165,46,1*72
$GBGSV,3,1,10,32,70,327,39,30,49,250,42,41,36,061,38,27,28,188,42,5*70
$GBGSV,3,2,10,20,24,267,41,29,23,313,35,23,20,120,39,25,19,068,42,5*70
$GBGSV,3,3,10,40,06,333,34,37,01,165,51,5*76
$GNGGA,050907.000,4005.098584,N,10513.208190,W,2,57,0.44,1582.420,M,-20.670,M,,*71
$GPGSV,3,1,11,32,72,246,43,10,70,013,42,23,45,079,43,48,39,209,47,1*60
$GPGSV,3,2,11,27,24,242,47,24,23,050,37,21,22,316,38,08,22,281,40,1*6C
$GPGSV,3,3,11,18,19,148,48,28,17,178,48,02,07,320,37,1*5A
$GPGSV,2,1,08,32,72,246,34,10,70,013,36,23,45,079,38,27,24,242,43,8*61
$GPGSV,2,2,08,24,23,050,42,08,22,281,38,18,19,148,41,28,17,178,38,8*69
$GLGSV,3,1,09,81,65,269,42,66,62,317,40,65,37,041,37,88,34,183,47,1*7F
$GLGSV,3,2,09,82,28,327,36,67,23,261,44,75,19,068,27,76,08,123,40,1*7A
$GLGSV,3,3,09,74,05,018,30,1*4D
$GAGSV,2,1,07,12,76,188,36,10,70,295,39,19,65,045,34,04,51,235,42,7*7C
$GAGSV,2,2,07,11,42,313,27,33,23,148,45,09,03,232,48,7*4E
$GAGSV,2,1,07,12,76,188,39,10,70,295,41,19,65,045,28,04,51,235,44,1*71
$GAGSV,2,2,07,11,42,313,35,33,23,148,37,09,03,232,44,1*42
$GBGSV,3,1,10,32,70,327,39,30,49,250,46,41,36,061,36,27,28,188,51,1*7C
$GBGSV,3,2,10,20,24,267,46,29,23,313,39,23,20,120,43,25,19,068,37,1*70
$GBGSV,3,3,10,40,06,333,32,37,01,165,45,1*71
$GBGSV,3,1,10,32,70,327,39,30,49,250,42,41,36,061,37,27,28,188,41,5*7C
$GBGSV,3,2,10,20,24,267,41,29,23,313,35,23,20,120,39,25,19,068,42,5*70
$GBGSV,3,3,10,40,06,333,34,37,01,165,50,5*77
$GNGGA,050912.000,4005.098668,N,10513.208244,W,2,57,0.44,1582.183,M,-20.669,M,,*7A
$GPGSV,3,1,11,32,72,246,44,10,70,013,42,23,45,079,43,48,39,209,47,1*67
$GPGSV,3,2,11,27,24,242,47,24,23,050,38,21,22,316,39,08,22,281,40,1*62
$GPGSV,3,3,11,18,19,148,48,28,17,178,48,02,07,320,37,1*5A
$GPGSV,2,1,08,32,72,246,34,10,70,013,37,23,45,079,38,27,24,242,43,8*60
$GPGSV,2,2,08,24,23,050,42,08,22,281,38,18,19,148,42,28,17,178,38,8*6A
$GLGSV,3,1,09,81,65,269,42,66,62,317,40,65,37,041,37,88,34,183,47,1*7F
$GLGSV,3,2,09,82,28,327,33,67,23,261,45,75,19,068,25,76,08,123,42,1*7E
$GLGSV,3,3,09,74,05,018,29,1*45
$GAGSV,2,1,07,12,76,188,36,10,70,295,39,19,65,045,34,04,51,235,42,7*7C
$GAGSV,2,2,07,11,42,313,25,33,23,148,45,09,03,232,48,7*4C
$GAGSV,2,1,07,12,76,188,39,10,70,295,41,19,65,045,29,04,51,235,44,1*70
$GAGSV,2,2,07,11,42,313,35,33,23,148,37,09,03,232,44,1*42
$GBGSV,3,1,10,32,70,327,39,30,49,250,46,41,36,061,36,27,28,188,51,1*7C
$GBGSV,3,2,10,20,25,268,46,29,23,313,38,23,21,119,43,25,19,068,36,1*75
$GBGSV,3,3,10,40,06,333,31,37,01,165,44,1*73
$GBGSV,3,1,10,32,70,327,39,30,49,250,42,41,36,061,37,27,28,188,41,5*7C
$GBGSV,3,2,10,20,25,268,41,29,23,313,35,23,21,119,40,25,19,068,42,5*7B
$GBGSV,3,3,10,40,06,333,34,37,01,165,50,5*77
$GNGGA,050917.000,4005.098746,N,10513.208280,W,2,57,0.44,1581.995,M,-20.670,M,,*7E
$GPGSV,3,1,11,32,72,246,44,10,70,013,42,23,45,079,43,48,39,209,47,1*67
$GPGSV,3,2,11,27,24,242,47,24,23,050,38,21,22,316,39,08,22,281,39,1*6C
$GPGSV,3,3,11,18,19,148,48,28,17,178,48,02,07,320,37,1*5A
$GPGSV,2,1,08,32,72,246,34,10,70,013,37,23,45,079,38,27,24,242,43,8*60
$GPGSV,2,2,08,24,23,050,41,08,22,281,38,18,19,148,42,28,17,178,38,8*69
$GLGSV,3,1,09,81,65,269,41,66,62,317,38,65,37,041,37,88,34,183,47,1*73
$GLGSV,3,2,09,82,28,327,33,67,23,261,45,75,19,068,30,76,08,123,42,1*7A
$GLGSV,3,3,09,74,05,018,29,1*45
$GAGSV,2,1,07,12,76,188,36,10,70,295,39,19,65,045,34,04,51,235,42,7*7C
$GAGSV,2,2,07,11,42,313,25,33,23,148,45,09,03,232,48,7*4C
$GAGSV,2,1,07,12,76,188,39,10,70,295,41,19,65,045,29,04,51,235,44,1*70
$GAGSV,2,2,07,11,42,313,35,33,23,148,37,09,03,232,45,1*43
$GBGSV,3,1,10,32,70,327,39,30,49,250,46,41,36,061,36,27,27,187,51,1*7C
$GBGSV,3,2,10,20,25,268,46,29,23,312,38,23,21,119,43,25,19,067,36,1*7B
$GBGSV,3,3,10,40,06,333,31,37,01,165,43,1*74
$GBGSV,3,1,10,32,70,327,39,30,49,250,42,41,36,061,37,27,27,187,40,5*7D
$GBGSV,3,2,10,20,25,268,41,29,23,312,35,23,21,119,40,25,19,067,42,5*75
$GBGSV,3,3,10,40,06,333,34,37,01,165,50,5*77
$GNGGA,050922.000,4005.098800,N,10513.208334,W,2,57,0.44,1582.005,M,-20.670,M,,*78
$GPGSV,3,1,11,32,72,246,44,10,70,013,42,23,45,079,43,48,39,209,47,1*67
$GPGSV,3,2,11,27,24,242,47,24,23,050,38,21,22,316,40,08,22,281,39,1*62
$GPGSV,3,3,11,18,19,148,49,28,17,178,48,02,07,320,37,1*5B
$GPGSV,2,1,08,32,72,246,34,10,70,013,37,23,45,079,38,27,24,242,43,8*60
$GPGSV,2,2,08,24,23,050,41,08,22,281,38,18,19,148,42,28,17,178,38,8*69
$GLGSV,3,1,09,81,65,269,41,66,62,317,38,65,37,041,37,88,34,183,47,1*73
$GLGSV,3,2,09,82,28,327,33,67,23,261,45,75,19,068,31,76,08,123,43,1*7A
$GLGSV,3,3,09,74,05,018,29,1*45
$GAGSV,2,1,07,12,76,188,36,10,70,295,39,19,65,045,34,04,51,235,42,7*7C
$GAGSV,2,2,07,11,42,313,24,33,23,148,45,09,03,232,47,7*42
$GAGSV,2,1,07,12,76,188,39,10,70,295,41,19,65,045,29,04,51,235,44,1*70
$GAGSV,2,2,07,11,42,313,35,33,23,148,37,09,03,232,45,1*43
$GBGSV,3,1,10,32,70,330,39,30,48,248,46,41,36,061,36,27,27,187,51,1*72
$GBGSV,3,2,10,20,25,268,46,29,23,312,37,23,21,119,43,25,19,067,36,1*74
$GBGSV,3,3,10,40,06,333,31,37,01,165,43,1*74
$GBGSV,3,1,10,32,70,330,39,30,48,248,42,41,36,061,36,27,27,187,40,5*72
$GBGSV,3,2,10,20,25,268,41,29,23,312,35,23,21,119,40,25,19,067,42,5*75
$GBGSV,3,3,10,40,06,333,34,37,01,165,50,5*77
$GNGGA,050927.000,4005.098806,N,10513.208370,W,2,57,0.44,1582.069,M,-20.670,M,,*71
$GPGSV,3,1,11,32,72,246,44,10,70,013,42,23,45,079,43,48,39,209,47,1*67
$GPGSV,3,2,11,27,24,242,47,24,23,050,38,21,22,316,40,08,22,281,39,1*62
$GPGSV,3,3,11,18,19,148,49,28,17,178,48,02,07,320,37,1*5B
$GPGSV,2,1,08,32,72,246,34,10,70,013,37,23,45,079,38,27,24,242,43,8*60
$GPGSV,2,2,08,24,23,050,41,08,22,281,38,18,19,148,42,28,17,178,38,8*69
$GLGSV,3,1,09,81,65,269,42,66,62,317,38,65,37,041,37,88,34,183,47,1*70
$GLGSV,3,2,09,82,28,327,30,67,23,261,45,75,19,068,27,76,08,123,43,1*7E
$GLGSV,3,3,09,74,05,018,29,1*45
$GAGSV,2,1,07,12,76,188,36,10,70,295,39,19,65,045,34,04,51,235,43,7*7D
$GAGSV,2,2,07,11,42,313,23,33,23,148,45,09,03,232,47,7*45
$GAGSV,2,1,07,12,76,188,39,10,70,295,41,19,65,045,29,04,51,235,44,1*70
$GAGSV,2,2,07,11,42,313,35,33,23,148,37,09,03,232,45,1*43
$GBGSV,3,1,11,32,70,330,39,30,48,248,46,41,36,061,36,27,27,187,51,1*73
$GBGSV,3,2,11,20,25,268,46,29,23,312,37,23,21,119,43,25,19,067,36,1*75
$GBGSV,3,3,11,40,06,333,31,37,02,165,44,63,,,27,1*71
$GBGSV,3,1,10,32,70,330,39,30,48,248,42,41,36,061,36,27,27,187,40,5*72
$GBGSV,3,2,10,20,25,268,41,29,23,312,35,23,21,119,40,25,19,067,42,5*75
$GBGSV,3,3,10,40,06,333,33,37,02,165,49,5*7B
$GNGGA,050932.000,4005.098782,N,10513.208382,W,2,57,0.44,1582.073,M,-20.670,M,,*70
$GPGSV,3,1,11,32,72,246,44,10,70,013,42,23,45,079,44,48,39,209,47,1*60
$GPGSV,3,2,11,27,24,242,47,24,23,050,38,21,22,316,40,08,22,281,40,1*6C
$GPGSV,3,3,11,18,19,148,49,28,17,178,47,02,07,320,37,1*54
$GPGSV,2,1,08,32,72,246,34,10,70,013,37,23,45,079,38,27,24,242,43,8*60
$GPGSV,2,2,08,24,23,050,41,08,22,281,38,18,19,148,43,28,17,178,39,8*69
$GLGSV,3,1,09,81,65,269,42,66,62,317,40,65,37,041,37,88,34,183,47,1*7F
$GLGSV,3,2,09,82,28,327,29,67,23,261,45,75,19,068,17,76,08,123,43,1*75
$GLGSV,3,3,09,74,05,018,29,1*45
$GAGSV,2,1,07,12,76,188,36,10,70,295,39,19,65,045,34,04,51,235,43,7*7D
$GAGSV,2,2,07,11,42,313,20,33,23,148,45,09,03,232,47,7*46
$GAGSV,2,1,07,12,76,188,39,10,70,295,41,19,65,045,29,04,51,235,44,1*70
$GAGSV,2,2,07,11,42,313,35,33,23,148,36,09,03,232,45,1*42
$GBGSV,3,1,10,32,70,330,39,30,48,248,46,41,35,062,36,27,27,187,51,1*72
$GBGSV,3,2,10,20,25,268,46,29,23,312,37,23,21,119,43,25,19,067,36,1*74
$GBGSV,3,3,10,40,06,332,30,37,02,165,44,1*70
$GBGSV,3,1,10,32,70,330,39,30,48,248,42,41,35,062,36,27,27,187,40,5*72
$GBGSV,3,2,10,20,25,268,41,29,23,312,35,23,21,119,40,25,19,067,42,5*75
$GBGSV,3,3,10,40,06,332,33,37,02,165,49,5*7A
$GNGGA,050937.000,4005.098716,N,10513.208376,W,2,57,0.44,1582.062,M,-20.670,M,,*73
$GPGSV,3,1,11,32,72,246,44,10,70,013,42,23,45,079,44,48,39,209,47,1*60
$GPGSV,3,2,11,27,24,242,47,24,23,050,38,21,22,316,40,08,22,281,41,1*6D
$GPGSV,3,3,11,18,19,148,49,28,17,178,47,02,07,320,37,1*54
$GPGSV,2,1,08,32,72,246,34,10,70,013,37,23,45,079,38,27,24,242,43,8*60
$GPGSV,2,2,08,24,23,050,41,08,22,281,39,18,19,148,43,28,17,178,39,8*68
$GLGSV,3,1,09,81,65,269,42,66,62,317,40,65,37,041,37,88,34,183,47,1*7F
$GLGSV,3,2,09,82,28,327,29,67,23,261,45,75,19,068,25,76,08,123,43,1*74
$GLGSV,3,3,09,74,05,018,29,1*45
$GAGSV,2,1,07,12,76,188,36,10,70,295,39,19,65,045,34,04,51,235,43,7*7D
$GAGSV,2,2,07,11,42,313,19,33,23,148,45,09,03,232,46,7*4D
$GAGSV,2,1,07,12,76,188,39,10,70,295,41,19,65,045,29,04,51,235,44,1*70
$GAGSV,2,2,07,11,42,313,36,33,23,148,36,09,03,232,45,1*41
$GBGSV,3,1,10,32,70,330,39,30,48,248,46,41,35,062,36,27,27,187,51,1*72
$GBGSV,3,2,10,20,25,268,46,29,23,312,38,23,21,119,43,25,19,067,37,1*7A
$GBGSV,3,3,10,40,06,332,30,37,02,165,44,1*70
$GBGSV,3,1,10,32,70,330,39,30,48,248,42,41,35,062,36,27,27,187,40,5*72
$GBGSV,3,2,10,20,25,268,41,29,23,312,35,23,21,119,40,25,19,067,42,5*75
$GBGSV,3,3,10,40,06,332,33,37,02,165,49,5*7A
$GNGGA,050942.000,4005.098626,N,10513.208412,W,2,57,0.44,1582.121,M,-20.670,M,,*70
$GPGSV,3,1,11,32,72,246,44,10,70,013,42,23,45,079,44,48,39,209,47,1*60
$GPGSV,3,2,11,27,24,242,47,24,23,050,39,21,22,316,40,08,22,281,41,1*6C
$GPGSV,3,3,11,18,19,148,49,28,17,178,47,02,07,320,37,1*54
$GPGSV,2,1,08,32,72,246,34,10,70,013,37,23,45,079,38,27,24,242,43,8*60
$GPGSV,2,2,08,24,23,050,41,08,22,281,39,18,19,148,44,28,17,178,40,8*61
$GLGSV,3,1,09,81,65,269,41,66,62,317,40,65,37,041,37,88,34,183,47,1*7C
$GLGSV,3,2,09,82,28,327,29,67,23,261,45,75,19,068,29,76,08,123,43,1*78
$GLGSV,3,3,09,74,05,018,28,1*44
$GAGSV,2,1,07,12,76,188,37,10,70,295,39,19,65,045,34,04,51,235,43,7*7C
$GAGSV,2,2,07,11,42,313,18,33,23,148,45,09,03,232,46,7*4C
$GAGSV,2,1,07,12,76,188,39,10,70,295,41,19,65,045,29,04,51,235,44,1*70
$GAGSV,2,2,07,11,42,313,36,33,23,148,36,09,03,232,45,1*41
$GBGSV,3,1,10,32,70,330,39,30,48,248,46,41,35,062,37,27,27,187,51,1*73
$GBGSV,3,2,10,20,25,268,46,29,23,312,39,23,21,119,43,25,19,067,38,1*74
$GBGSV,3,3,10,40,06,332,30,37,02,165,43,1*77
$GBGSV,3,1,10,32,70,330,39,30,48,248,42,41,35,062,35,27,27,187,39,5*7F
$GBGSV,3,2,10,20,25,268,41,29,23,312,35,23,21,119,40,25,19,067,42,5*75
$GBGSV,3,3,10,40,06,332,33,37,02,165,49,5*7A
$GNGGA,050947.000,4005.098578,N,10513.208478,W,2,56,0.44,1582.138,M,-20.670,M,,*78
$GPGSV,3,1,11,32,72,246,44,10,70,013,42,23,45,079,44,48,39,209,47,1*60
$GPGSV,3,2,11,27,24,242,47,24,23,050,39,21,22,316,40,08,22,281,41,1*6C
$GPGSV,3,3,11,18,19,148,49,28,17,178,46,02,07,320,37,1*55
$GPGSV,2,1,08,32,72,246,34,10,70,013,37,23,45,079,38,27,24,242,42,8*61
$GPGSV,2,2,08,24,23,050,41,08,22,281,39,18,19,148,44,28,17,178,40,8*61
$GLGSV,3,1,09,81,65,269,42,66,62,317,40,65,37,041,36,88,34,183,47,1*7E
$GLGSV,3,2,09,82,28,327,28,67,23,261,45,75,19,068,30,76,08,123,44,1*76
$GLGSV,3,3,09,74,05,018,27,1*4B
$GAGSV,2,1,07,12,76,188,37,10,70,295,39,19,65,045,34,04,51,235,43,7*7C
$GAGSV,2,2,07,11,42,313,18,33,23,148,45,09,03,232,47,7*4D
$GAGSV,2,1,07,12,76,188,39,10,70,295,41,19,65,045,29,04,51,235,44,1*70
$GAGSV,2,2,07,11,42,313,36,33,23,148,36,09,03,232,45,1*41
$GBGSV,3,1,10,32,70,330,39,30,48,248,46,41,35,062,37,27,27,187,51,1*73
$GBGSV,3,2,10,20,25,268,46,29,23,312,39,23,21,119,43,25,19,067,38,1*74
$GBGSV,3,3,10,40,06,332,30,37,02,165,40,1*74
$GBGSV,3,1,10,32,70,330,39,30,48,248,42,41,35,062,35,27,27,187,39,5*7F
$GBGSV,3,2,10,20,25,268,41,29,23,312,35,23,21,119,40,25,19,067,42,5*75
$GBGSV,3,3,10,40,06,332,33,37,02,165,49,5*7A
$GNGGA,050952.000,4005.098566,N,10513.208520,W,2,56,0.44,1582.057,M,-20.670,M,,*77
$GPGSV,3,1,11,32,72,246,44,10,70,013,42,23,45,079,44,48,39,209,47,1*60
$GPGSV,3,2,11,27,24,242,47,24,23,050,39,21,22,316,40,08,22,281,41,1*6C
$GPGSV,3,3,11,18,19,148,50,28,17,178,46,02,07,320,37,1*5D
$GPGSV,2,1,08,32,72,246,34,10,70,013,37,23,45,079,38,27,24,242,42,8*61
$GPGSV,2,2,08,24,23,050,41,08,22,281,39,18,19,148,44,28,17,178,40,8*61
$GLGSV,3,1,09,81,65,269,42,66,62,317,40,65,37,041,36,88,34,183,47,1*7E
$GLGSV,3,2,09,82,28,327,27,67,23,261,45,75,19,068,29,76,08,123,44,1*71
$GLGSV,3,3,09,74,05,018,27,1*4B
$GAGSV,2,1,07,12,76,188,37,10,70,295,39,19,65,045,34,04,51,235,43,7*7C
$GAGSV,2,2,07,11,42,313,18,33,23,148,45,09,03,232,47,7*4D
$GAGSV,2,1,07,12,76,188,39,10,70,295,41,19,65,045,29,04,51,235,44,1*70
$GAGSV,2,2,07,11,42,313,36,33,23,148,36,09,03,232,45,1*41
$GBGSV,3,1,10,32,70,330,39,30,48,248,46,41,35,062,37,27,27,187,51,1*73
$GBGSV,3,2,10,20,25,268,46,29,23,312,39,23,21,119,43,25,19,067,38,1*74
$GBGSV,3,3,10,40,06,332,29,37,02,165,40,1*7C
$GBGSV,3,1,10,32,70,330,40,30,48,248,42,41,35,062,35,27,27,187,39,5*71
$GBGSV,3,2,10,20,25,268,41,29,23,312,33,23,21,119,40,25,19,067,42,5*73
$GBGSV,3,3,10,40,06,332,33,37,02,165,49,5*7A
$GNGGA,050957.000,4005.098650,N,10513.208520,W,2,56,0.44,1582.093,M,-20.670,M,,*7C
$GPGSV,3,1,11,32,72,246,44,10,70,013,42,23,45,079,44,48,39,209,47,1*60
$GPGSV,3,2,11,27,24,242,47,24,23,050,37,21,22,316,40,08,22,281,41,1*62
$GPGSV,3,3,11,18,19,148,50,28,17,178,46,02,08,320,37,1*52
$GPGSV,2,1,08,32,72,246,34,10,70,013,37,23,45,079,38,27,24,242,42,8*61
$GPGSV,2,2,08,24,23,050,41,08,22,281,39,18,19,148,44,28,17,178,41,8*60
$GLGSV,3,1,09,81,65,269,43,66,62,317,39,65,37,041,37,88,34,183,47,1*70
$GLGSV,3,2,09,82,28,327,32,67,23,261,45,75,19,068,26,76,08,123,45,1*7B
$GLGSV,3,3,09,74,05,018,28,1*44
$GAGSV,2,1,07,12,76,188,37,10,70,295,39,19,65,045,35,04,51,235,43,7*7D
$GAGSV,2,2,07,11,42,313,18,33,23,148,45,09,03,232,47,7*4D
$GAGSV,2,1,07,12,76,188,39,10,70,295,41,19,65,045,28,04,51,235,44,1*71
$GAGSV,2,2,07,11,42,313,37,33,23,148,36,09,03,232,45,1*40
$GBGSV,3,1,10,32,70,330,39,30,48,248,46,41,35,062,37,27,27,187,51,1*73
$GBGSV,3,2,10,20,25,268,46,29,23,312,39,23,21,119,43,25,19,067,38,1*74
$GBGSV,3,3,10,40,06,332,30,37,02,165,41,1*75
$GBGSV,3,1,10,32,70,330,40,30,48,248,42,41,35,062,35,27,27,187,38,5*70
$GBGSV,3,2,10,20,25,268,41,29,23,312,33,23,21,119,40,25,19,067,42,5*73
$GBGSV,3,3,10,40,06,332,33,37,02,165,49,5*7A
$GNGGA,051002.000,4005.098770,N,10513.208520,W,2,56,0.44,1582.218,M,-20.670,M,,*76
$GPGSV,3,1,11,32,72,246,44,10,70,017,42,23,45,079,44,48,39,209,47,1*64
$GPGSV,3,2,11,27,24,242,47,24,23,050,37,21,22,316,40,08,22,279,41,1*65
$GPGSV,3,3,11,18,19,148,50,28,17,178,46,02,08,320,37,1*52
$GPGSV,2,1,08,32,72,246,34,10,70,017,37,23,45,079,38,27,24,242,42,8*65
$GPGSV,2,2,08,24,23,050,41,08,22,279,39,18,19,148,45,28,17,178,42,8*65
$GLGSV,3,1,09,81,65,269,42,66,62,317,38,65,37,041,37,88,34,183,46,1*71
$GLGSV,3,2,09,82,28,327,35,67,23,261,45,75,19,068,27,76,08,123,45,1*7D
$GLGSV,3,3,09,74,05,018,28,1*44
$GAGSV,2,1,07,12,76,188,37,10,70,295,39,19,65,045,35,04,51,235,43,7*7D
$GAGSV,2,2,07,11,42,313,19,33,23,148,45,09,03,232,46,7*4D
$GAGSV,2,1,07,12,76,188,39,10,70,295,41,19,65,045,28,04,51,235,44,1*71
$GAGSV,2,2,07,11,42,313,37,33,23,148,36,09,03,232,46,1*43
$GBGSV,3,1,10,32,70,330,39,30,48,248,46,41,35,062,37,27,27,187,51,1*73
$GBGSV,3,2,10,20,25,268,46,29,23,312,39,23,21,119,44,25,19,067,38,1*73
$GBGSV,3,3,10,40,06,332,30,37,02,165,41,1*75
$GBGSV,3,1,10,32,70,330,40,30,48,248,43,41,35,062,34,27,27,187,38,5*70
$GBGSV,3,2,10,20,25,268,41,29,23,312,33,23,21,119,41,25,19,067,42,5*72
$GBGSV,3,3,10,40,06,332,34,37,02,165,49,5*7D
$GNGGA,051007.000,4005.098848,N,10513.208526,W,2,57,0.44,1582.389,M,-20.670,M,,*79
$GPGSV,3,1,11,32,72,246,44,10,70,017,42,23,45,079,44,48,39,209,47,1*64
$GPGSV,3,2,11,27,24,242,47,24,23,050,37,08,22,279,41,21,22,316,40,1*65
$GPGSV,3,3,11,18,19,148,50,28,17,178,46,02,08,320,37,1*52
$GPGSV,2,1,08,32,72,246,34,10,70,017,37,23,45,079,38,27,24,242,42,8*65
$GPGSV,2,2,08,24,23,050,41,08,22,279,39,18,19,148,45,28,17,178,42,8*65
$GLGSV,3,1,09,81,65,269,42,66,62,317,39,65,37,041,37,88,34,183,46,1*70
$GLGSV,3,2,09,82,28,327,35,67,23,261,45,75,19,068,31,76,08,123,45,1*7A
$GLGSV,3,3,09,74,05,018,28,1*44
$GAGSV,2,1,07,12,76,188,37,10,70,295,39,19,65,045,35,04,51,235,43,7*7D
$GAGSV,2,2,07,11,42,313,19,33,23,148,45,09,03,232,45,7*4E
$GAGSV,2,1,07,12,76,188,39,10,70,295,41,19,65,045,28,04,51,235,44,1*71
$GAGSV,2,2,07,11,42,313,37,33,23,148,36,09,03,232,46,1*43
$GBGSV,3,1,11,32,70,330,39,30,48,248,46,41,35,062,37,27,27,187,51,1*72
$GBGSV,3,2,11,20,25,268,46,29,23,312,39,23,21,119,44,25,19,067,38,1*72
$GBGSV,3,3,11,40,06,332,30,37,02,165,39,63,,,28,1*74
$GBGSV,3,1,10,32,70,330,40,30,48,248,43,41,35,062,34,27,27,187,38,5*70
$GBGSV,3,2,10,20,25,268,41,29,23,312,33,23,21,119,41,25,19,067,42,5*72
$GBGSV,3,3,10,40,06,332,34,37,02,165,49,5*7D
$GNGGA,051012.000,4005.098938,N,10513.208568,W,2,56,0.44,1582.452,M,-20.670,M,,*71
$GPGSV,3,1,11,32,72,246,44,10,70,017,42,23,45,079,44,48,39,209,47,1*64
$GPGSV,3,2,11,27,24,242,47,21,23,316,40,24,23,050,37,08,22,279,41,1*64
$GPGSV,3,3,11,18,18,148,50,28,17,178,46,02,08,320,37,1*53
$GPGSV,2,1,08,32,72,246,34,10,70,017,37,23,45,079,38,27,24,242,42,8*65
$GPGSV,2,2,08,24,23,050,41,08,22,279,39,18,18,148,45,28,17,178,42,8*64
$GLGSV,3,1,09,81,65,269,43,66,62,317,39,65,37,041,38,88,34,183,46,1*7E
$GLGSV,3,2,09,82,28,327,37,67,23,261,45,75,19,068,32,76,08,123,46,1*78
$GLGSV,3,3,09,74,05,018,28,1*44
$GAGSV,2,1,07,12,76,188,37,10,70,295,38,19,65,045,35,04,51,235,43,7*7C
$GAGSV,2,2,07,11,42,313,21,33,23,148,45,09,03,232,44,7*44
$GAGSV,2,1,07,12,76,188,39,10,70,295,41,19,65,045,27,04,51,235,44,1*7E
$GAGSV,2,2,07,11,42,313,37,33,23,148,36,09,03,232,46,1*43
$GBGSV,3,1,10,32,70,330,40,30,48,248,46,41,35,062,37,27,27,187,51,1*7D
$GBGSV,3,2,10,20,25,268,46,29,23,312,39,23,21,119,44,25,19,067,38,1*73
$GBGSV,3,3,10,40,06,332,31,37,02,165,40,1*75
$GBGSV,3,1,10,32,70,330,40,30,48,248,43,41,35,062,33,27,27,187,38,5*77
$GBGSV,3,2,10,20,25,268,41,29,23,312,33,23,21,119,41,25,19,067,42,5*72
$GBGSV,3,3,10,40,06,332,34,37,02,165,48,5*7C
$GNGGA,051017.000,4005.098962,N,10513.208592,W,2,56,0.44,1582.551,M,-20.670,M,,*7C
$GPGSV,3,1,11,32,72,246,44,10,70,017,41,23,44,080,45,48,39,209,47,1*61
$GPGSV,3,2,11,27,24,242,46,21,23,316,40,24,23,049,36,08,22,279,41,1*6C
$GPGSV,3,3,11,18,18,148,50,28,17,178,46,02,08,320,37,1*53
$GPGSV,2,1,08,32,72,246,34,10,70,017,37,23,44,080,38,27,24,242,41,8*61
$GPGSV,2,2,08,24,23,049,41,08,22,279,39,18,18,148,45,28,17,178,42,8*6C
$GLGSV,3,1,09,81,65,269,42,66,62,317,39,65,37,041,38,88,34,183,46,1*7F
$GLGSV,3,2,09,82,28,327,37,67,23,261,45,75,19,068,32,76,08,123,46,1*78
$GLGSV,3,3,09,74,05,018,28,1*44
$GAGSV,2,1,07,12,76,188,37,10,70,295,38,19,65,045,35,04,51,235,43,7*7C
$GAGSV,2,2,07,11,42,313,22,33,23,148,45,09,03,232,44,7*47
$GAGSV,2,1,07,12,76,188,39,10,70,295,41,19,65,045,26,04,51,235,44,1*7F
$GAGSV,2,2,07,11,42,313,37,33,23,148,36,09,03,232,46,1*43
$GBGSV,3,1,10,32,70,330,40,30,48,248,46,41,35,062,37,27,27,187,51,1*7D
$GBGSV,3,2,10,20,25,268,46,29,23,312,39,23,21,119,44,25,19,067,36,1*7D
$GBGSV,3,3,10,40,06,332,31,37,02,165,41,1*74
$GBGSV,3,1,10,32,70,330,40,30,48,248,43,41,35,062,33,27,27,187,38,5*77
$GBGSV,3,2,10,20,25,268,41,29,23,312,33,23,21,119,41,25,19,067,42,5*72
$GBGSV,3,3,10,40,06,332,33,37,02,165,48,5*7B
$GNGGA,051022.000,4005.098932,N,10513.208592,W,2,56,0.44,1582.558,M,-20.669,M,,*7E
$GPGSV,3,1,11,32,72,246,44,10,70,017,41,23,44,080,45,48,39,209,47,1*61
$GPGSV,3,2,11,21,23,316,39,27,23,241,46,24,23,049,36,08,22,279,41,1*66
$GPGSV,3,3,11,28,18,177,45,18,18,148,50,02,08,320,37,1*50
$GPGSV,2,1,08,32,72,246,35,10,70,017,37,23,44,080,38,27,23,241,41,8*64
$GPGSV,2,2,08,24,23,049,41,08,22,279,39,18,18,148,46,28,18,177,43,8*6E
$GLGSV,3,1,09,81,65,269,42,66,62,317,39,65,37,041,38,88,34,183,46,1*7F
$GLGSV,3,2,09,82,28,327,38,67,23,261,45,75,19,068,29,76,08,123,46,1*7D
$GLGSV,3,3,09,74,05,018,26,1*4A
$GAGSV,2,1,07,12,76,188,37,10,70,295,37,19,65,045,35,04,51,235,43,7*73
$GAGSV,2,2,07,11,42,313,23,33,23,148,45,09,03,232,44,7*46
$GAGSV,2,1,07,12,76,188,39,10,70,295,41,19,65,045,26,04,51,235,44,1*7F
$GAGSV,2,2,07,11,42,313,37,33,23,148,36,09,03,232,47,1*42
$GBGSV,3,1,11,32,70,330,40,30,48,248,46,41,35,062,39,27,27,187,51,1*72
$GBGSV,3,2,11,20,25,268,46,29,23,312,39,23,21,119,44,25,19,067,35,1*7F
$GBGSV,3,3,11,40,06,332,31,37,02,165,41,63,,,28,1*7A
$GBGSV,3,1,10,32,70,330,40,30,48,248,43,41,35,062,33,27,27,187,38,5*77
$GBGSV,3,2,10,20,25,268,41,29,23,312,33,23,21,119,41,25,19,067,42,5*72
$GBGSV,3,3,10,40,06,332,33,37,02,165,48,5*7B
$GNGGA,051027.000,4005.098896,N,10513.208532,W,2,56,0.44,1582.611,M,-20.670,M,,*78
$GPGSV,3,1,11,32,74,249,44,10,70,017,41,23,44,080,45,48,39,209,47,1*68
$GPGSV,3,2,11,21,23,316,39,27,23,241,46,24,23,049,36,08,22,279,41,1*66
$GPGSV,3,3,11,28,18,177,45,18,18,148,50,02,08,320,37,1*50
$GPGSV,2,1,08,32,74,249,34,10,70,017,36,23,44,080,38,27,23,241,41,8*6D
$GPGSV,2,2,08,24,23,049,41,08,22,279,40,18,18,148,46,28,18,177,43,8*60
$GLGSV,3,1,09,81,65,269,43,66,62,317,37,65,37,041,38,88,34,183,46,1*70
$GLGSV,3,2,09,82,28,327,38,67,23,261,45,75,19,068,28,76,08,123,46,1*7C
$GLGSV,3,3,09,74,05,018,26,1*4A
$GAGSV,2,1,07,12,76,188,37,10,70,295,37,19,65,045,35,04,51,235,43,7*73
$GAGSV,2,2,07,11,42,313,24,33,23,148,45,09,03,232,44,7*41
$GAGSV,2,1,07,12,76,188,39,10,70,295,41,19,65,045,25,04,51,235,44,1*7C
$GAGSV,2,2,07,11,42,313,37,33,23,148,37,09,03,232,47,1*43
$GBGSV,3,1,11,32,70,330,40,30,48,248,46,41,35,062,39,27,27,187,51,1*72
$GBGSV,3,2,11,20,25,268,46,29,23,312,39,23,21,119,44,25,19,067,35,1*7F
$GBGSV,3,3,11,40,06,332,32,37,02,165,41,63,,,26,1*77
$GBGSV,3,1,10,32,70,330,40,30,48,248,43,41,35,062,31,27,27,187,37,5*7A
$GBGSV,3,2,10,20,25,268,41,29,23,312,33,23,21,119,41,25,19,067,42,5*72
$GBGSV,3,3,10,40,06,332,33,37,02,165,47,5*74
$GNGGA,051032.000,4005.098890,N,10513.208466,W,2,57,0.44,1582.681,M,-20.670,M,,*72
$GPGSV,3,1,11,32,74,249,44,10,70,017,41,23,44,080,45,48,39,209,47,1*68
$GPGSV,3,2,11,27,23,241,46,21,23,316,40,24,23,049,36,08,22,279,41,1*68
$GPGSV,3,3,11,28,18,177,45,18,18,148,50,02,08,320,37,1*50
$GPGSV,2,1,08,32,74,249,34,10,70,017,36,23,44,080,38,27,23,241,40,8*6C
$GPGSV,2,2,08,24,23,049,40,08,22,279,40,18,18,148,46,28,18,177,43,8*61
$GLGSV,3,1,09,81,65,269,43,66,62,317,37,65,37,041,39,88,34,183,46,1*71
