$GNGGA,020637.000,4005.098536,N,10513.207794,W,2,52,0.46,1584.875,M,-20.670,M,,*73
$GPGSV,3,1,12,18,72,354,42,15,58,082,45,23,56,264,43,29,42,169,48,1*65
$GPGSV,3,2,12,48,39,209,47,13,31,053,41,10,23,249,46,05,18,058,41,1*62
$GPGSV,3,3,12,16,15,293,38,27,12,320,38,26,10,263,45,24,06,131,48,1*67
$GPGSV,2,1,06,18,72,354,40,23,56,264,46,10,23,249,40,27,12,320,38,8*65
$GPGSV,2,2,06,26,10,263,44,24,06,131,35,8*6C
$GLGSV,2,1,05,72,71,045,36,88,39,326,36,86,24,122,42,71,22,033,41,1*7D
$GLGSV,2,2,05,79,03,325,14,1*41
$GAGSV,3,1,09,33,72,038,39,19,37,175,40,12,35,305,24,26,31,098,39,7*7F
$GAGSV,3,2,09,07,25,046,39,24,16,288,39,31,13,239,42,10,12,297,35,7*7C
$GAGSV,3,3,09,25,01,334,,7*48
$GAGSV,2,1,08,33,72,038,34,19,37,175,43,12,35,305,24,26,31,098,42,1*7B
$GAGSV,2,2,08,07,25,046,37,24,16,288,25,31,13,239,44,10,12,297,36,1*7C
$GBGSV,2,1,08,41,73,209,45,28,67,140,45,27,62,309,39,33,51,049,43,1*76
$GBGSV,2,2,08,14,24,046,43,32,18,221,50,30,12,314,32,43,07,136,48,1*7B
$GBGSV,2,1,07,41,73,209,42,28,67,140,42,27,62,309,40,33,51,049,33,5*74
$GBGSV,2,2,07,32,18,221,39,30,12,314,27,43,07,136,32,5*40
$PAIR001,062,0*3F
$PAIR001,062,0*3F
$PAIR001,062,0*3F
$PAIR001,062,0*3F
$PAIR001,062,0*3F
$PAIR001,062,0*3F
$PAIR001,062,0*3F
$PAIR001,062,0*3F
$PAIR001,062,0*3F
$GNGGA,020642.000,4005.098530,N,10513.207794,W,2,52,0.46,1584.932,M,-20.669,M,,*7D
$GPGSV,3,1,12,18,72,354,42,15,58,082,45,23,57,266,43,29,42,169,48,1*66
$GPGSV,3,2,12,48,39,209,47,13,31,053,42,10,23,249,47,05,18,058,41,1*60
$GPGSV,3,3,12,16,15,293,37,27,13,320,39,26,09,262,45,24,06,130,48,1*60
$GPGSV,2,1,06,18,72,354,40,23,57,266,46,10,23,249,40,27,13,320,38,8*67
$GPGSV,2,2,06,26,09,262,44,24,06,130,35,8*64
$GLGSV,2,1,05,72,71,045,36,88,39,326,36,86,24,122,42,71,22,033,41,1*7D
$GLGSV,2,2,05,79,03,325,14,1*41
$GAGSV,3,1,09,33,72,038,39,19,37,175,40,12,35,305,23,26,31,098,39,7*78
$GAGSV,3,2,09,07,25,046,39,24,16,288,39,31,13,239,42,10,12,297,35,7*7C
$GAGSV,3,3,09,25,01,334,,7*48
$GAGSV,2,1,08,33,72,038,34,19,37,175,43,12,35,305,24,26,31,098,42,1*7B
$GAGSV,2,2,08,07,25,046,37,24,16,288,25,31,13,239,44,10,12,297,36,1*7C
$GBGSV,2,1,08,41,73,209,45,28,67,140,45,27,62,309,39,33,51,049,43,1*76
$GBGSV,2,2,08,14,24,046,43,32,18,221,50,30,12,314,33,43,07,136,49,1*7B
$GBGSV,2,1,07,41,73,209,42,28,67,140,42,27,62,309,40,33,51,049,33,5*74
$GBGSV,2,2,07,32,18,221,39,30,12,314,27,43,07,136,31,5*43
$GNGGA,020647.000,4005.098500,N,10513.207818,W,2,52,0.46,1584.943,M,-20.670,M,,*7E
$GPGSV,3,1,12,18,72,354,42,15,58,082,45,23,57,266,43,29,41,169,48,1*65
$GPGSV,3,2,12,48,39,209,47,13,31,053,43,10,23,249,47,05,18,058,41,1*61
$GPGSV,3,3,12,16,15,293,37,27,13,320,39,26,09,262,46,24,06,130,48,1*63
$GPGSV,2,1,06,18,72,354,40,23,57,266,46,10,23,249,40,27,13,320,39,8*66
$GPGSV,2,2,06,26,09,262,44,24,06,130,34,8*65
$GLGSV,2,1,05,72,71,045,36,88,39,326,36,86,24,122,42,71,22,033,41,1*7D
$GLGSV,2,2,05,79,03,325,16,1*43
$GAGSV,3,1,09,33,72,038,40,19,37,175,40,12,35,305,21,26,31,098,39,7*74
$GAGSV,3,2,09,07,25,046,39,24,16,288,39,31,13,239,43,10,12,297,35,7*7D
$GAGSV,3,3,09,25,01,334,,7*48
$GAGSV,2,1,08,33,72,038,33,19,37,175,43,12,35,305,24,26,31,098,42,1*7C
$GAGSV,2,2,08,07,25,046,37,24,16,288,25,31,13,239,44,10,12,297,37,1*7D
$GBGSV,2,1,08,41,73,209,45,28,67,140,45,27,62,309,39,33,51,049,43,1*76
$GBGSV,2,2,08,14,24,046,43,32,18,221,50,30,12,314,33,43,07,136,49,1*7B
$GBGSV,2,1,07,41,73,209,42,28,67,140,42,27,62,309,40,33,51,049,33,5*74
$GBGSV,2,2,07,32,18,221,39,30,12,314,27,43,07,136,30,5*42
$GNGGA,020652.000,4005.098410,N,10513.207830,W,2,52,0.46,1585.044,M,-20.670,M,,*7F
$GPGSV,3,1,12,18,72,354,42,15,58,082,45,23,57,266,43,29,41,169,48,1*65
$GPGSV,3,2,12,48,39,209,47,13,31,053,43,10,23,249,47,05,18,058,41,1*61
$GPGSV,3,3,12,16,15,293,37,27,13,320,39,26,09,262,46,24,06,130,48,1*63
$GPGSV,2,1,06,18,72,354,40,23,57,266,46,10,23,249,40,27,13,320,39,8*66
$GPGSV,2,2,06,26,09,262,44,24,06,130,34,8*65
$GLGSV,2,1,05,72,71,045,36,88,39,326,39,86,24,122,42,71,22,033,41,1*72
$GLGSV,2,2,05,79,03,325,15,1*40
$GAGSV,3,1,09,33,72,038,40,19,37,175,40,12,35,305,19,26,31,098,39,7*7F
$GAGSV,3,2,09,07,25,046,39,24,16,288,39,31,13,239,43,10,12,297,35,7*7D
$GAGSV,3,3,09,25,01,334,,7*48
$GAGSV,2,1,08,33,72,038,33,19,37,175,43,12,35,305,24,26,31,098,42,1*7C
$GAGSV,2,2,08,07,25,046,38,24,16,288,25,31,13,239,44,10,12,297,37,1*72
$GBGSV,2,1,08,41,73,209,45,28,67,140,45,27,62,309,39,33,51,049,43,1*76
$GBGSV,2,2,08,14,24,046,43,32,18,221,49,30,12,314,33,43,07,136,49,1*73
$GBGSV,2,1,07,41,73,209,42,28,67,140,42,27,62,309,40,33,51,049,33,5*74
$GBGSV,2,2,07,32,18,221,40,30,12,314,28,43,07,136,30,5*43
$GNGGA,020657.000,4005.098356,N,10513.207860,W,2,52,0.46,1585.094,M,-20.670,M,,*77
$GPGSV,3,1,12,18,72,354,42,15,58,082,45,23,57,266,43,29,41,169,48,1*65
$GPGSV,3,2,12,48,39,209,47,13,31,053,43,10,23,249,47,05,18,058,40,1*60
$GPGSV,3,3,12,16,15,293,37,27,13,320,39,26,09,262,45,24,06,130,48,1*60
$GPGSV,2,1,06,18,72,354,40,23,57,266,46,10,23,249,40,27,13,320,40,8*68
$GPGSV,2,2,06,26,09,262,44,24,06,130,34,8*65
$GLGSV,2,1,05,72,71,045,35,88,39,326,39,86,24,122,42,71,22,033,41,1*71
$GLGSV,2,2,05,79,03,325,14,1*41
$GAGSV,3,1,09,33,72,038,40,19,37,175,40,12,35,305,20,26,31,098,39,7*75
$GAGSV,3,2,09,07,25,046,39,24,16,288,39,31,13,239,43,10,12,297,35,7*7D
$GAGSV,3,3,09,25,01,334,,7*48
$GAGSV,2,1,08,33,72,038,33,19,37,175,43,12,35,305,24,26,31,098,42,1*7C
$GAGSV,2,2,08,07,25,046,38,24,16,288,24,31,13,239,44,10,12,297,37,1*73
$GBGSV,2,1,08,41,73,209,45,28,67,140,45,27,62,309,39,33,51,049,44,1*71
$GBGSV,2,2,08,14,24,046,43,32,18,221,49,30,12,314,32,43,07,136,49,1*72
$GBGSV,2,1,07,41,73,209,42,28,67,140,42,27,62,309,40,33,51,049,33,5*74
$GBGSV,2,2,07,32,18,221,40,30,12,314,28,43,07,136,29,5*4B
$GNGGA,020702.000,4005.098284,N,10513.207896,W,2,52,0.46,1585.080,M,-20.670,M,,*74
$GPGSV,3,1,12,18,72,354,42,15,58,082,45,23,57,266,43,29,41,169,49,1*64
$GPGSV,3,2,12,48,39,209,47,13,31,053,43,10,23,249,47,05,18,058,40,1*60
$GPGSV,3,3,12,16,15,293,37,27,13,320,38,26,09,262,46,24,06,130,48,1*62
$GPGSV,2,1,06,18,72,354,40,23,57,266,46,10,23,249,40,27,13,320,41,8*69
$GPGSV,2,2,06,26,09,262,44,24,06,130,32,8*63
$GLGSV,2,1,05,72,71,045,35,88,39,326,39,86,24,122,41,71,22,033,41,1*72
$GLGSV,2,2,05,79,03,325,16,1*43
$GAGSV,3,1,09,33,72,038,40,19,37,175,40,12,35,305,22,26,31,098,38,7*76
$GAGSV,3,2,09,07,24,045,39,24,16,288,39,31,13,239,43,10,12,297,35,7*7F
$GAGSV,3,3,09,25,01,334,,7*48
$GAGSV,2,1,08,33,72,038,33,19,37,175,43,12,35,305,24,26,31,098,42,1*7C
$GAGSV,2,2,08,07,24,045,38,24,16,288,24,31,13,239,44,10,12,297,37,1*71
$GBGSV,2,1,08,41,73,209,45,28,67,140,45,27,62,309,39,33,51,049,44,1*71
$GBGSV,2,2,08,14,24,046,43,32,18,221,49,30,12,314,30,43,07,136,49,1*70
$GBGSV,2,1,07,41,73,209,42,28,67,140,42,27,62,309,40,33,51,049,34,5*73
$GBGSV,2,2,07,32,18,221,40,30,12,314,28,43,07,136,26,5*44
$GNGGA,020707.000,4005.098278,N,10513.207908,W,2,52,0.46,1585.057,M,-20.670,M,,*7E
$GPGSV,3,1,12,18,72,354,42,15,58,082,45,23,57,266,43,29,41,169,49,1*64
$GPGSV,3,2,12,48,39,209,47,13,31,053,43,10,23,249,47,05,18,058,40,1*60
$GPGSV,3,3,12,16,15,293,38,27,13,320,38,26,09,262,46,24,06,130,48,1*6D
$GPGSV,2,1,06,18,72,354,40,23,57,266,46,10,23,249,41,27,13,320,42,8*6B
$GPGSV,2,2,06,26,09,262,44,24,06,130,30,8*61
$GLGSV,2,1,05,72,71,045,35,88,39,326,40,86,24,122,41,71,22,033,41,1*7C
$GLGSV,2,2,05,79,03,325,20,1*46
$GAGSV,3,1,09,33,72,038,40,19,37,175,40,12,36,306,22,26,31,098,38,7*76
$GAGSV,3,2,09,07,24,045,39,24,16,288,39,10,13,298,35,31,13,239,44,7*76
$GAGSV,3,3,09,25,01,334,,7*48
$GAGSV,2,1,08,33,72,038,33,19,37,175,43,12,36,306,24,26,31,098,42,1*7C
$GAGSV,2,2,08,07,24,045,38,24,16,288,24,31,13,239,44,10,13,298,37,1*7F
$GBGSV,2,1,08,41,73,209,45,28,67,140,45,27,62,309,39,33,51,049,44,1*71
$GBGSV,2,2,08,14,24,046,43,32,18,221,49,30,12,314,27,43,07,136,49,1*76
$GBGSV,2,1,07,41,73,209,42,28,67,140,42,27,62,309,40,33,51,049,34,5*73
$GBGSV,2,2,07,32,18,221,40,30,12,314,27,43,07,136,25,5*48
$GNGGA,020712.000,4005.098296,N,10513.207866,W,2,51,0.46,1585.159,M,-20.670,M,,*7F
$GPGSV,3,1,12,18,72,354,42,15,58,082,45,23,57,266,43,29,41,169,49,1*64
$GPGSV,3,2,12,48,39,209,47,13,31,053,43,10,23,249,47,05,18,058,40,1*60
$GPGSV,3,3,12,16,15,293,38,27,13,320,38,26,09,262,45,24,06,130,48,1*6E
$GPGSV,2,1,06,18,72,354,40,23,57,266,46,10,23,249,41,27,13,320,42,8*6B
$GPGSV,2,2,06,26,09,262,44,24,06,130,29,8*69
$GLGSV,2,1,05,72,71,045,36,88,39,326,41,86,24,122,42,71,22,033,42,1*7E
$GLGSV,2,2,05,79,03,325,20,1*46
$GAGSV,3,1,09,33,72,038,40,19,37,175,40,12,36,306,22,26,31,098,38,7*76
$GAGSV,3,2,09,07,24,045,40,24,16,288,39,10,13,298,35,31,13,239,44,7*78
$GAGSV,3,3,09,25,01,334,,7*48
$GAGSV,2,1,08,33,72,038,33,19,37,175,43,12,36,306,25,26,31,098,42,1*7D
$GAGSV,2,2,08,07,24,045,38,24,16,288,25,31,13,239,44,10,13,298,37,1*7E
$GBGSV,2,1,08,41,73,209,45,28,67,140,45,27,62,309,39,33,51,049,44,1*71
$GBGSV,2,2,08,14,24,046,42,32,18,221,49,30,12,314,24,43,07,136,49,1*74
$GBGSV,2,1,07,41,73,209,42,28,67,140,42,27,62,309,40,33,51,049,34,5*73
$GBGSV,2,2,07,32,18,221,41,30,12,314,26,43,07,136,27,5*4A
$GNGGA,020717.000,4005.098332,N,10513.207830,W,2,52,0.46,1585.368,M,-20.670,M,,*75
$GPGSV,3,1,12,18,72,354,42,15,58,082,45,23,57,266,43,29,41,169,49,1*64
$GPGSV,3,2,12,48,39,209,47,13,31,053,43,10,23,249,47,05,18,058,40,1*60
$GPGSV,3,3,12,16,15,293,38,27,13,320,38,26,09,262,46,24,06,130,48,1*6D
$GPGSV,2,1,06,18,72,354,40,23,57,266,46,10,23,249,41,27,13,320,43,8*6A
$GPGSV,2,2,06,26,09,262,44,24,06,130,29,8*69
$GLGSV,2,1,05,72,71,045,35,88,39,326,41,86,24,122,42,71,22,033,42,1*7D
$GLGSV,2,2,05,79,03,325,21,1*47
$GAGSV,3,1,09,33,72,038,40,19,38,175,39,12,36,306,23,26,31,098,38,7*76
$GAGSV,3,2,09,07,24,045,40,24,16,288,39,10,13,298,35,31,13,239,44,7*78
$GAGSV,3,3,09,25,01,334,,7*48
$GAGSV,2,1,08,33,72,038,33,19,38,175,43,12,36,306,26,26,31,098,42,1*71
$GAGSV,2,2,08,07,24,045,38,24,16,288,23,31,13,239,44,10,13,298,37,1*78
$GBGSV,2,1,08,41,73,209,45,28,67,140,45,27,62,309,39,33,51,049,44,1*71
$GBGSV,2,2,08,14,24,046,42,32,18,221,49,30,12,314,25,43,07,136,50,1*7D
$GBGSV,2,1,07,41,73,209,42,28,67,140,42,27,62,309,40,33,51,049,34,5*73
$GBGSV,2,2,07,32,18,221,41,30,12,314,23,43,07,136,25,5*4D
$GNGGA,020722.000,4005.098368,N,10513.207824,W,2,52,0.46,1585.512,M,-20.670,M,,*72
$GPGSV,3,1,12,18,72,354,42,15,58,082,45,23,57,266,43,29,41,169,49,1*64
$GPGSV,3,2,12,48,39,209,47,13,31,053,43,10,23,249,47,05,18,058,41,1*61
$GPGSV,3,3,12,16,15,293,36,27,13,320,38,26,09,262,46,24,06,130,48,1*63
$GPGSV,2,1,06,18,72,354,40,23,57,266,46,10,23,249,41,27,13,320,43,8*6A
$GPGSV,2,2,06,26,09,262,44,24,06,130,29,8*69
$GLGSV,2,1,05,72,71,045,35,88,39,326,41,86,24,122,42,71,22,033,42,1*7D
$GLGSV,2,2,05,79,03,325,20,1*46
$GAGSV,3,1,09,33,72,038,40,19,38,175,39,12,36,306,24,26,31,099,38,7*70
$GAGSV,3,2,09,07,24,045,40,24,15,287,39,10,13,298,35,31,13,239,44,7*74
$GAGSV,3,3,09,25,01,334,,7*48
$GAGSV,2,1,08,33,72,038,33,19,38,175,43,12,36,306,25,26,31,099,42,1*73
$GAGSV,2,2,08,07,24,045,38,24,15,287,22,31,13,239,44,10,13,298,37,1*75
$GBGSV,2,1,08,41,73,209,45,28,67,140,45,27,62,309,39,33,51,049,44,1*71
$GBGSV,2,2,08,14,24,046,42,32,18,221,49,30,12,314,29,43,07,136,50,1*71
$GBGSV,2,1,07,41,73,209,42,28,67,140,42,27,62,309,40,33,51,049,34,5*73
$GBGSV,2,2,07,32,18,221,41,30,12,314,20,43,07,136,24,5*4F
$GNGGA,020727.000,4005.098356,N,10513.207914,W,2,52,0.46,1585.507,M,-20.670,M,,*7C
$GPGSV,3,1,12,18,72,354,42,15,58,082,45,23,57,266,43,29,41,169,49,1*64
$GPGSV,3,2,12,48,39,209,47,13,31,053,44,10,23,249,47,05,18,058,42,1*65
$GPGSV,3,3,12,16,15,293,36,27,13,320,38,26,09,262,45,24,06,130,48,1*60
$GPGSV,2,1,06,18,72,354,40,23,57,266,46,10,23,249,41,27,13,320,43,8*6A
$GPGSV,2,2,06,26,09,262,44,24,06,130,29,8*69
$GLGSV,2,1,05,72,71,045,35,88,39,326,41,86,24,122,42,71,22,033,42,1*7D
$GLGSV,2,2,05,79,03,325,20,1*46
$GAGSV,3,1,09,33,72,042,40,19,38,175,39,12,36,306,27,26,31,099,38,7*7E
$GAGSV,3,2,09,07,24,045,40,24,15,287,39,10,13,298,35,31,12,238,44,7*74
$GAGSV,3,3,09,25,01,334,,7*48
$GAGSV,2,1,08,33,72,042,33,19,38,175,43,12,36,306,25,26,31,099,42,1*7E
$GAGSV,2,2,08,07,24,045,38,24,15,287,21,10,13,298,37,31,12,238,44,1*76
$GBGSV,2,1,08,41,73,209,45,28,67,140,45,27,62,309,40,33,51,049,44,1*7F
$GBGSV,2,2,08,14,24,046,42,32,18,221,49,30,12,314,33,43,07,136,50,1*7A
$GBGSV,2,1,07,41,73,209,42,28,67,140,42,27,62,309,40,33,51,049,33,5*74
$GBGSV,2,2,07,32,18,221,41,30,12,314,18,43,07,136,27,5*47
$GNGGA,020732.000,4005.098314,N,10513.207938,W,2,52,0.46,1585.426,M,-20.670,M,,*72
$GPGSV,3,1,12,18,72,354,42,15,58,082,45,23,57,266,43,29,41,169,49,1*64
$GPGSV,3,2,12,48,39,209,47,13,31,053,44,10,23,249,47,05,18,058,42,1*65
$GPGSV,3,3,12,16,15,293,36,27,13,320,39,26,09,262,46,24,06,130,48,1*62
$GPGSV,2,1,06,18,72,354,40,23,57,266,46,10,23,249,41,27,13,320,43,8*6A
$GPGSV,2,2,06,26,09,262,44,24,06,130,26,8*66
$GLGSV,2,1,05,72,71,045,35,88,39,326,40,86,24,122,42,71,22,033,42,1*7C
$GLGSV,2,2,05,79,03,325,21,1*47
$GAGSV,3,1,09,33,72,042,40,19,38,175,39,12,36,306,28,26,31,099,39,7*70
$GAGSV,3,2,09,07,24,045,41,24,15,287,39,10,13,298,36,31,12,238,44,7*76
$GAGSV,3,3,09,25,01,334,,7*48
$GAGSV,2,1,08,33,72,042,33,19,38,175,43,12,36,306,25,26,31,099,42,1*7E
$GAGSV,2,2,08,07,24,045,38,24,15,287,21,10,13,298,37,31,12,238,44,1*76
$GBGSV,2,1,08,41,73,209,45,28,67,140,45,27,62,309,40,33,51,049,44,1*7F
$GBGSV,2,2,08,14,24,046,42,32,18,221,49,30,12,314,34,43,07,136,50,1*7D
$GBGSV,2,1,07,41,73,209,42,28,67,140,42,27,62,309,40,33,51,049,33,5*74
$GBGSV,2,2,07,32,18,221,41,30,12,314,17,43,07,136,28,5*47
$GNGGA,020737.000,4005.098272,N,10513.208010,W,2,52,0.46,1585.324,M,-20.670,M,,*7F
$GPGSV,3,1,12,18,72,354,42,15,58,082,45,23,57,266,43,29,41,169,49,1*64
$GPGSV,3,2,12,48,39,209,47,13,31,053,44,10,23,249,47,05,18,058,42,1*65
$GPGSV,3,3,12,16,15,293,36,27,13,320,39,26,09,262,47,24,06,130,47,1*6C
$GPGSV,2,1,06,18,72,354,40,23,57,266,46,10,23,249,41,27,13,320,43,8*6A
$GPGSV,2,2,06,26,09,262,44,24,06,130,28,8*68
$GLGSV,2,1,05,72,71,045,37,88,39,326,40,86,24,122,41,71,21,033,43,1*7F
$GLGSV,2,2,05,79,03,325,22,1*44
$GAGSV,3,1,09,33,72,042,40,19,38,175,39,12,36,306,27,26,31,099,39,7*7F
$GAGSV,3,2,09,07,24,045,41,24,15,287,39,10,13,298,36,31,12,238,44,7*76
$GAGSV,3,3,09,25,01,334,,7*48
$GAGSV,2,1,08,33,72,042,33,19,38,175,43,12,36,306,25,26,31,099,42,1*7E
$GAGSV,2,2,08,07,24,045,38,24,15,287,22,10,13,298,38,31,12,238,44,1*7A
$GBGSV,2,1,08,41,73,209,45,28,67,140,45,27,62,309,41,33,51,049,44,1*7E
$GBGSV,2,2,08,14,24,046,42,32,18,221,48,30,12,314,36,43,07,136,50,1*7E
$GBGSV,2,1,07,41,73,209,42,28,67,140,42,27,62,309,40,33,51,049,33,5*74
$GBGSV,2,2,07,32,18,221,41,30,12,314,21,43,07,136,28,5*42
$GNGGA,020742.000,4005.098182,N,10513.208082,W,2,52,0.46,1585.288,M,-20.669,M,,*75
$GPGSV,3,1,12,18,72,354,42,15,58,082,45,23,57,266,43,29,41,169,49,1*64
$GPGSV,3,2,12,48,39,209,47,13,31,053,44,10,23,249,48,05,18,058,42,1*6A
$GPGSV,3,3,12,16,15,293,36,27,13,320,40,26,09,262,46,24,06,130,47,1*63
$GPGSV,2,1,06,18,72,354,40,23,57,266,46,10,23,249,41,27,13,320,43,8*6A
$GPGSV,2,2,06,26,09,262,44,24,06,130,28,8*68
$GLGSV,2,1,05,72,70,042,35,88,39,326,39,86,24,122,41,71,21,033,43,1*75
$GLGSV,2,2,05,79,03,325,23,1*45
$GAGSV,3,1,09,33,72,042,40,19,38,175,39,12,36,306,27,26,31,099,39,7*7F
$GAGSV,3,2,09,07,24,045,41,24,15,287,39,10,13,298,35,31,12,238,44,7*75
$GAGSV,3,3,09,25,01,334,,7*48
$GAGSV,2,1,08,33,72,042,33,19,38,175,43,12,36,306,25,26,31,099,42,1*7E
$GAGSV,2,2,08,07,24,045,38,24,15,287,23,10,13,298,38,31,12,238,44,1*7B
$GBGSV,2,1,08,41,73,209,45,28,67,140,45,27,62,309,41,33,51,049,44,1*7E
$GBGSV,2,2,08,14,24,046,42,32,18,221,48,30,12,314,36,43,07,136,50,1*7E
$GBGSV,2,1,07,41,73,209,42,28,67,140,42,27,62,309,40,33,51,049,33,5*74
$GBGSV,2,2,07,32,18,221,42,30,12,314,24,43,07,136,29,5*45
$GNGGA,020747.000,4005.098110,N,10513.208118,W,2,52,0.46,1585.339,M,-20.669,M,,*72
$GPGSV,3,1,12,18,72,354,42,15,58,082,45,23,57,266,43,29,41,169,49,1*64
$GPGSV,3,2,12,48,39,209,47,13,31,053,44,10,23,249,48,05,18,058,42,1*6A
$GPGSV,3,3,12,16,15,293,37,27,13,320,40,26,09,262,45,24,06,130,47,1*61
$GPGSV,2,1,06,18,72,354,40,23,57,266,46,10,23,249,41,27,13,320,42,8*6B
$GPGSV,2,2,06,26,09,262,44,24,06,130,29,8*69
$GLGSV,2,1,05,72,70,042,34,88,39,326,40,86,24,122,41,71,21,033,43,1*7A
$GLGSV,2,2,05,79,03,324,24,1*43
$GAGSV,3,1,09,33,72,042,40,19,38,175,39,12,36,306,26,26,31,099,39,7*7E
$GAGSV,3,2,09,07,24,045,41,24,15,287,38,10,13,298,35,31,12,238,44,7*74
$GAGSV,3,3,09,25,01,334,,7*48
$GAGSV,2,1,08,33,72,042,33,19,38,175,43,12,36,306,24,26,31,099,42,1*7F
$GAGSV,2,2,08,07,24,045,38,24,15,287,24,10,13,298,38,31,12,238,44,1*7C
$GBGSV,2,1,08,41,73,209,45,28,67,140,46,27,62,309,41,33,51,049,44,1*7D
$GBGSV,2,2,08,14,24,046,43,32,18,221,48,30,12,314,36,43,07,136,51,1*7E
$GBGSV,2,1,07,41,73,209,42,28,67,140,42,27,62,309,40,33,51,049,33,5*74
$GBGSV,2,2,07,32,18,221,42,30,12,314,28,43,07,136,31,5*40
$GNGGA,020752.000,4005.098038,N,10513.208100,W,2,52,0.46,1585.408,M,-20.670,M,,*79
$GPGSV,3,1,12,18,72,354,41,15,58,082,45,23,57,266,43,29,41,169,49,1*67
$GPGSV,3,2,12,48,39,209,47,13,31,053,44,10,23,249,48,05,18,058,42,1*6A
$GPGSV,3,3,12,16,15,293,37,27,13,320,40,26,09,262,45,24,06,130,46,1*60
$GPGSV,2,1,06,18,72,354,40,23,57,266,46,10,23,249,41,27,13,320,42,8*6B
$GPGSV,2,2,06,26,09,262,44,24,06,130,32,8*63
$GLGSV,2,1,05,72,70,042,35,88,39,326,41,86,23,123,42,71,21,033,43,1*7F
$GLGSV,2,2,05,79,03,324,22,1*45
$GAGSV,3,1,09,33,72,042,40,19,38,175,39,12,36,306,26,26,31,099,39,7*7E
$GAGSV,3,2,09,07,24,045,41,24,15,287,38,10,13,298,35,31,12,238,44,7*74
$GAGSV,3,3,09,25,01,334,,7*48
$GAGSV,2,1,08,33,72,042,33,19,38,175,43,12,36,306,25,26,31,099,42,1*7E
$GAGSV,2,2,08,07,24,045,38,24,15,287,24,10,13,298,39,31,12,238,44,1*7D
$GBGSV,2,1,08,41,73,209,45,28,67,140,46,27,62,309,40,33,51,049,44,1*7C
$GBGSV,2,2,08,14,24,046,43,32,18,221,48,30,12,314,36,43,07,136,51,1*7E
$GBGSV,2,1,07,41,73,209,42,28,67,140,42,27,62,309,40,33,51,049,34,5*73
$GBGSV,2,2,07,32,18,221,42,30,12,314,29,43,07,136,32,5*42
$GNGGA,020757.000,4005.098014,N,10513.208076,W,2,52,0.46,1585.365,M,-20.670,M,,*7E
$GPGSV,3,1,12,18,72,354,41,15,58,082,45,23,57,266,43,29,41,169,49,1*67
$GPGSV,3,2,12,48,39,209,47,13,31,053,44,10,23,249,48,05,18,058,43,1*6B
$GPGSV,3,3,12,16,15,293,34,27,13,320,40,26,09,262,46,24,06,130,46,1*60
$GPGSV,2,1,06,18,72,354,40,23,57,266,46,10,23,249,41,27,13,320,42,8*6B
$GPGSV,2,2,06,26,09,262,44,24,06,130,32,8*63
$GLGSV,2,1,05,72,70,042,35,88,40,327,41,86,23,123,43,71,21,033,44,1*76
$GLGSV,2,2,05,79,03,324,21,1*46
$GAGSV,3,1,09,33,72,042,40,19,38,175,39,12,36,306,27,26,31,099,39,7*7F
$GAGSV,3,2,09,07,24,045,41,24,15,287,38,10,13,298,33,31,12,238,44,7*72
$GAGSV,3,3,09,25,01,334,,7*48
$GAGSV,2,1,08,33,72,042,33,19,38,175,43,12,36,306,24,26,31,099,42,1*7F
$GAGSV,2,2,08,07,24,045,38,24,15,287,24,10,13,298,39,31,12,238,44,1*7D
$GBGSV,2,1,08,41,73,209,45,28,67,140,46,27,62,309,40,33,51,049,44,1*7C
$GBGSV,2,2,08,14,24,046,43,32,18,221,47,30,12,314,36,43,07,136,51,1*71
$GBGSV,2,1,07,41,73,209,42,28,67,140,42,27,62,309,40,33,51,049,34,5*73
$GBGSV,2,2,07,32,18,221,42,30,12,314,31,43,07,136,34,5*4D
$GNGGA,020802.000,4005.098062,N,10513.208028,W,2,52,0.46,1585.365,M,-20.670,M,,*7B
$GPGSV,3,1,12,18,72,354,40,15,58,082,45,23,57,266,43,29,41,169,49,1*66
$GPGSV,3,2,12,48,39,209,47,13,31,053,44,10,23,249,48,05,18,058,43,1*6B
$GPGSV,3,3,12,16,15,293,33,27,13,320,40,26,09,262,46,24,06,130,46,1*67
$GPGSV,2,1,06,18,72,354,40,23,57,266,46,10,23,249,41,27,13,320,42,8*6B
$GPGSV,2,2,06,26,09,262,44,24,06,130,32,8*63
$GLGSV,2,1,05,72,70,042,34,88,40,327,42,86,23,123,43,71,21,033,44,1*74
$GLGSV,2,2,05,79,03,324,18,1*4C
$GAGSV,3,1,09,33,72,042,40,19,38,175,39,12,36,306,28,26,31,099,39,7*70
$GAGSV,3,2,09,07,24,045,41,24,15,287,38,10,13,298,32,31,12,238,45,7*72
$GAGSV,3,3,09,25,01,334,,7*48
$GAGSV,2,1,08,33,72,042,33,19,38,175,43,12,36,306,24,26,31,099,42,1*7F
$GAGSV,2,2,08,07,24,045,38,24,15,287,25,10,13,298,39,31,12,238,44,1*7C
$GBGSV,2,1,08,41,73,209,45,28,67,140,46,27,62,309,40,33,51,049,44,1*7C
$GBGSV,2,2,08,14,24,046,43,32,18,221,47,30,12,314,36,43,07,136,51,1*71
$GBGSV,2,1,07,41,73,209,42,28,67,140,42,27,62,309,40,33,51,049,36,5*71
$GBGSV,2,2,07,32,18,221,43,30,12,314,32,43,07,136,34,5*4F
$GNGGA,020807.000,4005.098122,N,10513.207974,W,2,52,0.46,1585.294,M,-20.670,M,,*7B
$GPGSV,3,1,12,18,72,354,40,15,58,082,45,23,57,266,43,29,41,169,49,1*66
$GPGSV,3,2,12,48,39,209,47,13,31,053,44,10,23,249,48,05,18,058,43,1*6B
$GPGSV,3,3,12,16,15,293,33,27,13,320,40,26,09,262,47,24,06,130,46,1*66
$GPGSV,2,1,06,18,72,354,40,23,57,266,46,10,23,249,42,27,13,320,42,8*68
$GPGSV,2,2,06,26,09,262,44,24,06,130,33,8*62
$GLGSV,2,1,05,72,70,042,33,88,40,327,42,86,23,123,43,71,21,033,44,1*73
$GLGSV,2,2,05,79,03,324,18,1*4C
$GAGSV,3,1,09,33,72,042,40,19,38,175,39,12,36,306,28,26,31,099,39,7*70
$GAGSV,3,2,09,07,24,045,41,24,15,287,38,10,13,298,33,31,12,238,45,7*73
$GAGSV,3,3,09,25,01,334,,7*48
$GAGSV,2,1,08,33,72,042,33,19,38,175,43,12,36,306,24,26,31,099,42,1*7F
$GAGSV,2,2,08,07,24,045,38,24,15,287,25,10,13,298,39,31,12,238,44,1*7C
$GBGSV,2,1,08,41,73,209,45,28,67,140,46,27,62,309,40,33,51,049,44,1*7C
$GBGSV,2,2,08,14,24,046,43,32,18,221,47,30,12,314,34,43,07,136,51,1*73
$GBGSV,2,1,07,41,73,209,42,28,67,140,42,27,62,309,40,33,51,049,36,5*71
$GBGSV,2,2,07,32,18,221,43,30,12,314,32,43,07,136,35,5*4E
$GNGGA,020812.000,4005.098158,N,10513.207968,W,2,52,0.46,1585.181,M,-20.670,M,,*78
$GPGSV,3,1,12,18,72,354,40,15,58,082,45,23,57,266,43,29,41,169,49,1*66
$GPGSV,3,2,12,48,39,209,47,13,31,053,44,10,23,249,48,05,18,058,43,1*6B
$GPGSV,3,3,12,16,15,293,33,27,13,320,40,26,09,262,47,24,06,130,45,1*65
$GPGSV,2,1,06,18,72,354,40,23,57,266,46,10,23,249,42,27,13,320,42,8*68
$GPGSV,2,2,06,26,09,262,44,24,06,130,34,8*65
$GLGSV,2,1,05,72,70,042,36,88,40,327,42,86,23,123,43,71,21,033,44,1*76
$GLGSV,2,2,05,79,03,324,20,1*47
$GAGSV,3,1,09,33,72,042,40,19,38,175,39,12,36,306,26,26,31,099,39,7*7E
$GAGSV,3,2,09,07,24,045,41,24,15,287,38,10,13,298,32,31,12,238,45,7*72
$GAGSV,3,3,09,25,01,334,,7*48
$GAGSV,2,1,08,33,72,042,33,19,38,175,43,12,36,306,25,26,31,099,42,1*7E
$GAGSV,2,2,08,07,24,045,38,24,15,287,26,10,13,298,39,31,12,238,44,1*7F
$GBGSV,2,1,08,41,73,209,45,28,67,140,46,27,62,309,40,33,51,049,44,1*7C
$GBGSV,2,2,08,14,23,046,43,32,18,221,46,30,12,314,32,43,07,136,51,1*73
$GBGSV,2,1,07,41,73,209,42,28,67,140,42,27,62,309,40,33,51,049,37,5*70
$GBGSV,2,2,07,32,18,221,43,30,12,314,33,43,07,136,36,5*4C
$GNGGA,020817.000,4005.098110,N,10513.207950,W,2,52,0.46,1585.082,M,-20.670,M,,*78
$GPGSV,3,1,12,18,72,354,40,15,58,082,45,23,57,266,43,29,41,169,49,1*66
$GPGSV,3,2,12,48,39,209,47,13,31,053,44,10,23,249,48,05,18,058,42,1*6A
$GPGSV,3,3,12,16,15,293,36,27,13,320,40,26,09,262,45,24,06,130,44,1*63
$GPGSV,2,1,06,18,72,354,40,23,57,266,46,10,23,249,42,27,13,320,42,8*68
$GPGSV,2,2,06,26,09,262,44,24,06,130,35,8*64
$GLGSV,2,1,05,72,70,042,37,88,40,327,41,86,23,123,43,71,21,033,44,1*74
$GLGSV,2,2,05,79,03,324,20,1*47
$GAGSV,3,1,09,33,72,042,40,19,38,175,39,12,36,306,26,26,31,099,39,7*7E
$GAGSV,3,2,09,07,24,045,40,24,15,287,38,10,13,298,31,31,12,238,45,7*70
$GAGSV,3,3,09,25,01,334,,7*48
$GAGSV,2,1,08,33,72,042,33,19,38,175,43,12,36,306,26,26,31,099,42,1*7D
$GAGSV,2,2,08,07,24,045,38,24,15,287,28,10,13,298,39,31,12,238,44,1*71
$GBGSV,2,1,08,41,73,209,45,28,67,140,46,27,62,309,40,33,51,049,44,1*7C
$GBGSV,2,2,08,14,23,046,43,32,18,221,46,30,12,314,29,43,07,136,51,1*79
$GBGSV,2,1,07,41,73,209,42,28,67,140,42,27,62,309,40,33,51,049,37,5*70
$GBGSV,2,2,07,32,18,221,43,30,12,314,33,43,07,136,36,5*4C
$GNGGA,020822.000,4005.098062,N,10513.207968,W,2,52,0.46,1584.944,M,-20.670,M,,*73
$GPGSV,3,1,12,18,72,354,40,15,58,082,45,23,57,266,43,29,41,169,49,1*66
$GPGSV,3,2,12,48,39,209,47,13,31,053,44,10,23,249,48,05,18,058,42,1*6A
$GPGSV,3,3,12,16,15,293,36,27,13,320,40,26,09,262,44,24,06,130,44,1*62
$GPGSV,2,1,06,18,72,354,40,23,57,266,46,10,23,249,42,27,13,320,42,8*68
$GPGSV,2,2,06,26,09,262,45,24,06,130,36,8*66
$GLGSV,2,1,05,72,70,042,37,88,40,327,39,86,23,123,43,71,21,033,44,1*7B
$GLGSV,2,2,05,79,03,324,20,1*47
$GAGSV,3,1,09,33,72,042,40,19,38,175,39,12,36,306,26,26,31,099,39,7*7E
$GAGSV,3,2,09,07,24,045,39,24,15,287,38,10,13,298,31,31,12,238,45,7*7E
$GAGSV,3,3,09,25,01,334,,7*48
$GAGSV,2,1,08,33,72,042,34,19,38,175,43,12,36,306,26,26,31,099,42,1*7A
$GAGSV,2,2,08,07,24,045,38,24,15,287,28,10,13,298,39,31,12,238,44,1*71
$GBGSV,2,1,08,41,73,209,45,28,65,141,46,27,63,308,40,33,51,049,44,1*7F
$GBGSV,2,2,08,14,23,046,42,32,18,221,46,30,12,314,30,43,07,136,51,1*70
$GBGSV,2,1,07,41,73,209,42,28,65,141,42,27,63,308,40,33,51,049,38,5*7C
$GBGSV,2,2,07,32,18,221,44,30,12,314,33,43,07,136,37,5*4A
$GNGGA,020827.000,4005.098056,N,10513.207926,W,2,52,0.46,1584.729,M,-20.670,M,,*7E
$GPGSV,3,1,12,18,72,354,40,15,58,082,45,23,57,266,43,29,41,169,49,1*66
$GPGSV,3,2,12,48,39,209,47,13,31,053,44,10,23,249,48,05,18,058,42,1*6A
$GPGSV,3,3,12,16,15,293,36,27,13,320,40,26,09,262,45,24,06,130,44,1*63
$GPGSV,2,1,06,18,72,354,40,23,57,266,46,10,23,249,42,27,13,320,42,8*68
$GPGSV,2,2,06,26,09,262,45,24,06,130,36,8*66
$GLGSV,2,1,05,72,70,042,35,88,40,327,39,86,23,123,43,71,21,033,44,1*79
$GLGSV,2,2,05,79,03,324,19,1*4D
$GAGSV,3,1,09,33,72,042,40,19,38,175,39,12,36,306,27,26,31,099,39,7*7F
$GAGSV,3,2,09,07,24,045,39,24,15,287,38,10,13,298,32,31,12,238,45,7*7D
$GAGSV,3,3,09,25,01,334,,7*48
$GAGSV,2,1,08,33,72,042,33,19,38,175,43,12,36,306,27,26,31,099,42,1*7C
$GAGSV,2,2,08,07,24,045,38,24,15,287,28,10,13,298,39,31,12,238,44,1*71
$GBGSV,2,1,08,41,73,209,45,28,65,141,46,27,63,308,40,33,50,048,44,1*7F
$GBGSV,2,2,08,14,23,046,41,32,19,222,46,30,13,314,32,43,07,136,51,1*72
$GBGSV,2,1,07,41,73,209,42,28,65,141,42,27,63,308,40,33,50,048,38,5*7C
$GBGSV,2,2,07,32,19,222,44,30,13,314,31,43,07,136,37,5*4B
$GNGGA,020832.000,4005.098080,N,10513.207866,W,2,52,0.46,1584.537,M,-20.670,M,,*79
$GPGSV,3,1,12,18,72,354,41,15,58,082,45,23,57,266,43,29,41,169,49,1*67
$GPGSV,3,2,12,48,39,209,47,13,31,053,44,10,23,249,48,05,18,058,41,1*69
$GPGSV,3,3,12,16,15,293,36,27,13,320,40,26,09,262,46,24,06,130,44,1*60
$GPGSV,2,1,06,18,72,354,39,23,57,266,45,10,23,249,42,27,13,320,42,8*65
$GPGSV,2,2,06,26,09,262,43,24,06,130,36,8*60
$GLGSV,2,1,05,72,70,042,34,88,40,327,39,86,23,123,43,71,21,033,44,1*78
$GLGSV,2,2,05,79,03,324,18,1*4C
$GAGSV,3,1,09,33,72,042,40,19,38,175,39,12,36,306,28,26,31,099,39,7*70
$GAGSV,3,2,09,07,24,045,39,24,15,287,38,10,13,298,31,31,12,238,45,7*7E
$GAGSV,3,3,09,25,01,334,,7*48
$GAGSV,2,1,08,33,72,042,32,19,38,175,43,12,36,306,25,26,31,099,41,1*7C
$GAGSV,2,2,08,07,24,045,37,24,15,287,27,10,13,298,39,31,12,238,43,1*76
$GBGSV,2,1,08,41,73,209,45,28,65,141,46,27,63,308,40,33,50,048,44,1*7F
$GBGSV,2,2,08,14,23,046,41,32,19,222,46,30,13,314,34,43,07,136,51,1*74
$GBGSV,2,1,07,41,73,209,42,28,65,141,42,27,63,308,39,33,50,048,38,5*72
$GBGSV,2,2,07,32,19,222,44,30,13,314,28,43,07,136,37,5*43
$GNGGA,020837.000,4005.098062,N,10513.207794,W,2,52,0.46,1584.442,M,-20.670,M,,*71
$GPGSV,3,1,12,18,72,354,41,15,58,082,45,23,57,266,43,29,41,169,49,1*67
$GPGSV,3,2,12,48,39,209,47,13,31,053,44,10,23,249,48,05,18,058,41,1*69
$GPGSV,3,3,12,16,15,293,35,27,13,320,40,26,09,262,46,24,06,130,44,1*63
$GPGSV,2,1,06,18,72,354,39,23,57,266,45,10,23,249,43,27,13,320,42,8*64
$GPGSV,2,2,06,26,09,262,43,24,06,130,37,8*61
$GLGSV,2,1,05,72,70,042,36,88,40,327,39,86,23,123,43,71,21,033,44,1*7A
$GLGSV,2,2,05,79,03,324,14,1*40
$GAGSV,3,1,09,33,72,042,40,19,38,175,39,12,36,306,28,26,31,099,39,7*70
$GAGSV,3,2,09,07,24,045,39,24,15,287,38,10,13,298,31,31,12,238,45,7*7E
$GAGSV,3,3,09,25,01,334,,7*48
$GAGSV,2,1,08,33,72,042,33,19,38,175,43,12,36,306,27,26,31,099,41,1*7F
$GAGSV,2,2,08,07,24,045,38,24,15,287,28,10,13,298,39,31,12,238,43,1*76
$GBGSV,2,1,08,41,74,210,45,28,65,141,46,27,63,308,40,33,50,048,44,1*70
$GBGSV,2,2,08,14,23,046,41,32,19,222,46,30,13,314,37,43,06,137,51,1*77
$GBGSV,2,1,07,41,74,210,42,28,65,141,42,27,63,308,39,33,50,048,38,5*7D
$GBGSV,2,2,07,32,19,222,44,30,13,314,27,43,06,137,38,5*43
$GNGGA,020842.000,4005.097984,N,10513.207668,W,2,52,0.46,1584.432,M,-20.670,M,,*78
$GPGSV,3,1,12,18,72,354,41,15,58,082,45,23,57,266,42,29,41,169,49,1*66
$GPGSV,3,2,12,48,39,209,47,13,31,053,44,10,23,249,48,05,18,058,41,1*69
$GPGSV,3,3,12,16,15,293,35,27,13,320,40,26,09,262,46,24,06,130,44,1*63
$GPGSV,2,1,06,18,72,354,39,23,57,266,46,10,23,249,43,27,13,320,42,8*67
$GPGSV,2,2,06,26,09,262,44,24,06,130,38,8*69
$GLGSV,2,1,05,72,70,042,36,88,40,327,40,86,23,123,43,71,21,033,44,1*74
$GLGSV,2,2,05,79,03,324,10,1*44
$GAGSV,3,1,09,33,72,042,40,19,38,175,39,12,36,306,28,26,31,099,39,7*70
$GAGSV,3,2,09,07,24,045,40,24,15,287,39,10,13,298,33,31,12,238,45,7*73
$GAGSV,3,3,09,25,01,334,,7*48
$GAGSV,2,1,08,33,72,042,33,19,38,175,43,12,36,306,27,26,31,099,41,1*7F
$GAGSV,2,2,08,07,24,045,38,24,15,287,28,10,13,298,39,31,12,238,43,1*76
$GBGSV,2,1,08,41,74,210,45,28,65,141,46,27,63,308,40,33,50,048,44,1*70
$GBGSV,2,2,08,14,23,046,41,32,19,222,46,30,13,314,38,43,06,137,51,1*78
$GBGSV,2,1,07,41,74,210,42,28,65,141,42,27,63,308,39,33,50,048,39,5*7C
$GBGSV,2,2,07,32,19,222,44,30,13,314,23,43,06,137,39,5*46
$GNGGA,020847.000,4005.097960,N,10513.207590,W,2,52,0.46,1584.556,M,-20.670,M,,*70
$GPGSV,3,1,12,18,72,354,41,15,58,082,45,23,57,266,42,29,41,169,49,1*66
$GPGSV,3,2,12,48,39,209,47,13,31,053,44,10,23,249,48,05,18,058,41,1*69
$GPGSV,3,3,12,16,15,293,35,27,13,320,40,26,09,262,46,24,06,130,44,1*63
$GPGSV,2,1,06,18,72,354,39,23,57,266,46,10,23,249,43,27,13,320,42,8*67
$GPGSV,2,2,06,26,09,262,44,24,06,130,39,8*68
$GLGSV,2,1,05,72,70,042,36,88,40,327,40,86,23,123,43,71,21,033,45,1*75
$GLGSV,2,2,05,79,03,324,,1*45
$GAGSV,3,1,09,33,72,042,40,19,38,175,39,12,36,306,28,26,31,099,39,7*70
$GAGSV,3,2,09,07,24,045,40,24,15,287,39,10,13,298,33,31,12,238,45,7*73
$GAGSV,3,3,09,25,01,334,,7*48
$GAGSV,2,1,08,33,72,042,33,19,38,175,43,12,36,306,27,26,31,099,41,1*7F
$GAGSV,2,2,08,07,24,045,37,24,15,287,28,10,13,298,39,31,12,238,43,1*79
$GBGSV,2,1,08,41,74,210,44,28,65,141,46,27,63,308,40,33,50,048,44,1*71
$GBGSV,2,2,08,14,23,046,40,32,19,222,46,30,13,314,39,43,06,137,51,1*78
$GBGSV,2,1,07,41,74,210,42,28,65,141,42,27,63,308,39,33,50,048,39,5*7C
$GBGSV,2,2,07,32,19,222,44,30,13,314,20,43,06,137,40,5*4B
$GNGGA,020852.000,4005.098002,N,10513.207578,W,2,52,0.46,1584.710,M,-20.670,M,,*70
$GPGSV,3,1,12,18,72,354,41,15,58,082,45,23,57,266,42,29,41,169,49,1*66
$GPGSV,3,2,12,48,39,209,47,13,31,053,44,10,23,249,48,05,18,058,41,1*69
$GPGSV,3,3,12,16,15,293,33,27,13,320,40,26,09,262,45,24,06,130,44,1*66
$GPGSV,2,1,06,18,72,354,39,23,57,266,46,10,23,249,43,27,13,320,42,8*67
$GPGSV,2,2,06,26,09,262,44,24,06,130,39,8*68
$GLGSV,2,1,05,72,70,042,33,88,40,327,40,86,23,123,43,71,21,033,45,1*70
$GLGSV,2,2,05,79,03,324,,1*45
$GAGSV,3,1,09,33,72,042,40,19,38,175,39,12,36,306,29,26,31,099,39,7*71
$GAGSV,3,2,09,07,24,045,41,24,15,287,39,10,13,298,33,31,12,238,45,7*72
$GAGSV,3,3,09,25,01,334,,7*48
$GAGSV,2,1,08,33,72,042,33,19,38,175,43,12,36,306,27,26,31,099,41,1*7F
$GAGSV,2,2,08,07,24,045,37,24,15,287,28,10,13,298,39,31,12,238,43,1*79
$GBGSV,2,1,08,41,74,210,44,28,65,141,46,27,63,308,42,33,50,048,44,1*73
$GBGSV,2,2,08,14,23,046,38,32,19,222,46,30,13,314,39,43,06,137,51,1*77
$GBGSV,2,1,07,41,74,210,42,28,65,141,42,27,63,308,39,33,50,048,39,5*7C
$GBGSV,2,2,07,32,19,222,44,30,13,314,23,43,06,137,40,5*48
$GNGGA,020857.000,4005.098026,N,10513.207572,W,2,52,0.46,1584.900,M,-20.670,M,,*76
$GPGSV,3,1,12,18,72,354,40,15,58,082,45,23,57,266,42,29,41,169,49,1*67
$GPGSV,3,2,12,48,39,209,47,13,31,053,44,10,23,249,48,05,18,058,42,1*6A
$GPGSV,3,3,12,16,15,293,31,27,13,320,40,26,09,262,46,24,06,130,43,1*60
$GPGSV,2,1,06,18,72,354,39,23,57,266,46,10,23,249,43,27,13,320,42,8*67
$GPGSV,2,2,06,26,09,262,44,24,06,130,39,8*68
$GLGSV,2,1,05,72,70,042,34,88,40,327,40,86,23,123,43,71,21,033,45,1*77
$GLGSV,2,2,05,79,03,324,,1*45
$GAGSV,3,1,09,33,72,042,40,19,38,175,39,12,36,306,29,26,31,099,39,7*71
$GAGSV,3,2,09,07,24,045,41,24,15,287,39,10,13,298,33,31,12,238,45,7*72
$GAGSV,3,3,09,25,01,334,,7*48
$GAGSV,2,1,08,33,72,042,33,19,38,175,43,12,36,306,27,26,31,099,41,1*7F
$GAGSV,2,2,08,07,24,045,37,24,15,287,28,10,13,298,39,31,12,238,43,1*79
$GBGSV,3,1,09,41,74,210,44,28,65,141,46,27,63,308,42,33,50,048,44,1*73
$GBGSV,3,2,09,14,23,046,38,32,19,222,46,30,13,314,39,43,06,137,51,1*77
$GBGSV,3,3,09,63,,,30,1*79
$GBGSV,2,1,07,41,74,210,42,28,65,141,42,27,63,308,39,33,50,048,39,5*7C
$GBGSV,2,2,07,32,19,222,45,30,13,314,27,43,06,137,40,5*4D
$GNGGA,020902.000,4005.098122,N,10513.207638,W,2,52,0.46,1584.951,M,-20.670,M,,*7B
$GPGSV,3,1,12,18,72,354,40,15,58,082,45,23,57,266,42,29,41,169,49,1*67
$GPGSV,3,2,12,48,39,209,47,13,31,053,44,10,23,249,48,05,17,059,42,1*64
$GPGSV,3,3,12,16,15,293,33,27,13,320,39,26,09,262,46,24,06,130,42,1*6D
$GPGSV,2,1,06,18,72,354,39,23,57,266,46,10,23,249,43,27,13,320,42,8*67
$GPGSV,2,2,06,26,09,262,44,24,06,130,39,8*68
$GLGSV,2,1,05,72,70,042,36,88,40,327,40,86,23,123,43,71,21,033,45,1*75
$GLGSV,2,2,05,79,03,324,,1*45
$GAGSV,2,1,08,33,72,042,40,19,38,175,39,12,36,306,29,26,31,099,39,7*71
$GAGSV,2,2,08,07,24,045,41,24,15,287,37,10,13,298,33,31,12,238,45,7*7C
$GAGSV,2,1,08,33,72,042,33,19,38,175,43,12,36,306,28,26,31,099,41,1*70
$GAGSV,2,2,08,07,24,045,38,24,15,287,28,10,13,298,39,31,12,238,43,1*76
$GBGSV,3,1,09,41,74,210,44,28,65,141,46,27,63,308,42,33,50,048,44,1*73
$GBGSV,3,2,09,14,23,046,38,32,19,222,46,30,13,314,39,43,06,137,51,1*77
$GBGSV,3,3,09,63,,,26,1*7E
$GBGSV,2,1,07,41,74,210,42,28,65,141,42,27,63,308,39,33,50,048,39,5*7C
$GBGSV,2,2,07,32,19,222,45,30,13,314,30,43,06,137,40,5*4B
$GNGGA,020907.000,4005.098188,N,10513.207704,W,2,52,0.46,1584.985,M,-20.670,M,,*79
$GPGSV,3,1,12,18,72,354,40,15,58,082,45,23,57,266,42,29,41,169,49,1*67
$GPGSV,3,2,12,48,39,209,47,13,31,053,44,10,24,250,48,05,17,059,43,1*6A
$GPGSV,3,3,12,16,15,293,34,27,13,320,39,26,09,262,45,24,06,130,42,1*69
$GPGSV,2,1,06,18,72,354,38,23,57,266,46,10,24,250,43,27,13,320,42,8*69
$GPGSV,2,2,06,26,09,262,44,24,06,130,40,8*66
$GLGSV,2,1,05,72,70,042,37,88,40,327,40,86,23,123,43,71,21,033,45,1*74
$GLGSV,2,2,05,79,03,324,19,1*4D
$GAGSV,3,1,09,33,72,042,40,19,38,175,39,12,36,306,28,26,31,099,39,7*70
$GAGSV,3,2,09,07,24,045,41,24,15,287,37,10,13,298,33,31,12,238,45,7*7C
$GAGSV,3,3,09,25,01,334,,7*48
$GAGSV,2,1,08,33,72,042,33,19,38,175,43,12,36,306,28,26,31,099,41,1*70
$GAGSV,2,2,08,07,24,045,38,24,15,287,28,10,13,298,39,31,12,238,43,1*76
$GBGSV,3,1,09,41,74,210,44,28,65,141,46,27,63,308,42,33,50,048,44,1*73
$GBGSV,3,2,09,14,23,046,39,32,19,222,46,30,13,314,37,43,06,137,51,1*78
$GBGSV,3,3,09,63,,,29,1*71
$GBGSV,2,1,07,41,74,210,42,28,65,141,42,27,63,308,39,33,50,048,39,5*7C
$GBGSV,2,2,07,32,19,222,45,30,13,314,34,43,06,137,41,5*4E
$GNGGA,020912.000,4005.098176,N,10513.207746,W,2,52,0.46,1585.095,M,-20.670,M,,*73
$GPGSV,3,1,12,18,72,354,40,15,58,080,45,23,57,266,42,29,41,169,49,1*65
$GPGSV,3,2,12,48,39,209,47,13,30,052,44,10,24,250,48,05,17,059,43,1*6A
$GPGSV,3,3,12,16,15,293,35,27,13,320,39,26,09,262,46,24,06,130,42,1*6B
$GPGSV,2,1,06,18,72,354,38,23,57,266,46,10,24,250,43,27,13,320,42,8*69
$GPGSV,2,2,06,26,09,262,44,24,06,130,40,8*66
$GLGSV,2,1,05,72,70,042,37,88,40,327,40,86,23,123,43,71,21,033,45,1*74
$GLGSV,2,2,05,79,03,324,20,1*47
$GAGSV,3,1,09,33,72,042,39,19,38,175,39,12,36,306,27,26,31,099,39,7*71
$GAGSV,3,2,09,07,24,045,41,24,15,287,37,10,13,298,33,31,12,238,45,7*7C
$GAGSV,3,3,09,25,01,334,,7*48
$GAGSV,2,1,08,33,72,042,33,19,38,175,43,12,36,306,28,26,31,099,41,1*70
$GAGSV,2,2,08,07,24,045,39,24,15,287,28,10,13,298,39,31,12,238,43,1*77
$GBGSV,3,1,09,41,74,210,44,28,65,141,46,27,63,308,41,33,50,048,44,1*70
$GBGSV,3,2,09,14,23,046,39,32,19,222,46,30,13,314,36,43,06,137,51,1*79
$GBGSV,3,3,09,63,,,29,1*71
$GBGSV,2,1,07,41,74,210,42,28,65,141,42,27,63,308,39,33,50,048,39,5*7C
$GBGSV,2,2,07,32,19,222,45,30,13,314,35,43,06,137,41,5*4F
$GNGGA,020917.000,4005.098152,N,10513.207740,W,2,52,0.46,1585.230,M,-20.670,M,,*7B
$GPGSV,3,1,12,18,73,358,39,15,58,080,45,23,57,266,42,29,41,169,49,1*66
$GPGSV,3,2,12,48,39,209,47,13,30,052,44,10,24,250,48,05,17,059,43,1*6A
$GPGSV,3,3,12,16,15,292,35,27,13,320,39,26,09,262,45,24,06,130,42,1*69
$GPGSV,2,1,06,18,73,358,38,23,57,266,46,10,24,250,44,27,13,320,42,8*63
$GPGSV,2,2,06,26,09,262,44,24,06,130,41,8*67
$GLGSV,2,1,05,72,70,042,37,88,40,327,38,86,23,123,44,71,21,033,45,1*7C
$GLGSV,2,2,05,79,03,324,17,1*43
$GAGSV,3,1,09,33,72,042,39,19,38,175,39,12,36,306,26,26,31,099,39,7*70
$GAGSV,3,2,09,07,24,045,41,24,15,287,37,10,13,298,32,31,12,238,46,7*7E
$GAGSV,3,3,09,25,01,334,,7*48
$GAGSV,2,1,08,33,72,042,33,19,38,175,43,12,36,306,29,26,31,099,41,1*71
$GAGSV,2,2,08,07,24,045,39,24,15,287,28,10,13,298,39,31,12,238,43,1*77
$GBGSV,3,1,09,41,74,210,44,28,65,141,46,27,63,308,39,33,50,048,44,1*7F
$GBGSV,3,2,09,14,23,046,38,32,19,222,46,30,13,314,34,43,06,137,51,1*7A
$GBGSV,3,3,09,63,,,29,1*71
$GBGSV,2,1,07,41,74,210,42,28,65,141,42,27,63,308,39,33,50,048,39,5*7C
$GBGSV,2,2,07,32,19,222,45,30,13,314,36,43,06,137,42,5*4F
$GNGGA,020922.000,4005.098212,N,10513.207770,W,2,52,0.46,1585.253,M,-20.670,M,,*7C
$GPGSV,3,1,12,18,73,358,39,23,58,268,42,15,58,080,45,29,41,169,49,1*67
$GPGSV,3,2,12,48,39,209,47,13,30,052,44,10,24,250,48,05,17,059,43,1*6A
$GPGSV,3,3,12,16,15,292,33,27,13,320,39,26,09,262,45,24,07,129,41,1*65
$GPGSV,2,1,06,18,73,358,38,23,58,268,46,10,24,250,44,27,13,320,42,8*62
$GPGSV,2,2,06,26,09,262,44,24,07,129,41,8*6E
$GLGSV,2,1,05,72,70,042,37,88,40,327,37,86,23,123,44,71,21,033,45,1*73
$GLGSV,2,2,05,79,03,324,15,1*41
$GAGSV,3,1,09,33,72,042,39,19,38,175,39,12,36,306,26,26,31,099,39,7*70
$GAGSV,3,2,09,07,24,045,41,24,15,287,37,10,13,298,32,31,12,238,46,7*7E
$GAGSV,3,3,09,25,01,334,,7*48
$GAGSV,2,1,08,33,72,042,33,19,38,175,43,12,36,306,29,26,31,099,41,1*71
$GAGSV,2,2,08,07,24,045,39,24,15,287,28,10,13,298,39,31,12,238,43,1*77
$GBGSV,2,1,08,41,74,210,44,28,65,141,47,27,63,308,39,33,50,048,44,1*7E
$GBGSV,2,2,08,14,23,046,38,32,19,222,47,30,13,314,34,43,06,137,51,1*7B
$GBGSV,2,1,07,41,74,210,42,28,65,141,42,27,63,308,39,33,50,048,39,5*7C
$GBGSV,2,2,07,32,19,222,45,30,13,314,36,43,06,137,42,5*4F
$GNGGA,020927.000,4005.098212,N,10513.207764,W,2,52,0.46,1585.218,M,-20.670,M,,*73
$GPGSV,3,1,12,18,73,358,39,23,58,268,42,15,58,080,45,48,39,209,47,1*64
$GPGSV,3,2,12,29,39,169,49,13,30,052,44,10,24,250,48,05,17,059,43,1*66
$GPGSV,3,3,12,16,15,292,33,27,14,320,39,26,09,261,45,24,07,129,41,1*61
$GPGSV,2,1,06,18,73,358,38,23,58,268,46,10,24,250,44,27,14,320,42,8*65
$GPGSV,2,2,06,26,09,261,44,24,07,129,41,8*6D
$GLGSV,2,1,05,72,70,042,37,88,40,327,39,86,23,123,44,71,21,033,45,1*7D
$GLGSV,2,2,05,79,03,324,13,1*47
$GAGSV,3,1,09,33,72,042,39,19,38,175,39,12,36,306,27,26,31,099,39,7*71
$GAGSV,3,2,09,07,24,045,40,24,15,287,37,10,13,298,32,31,12,238,46,7*7F
$GAGSV,3,3,09,25,01,334,,7*48
$GAGSV,2,1,08,33,72,042,33,19,38,175,43,12,36,306,30,26,31,099,41,1*79
$GAGSV,2,2,08,07,24,045,38,24,15,287,29,10,13,298,39,31,12,238,43,1*77
$GBGSV,2,1,08,41,74,210,44,28,65,141,47,27,63,308,41,33,50,048,44,1*71
$GBGSV,2,2,08,14,23,046,38,32,19,222,47,30,13,314,36,43,06,137,51,1*79
$GBGSV,2,1,07,41,74,210,42,28,65,141,42,27,63,308,39,33,50,048,39,5*7C
$GBGSV,2,2,07,32,19,222,45,30,13,314,37,43,06,137,42,5*4E
$GNGGA,020932.000,4005.098194,N,10513.207728,W,2,52,0.46,1585.198,M,-20.670,M,,*79
$GPGSV,3,1,12,18,73,358,39,23,58,268,42,15,58,080,45,48,39,209,47,1*64
$GPGSV,3,2,12,29,39,169,48,13,30,052,44,10,24,250,48,05,17,059,42,1*66
$GPGSV,3,3,12,16,15,292,34,27,14,320,39,26,09,261,45,24,07,129,40,1*67
$GPGSV,2,1,06,18,73,358,38,23,58,268,46,10,24,250,44,27,14,320,43,8*64
$GPGSV,2,2,06,26,09,261,44,24,07,129,41,8*6D
$GLGSV,2,1,05,72,70,042,36,88,40,327,40,86,23,123,44,71,21,033,45,1*72
$GLGSV,2,2,05,79,03,324,12,1*46
$GAGSV,3,1,09,33,72,042,39,19,38,175,39,12,36,306,27,26,31,099,39,7*71
$GAGSV,3,2,09,07,24,045,40,24,15,287,37,10,13,298,32,31,12,238,46,7*7F
$GAGSV,3,3,09,25,01,334,,7*48
$GAGSV,2,1,08,33,72,042,33,19,38,175,43,12,36,306,30,26,31,099,41,1*79
$GAGSV,2,2,08,07,24,045,38,24,15,287,30,10,13,298,39,31,12,238,43,1*7F
$GBGSV,2,1,08,41,74,210,44,28,65,141,47,27,63,308,42,33,50,048,44,1*72
$GBGSV,2,2,08,14,23,046,38,32,19,222,47,30,13,314,39,43,06,137,51,1*76
$GBGSV,2,1,07,41,74,210,42,28,65,141,42,27,63,308,39,33,50,048,39,5*7C
$GBGSV,2,2,07,32,19,222,45,30,13,314,37,43,06,137,43,5*4F
$GNGGA,020937.000,4005.098158,N,10513.207626,W,2,52,0.46,1585.276,M,-20.670,M,,*70
$GPGSV,3,1,12,18,73,358,39,23,58,268,42,15,58,080,45,48,39,209,47,1*64
$GPGSV,3,2,12,29,39,169,48,13,30,052,44,10,24,250,48,05,17,059,42,1*66
$GPGSV,3,3,12,16,15,292,32,27,14,320,39,26,09,261,45,24,07,129,40,1*61
$GPGSV,2,1,06,18,73,358,38,23,58,268,46,10,24,250,44,27,14,320,43,8*64
$GPGSV,2,2,06,26,09,261,44,24,07,129,41,8*6D
$GLGSV,2,1,05,72,70,042,36,88,40,327,40,86,23,123,44,71,21,033,45,1*72
$GLGSV,2,2,05,79,03,324,13,1*47
$GAGSV,2,1,08,33,72,042,40,19,38,175,39,12,36,306,28,26,31,099,39,7*70
$GAGSV,2,2,08,07,24,045,39,24,15,287,36,10,13,298,32,31,12,238,46,7*70
$GAGSV,2,1,08,33,72,042,33,19,38,175,43,12,36,306,30,26,31,099,41,1*79
$GAGSV,2,2,08,07,24,045,37,24,15,287,31,10,13,298,39,31,12,238,43,1*71
$GBGSV,2,1,08,41,74,210,44,28,65,141,47,27,63,308,42,33,50,048,44,1*72
$GBGSV,2,2,08,14,23,046,38,32,19,222,47,30,13,314,39,43,06,137,51,1*76
$GBGSV,2,1,07,41,74,210,42,28,65,141,42,27,63,308,39,33,50,048,39,5*7C
$GBGSV,2,2,07,32,19,222,45,30,13,314,37,43,06,137,43,5*4F
$GNGGA,020942.000,4005.098134,N,10513.207536,W,2,52,0.46,1585.323,M,-20.669,M,,*73
$GPGSV,3,1,12,18,73,358,39,23,58,268,42,15,58,080,45,48,39,209,47,1*64
$GPGSV,3,2,12,29,39,169,48,13,30,052,44,10,24,250,48,05,17,059,42,1*66
$GPGSV,3,3,12,16,15,292,32,27,14,320,39,26,09,261,43,24,07,129,40,1*67
$GPGSV,2,1,06,18,73,358,38,23,58,268,46,10,24,250,44,27,14,320,44,8*63
$GPGSV,2,2,06,26,09,261,44,24,07,129,43,8*6F
$GLGSV,2,1,05,72,70,042,38,88,40,327,40,86,23,123,44,71,21,033,44,1*7D
$GLGSV,2,2,05,79,03,324,,1*45
$GAGSV,3,1,09,33,72,042,40,19,38,175,39,12,36,306,29,26,31,099,39,7*71
$GAGSV,3,2,09,07,24,045,39,24,15,287,35,10,13,298,31,31,12,238,46,7*70
$GAGSV,3,3,09,25,01,334,,7*48
$GAGSV,2,1,08,33,72,042,33,19,38,175,43,12,36,306,31,26,31,099,40,1*79
$GAGSV,2,2,08,07,24,045,37,24,15,287,31,10,13,298,39,31,12,238,43,1*71
$GBGSV,2,1,08,41,74,210,44,28,65,141,47,27,63,308,43,33,50,048,44,1*73
$GBGSV,2,2,08,14,23,046,38,32,19,222,47,30,13,314,41,43,06,137,51,1*79
$GBGSV,2,1,07,41,74,210,42,28,65,141,42,27,63,308,39,33,50,048,39,5*7C
$GBGSV,2,2,07,32,19,222,45,30,13,314,37,43,06,137,43,5*4F
$GNGGA,020947.000,4005.098152,N,10513.207452,W,2,52,0.46,1585.332,M,-20.670,M,,*7D
$GPGSV,3,1,12,18,73,358,39,23,58,268,42,15,58,080,45,48,39,209,47,1*64
$GPGSV,3,2,12,29,39,169,48,13,30,052,44,10,24,250,48,05,17,059,42,1*66
$GPGSV,3,3,12,16,15,292,30,27,14,320,39,26,09,261,43,24,07,129,40,1*65
$GPGSV,2,1,06,18,73,358,38,23,58,268,46,10,24,250,44,27,14,320,44,8*63
$GPGSV,2,2,06,26,09,261,44,24,07,129,43,8*6F
$GLGSV,2,1,05,72,70,042,38,88,40,327,39,86,23,123,44,71,21,033,44,1*73
$GLGSV,2,2,05,79,03,324,,1*45
$GAGSV,3,1,09,33,72,042,40,19,38,175,39,12,36,306,30,26,31,099,39,7*79
$GAGSV,3,2,09,07,24,045,39,24,15,287,35,10,14,299,30,31,12,238,46,7*77
$GAGSV,3,3,09,25,01,334,,7*48
$GAGSV,2,1,08,33,72,042,33,19,38,175,43,12,36,306,31,26,31,099,40,1*79
$GAGSV,2,2,08,07,24,045,37,24,15,287,30,10,14,299,39,31,12,238,43,1*76
$GBGSV,2,1,08,41,74,210,44,28,65,141,47,27,63,308,43,33,50,048,44,1*73
$GBGSV,2,2,08,14,23,046,38,32,19,222,47,30,13,314,41,43,06,137,51,1*79
$GBGSV,2,1,07,41,74,210,42,28,65,141,42,27,63,308,39,33,50,048,39,5*7C
$GBGSV,2,2,07,32,19,222,45,30,13,314,37,43,06,137,43,5*4F
$GNGGA,020952.000,4005.098182,N,10513.207434,W,2,52,0.46,1585.241,M,-20.670,M,,*71
$GPGSV,3,1,12,18,73,358,39,23,58,268,42,15,58,080,45,48,39,209,47,1*64
$GPGSV,3,2,12,29,39,169,48,13,30,052,44,10,24,250,48,05,17,059,42,1*66
$GPGSV,3,3,12,16,15,292,27,27,14,320,39,26,09,261,44,24,07,129,39,1*6A
$GPGSV,2,1,06,18,73,358,38,23,58,268,46,10,24,250,44,27,14,320,44,8*63
$GPGSV,2,2,06,26,09,261,44,24,07,129,43,8*6F
$GLGSV,2,1,05,72,70,042,38,88,40,327,39,86,23,123,44,71,21,033,43,1*74
$GLGSV,2,2,05,79,03,324,18,1*4C
$GAGSV,3,1,09,33,72,042,40,19,38,175,39,12,37,306,30,26,31,099,39,7*78
$GAGSV,3,2,09,07,24,045,39,24,15,287,35,10,14,299,28,31,12,238,46,7*7E
$GAGSV,3,3,09,25,01,334,,7*48
$GAGSV,2,1,08,33,72,042,33,19,38,175,43,12,37,306,30,26,31,099,40,1*79
$GAGSV,2,2,08,07,24,045,38,24,15,287,30,10,14,299,39,31,12,238,43,1*79
$GBGSV,2,1,08,41,74,210,44,28,65,141,47,27,63,308,43,33,50,048,44,1*73
$GBGSV,2,2,08,14,23,046,38,32,19,222,47,30,13,314,41,43,06,137,51,1*79
$GBGSV,2,1,07,41,74,210,42,28,65,141,42,27,63,308,39,33,50,048,39,5*7C
$GBGSV,2,2,07,32,19,222,45,30,13,314,36,43,06,137,43,5*4E
$GNGGA,020957.000,4005.098194,N,10513.207488,W,2,51,0.46,1585.210,M,-20.670,M,,*73
$GPGSV,3,1,12,18,73,358,39,23,58,268,42,15,58,080,45,48,39,209,47,1*64
$GPGSV,3,2,12,29,39,169,48,13,30,052,44,10,24,250,48,05,17,059,42,1*66
$GPGSV,3,3,12,16,15,292,28,27,14,320,39,26,09,261,44,24,07,129,39,1*65
$GPGSV,2,1,06,18,73,358,38,23,58,268,46,10,24,250,44,27,14,320,44,8*63
$GPGSV,2,2,06,26,09,261,44,24,07,129,43,8*6F
$GLGSV,2,1,05,72,70,042,38,88,40,327,39,86,23,123,45,71,21,033,43,1*75
$GLGSV,2,2,05,79,03,324,16,1*42
$GAGSV,3,1,09,33,72,042,40,19,39,175,39,12,37,306,30,26,31,099,39,7*79
$GAGSV,3,2,09,07,24,045,39,24,15,287,35,10,14,299,27,31,12,238,46,7*71
$GAGSV,3,3,09,25,01,334,,7*48
$GAGSV,2,1,08,33,72,042,33,19,39,175,43,12,37,306,31,26,31,099,40,1*79
$GAGSV,2,2,08,07,24,045,38,24,15,287,30,10,14,299,39,31,12,238,43,1*79
$GBGSV,2,1,08,41,74,210,44,28,65,141,47,27,63,308,43,33,50,048,44,1*73
$GBGSV,2,2,08,14,23,046,38,32,19,222,48,30,13,314,41,43,06,137,51,1*76
$GBGSV,2,1,07,41,74,210,42,28,65,141,42,27,63,308,39,33,50,048,39,5*7C
$GBGSV,2,2,07,32,19,222,45,30,13,314,36,43,06,137,43,5*4E
$GNGGA,021002.000,4005.098212,N,10513.207542,W,2,51,0.46,1585.167,M,-20.670,M,,*72
$GPGSV,3,1,12,18,73,358,39,23,58,268,42,15,58,080,45,48,39,209,47,1*64
$GPGSV,3,2,12,29,39,169,48,13,30,052,44,10,24,250,48,05,17,059,42,1*66
$GPGSV,3,3,12,16,15,292,30,27,14,320,38,26,09,261,44,24,07,129,37,1*63
$GPGSV,2,1,06,18,73,358,38,23,58,268,46,10,24,250,44,27,14,320,44,8*63
$GPGSV,2,2,06,26,09,261,44,24,07,129,43,8*6F
$GLGSV,2,1,05,72,70,042,38,88,40,327,39,86,23,123,45,71,21,033,43,1*75
$GLGSV,2,2,05,79,03,324,19,1*4D
$GAGSV,3,1,09,33,72,042,40,19,39,175,39,12,37,306,31,26,30,100,40,7*76
$GAGSV,3,2,09,07,24,045,39,24,15,286,36,10,14,299,26,31,12,238,47,7*73
$GAGSV,3,3,09,25,01,333,,7*4F
$GAGSV,2,1,08,33,72,042,33,19,39,175,43,12,37,306,31,26,30,100,40,1*79
$GAGSV,2,2,08,07,24,045,38,24,15,286,29,10,14,299,39,31,12,238,43,1*70
$GBGSV,2,1,08,41,74,210,44,28,65,141,47,27,63,308,43,33,50,048,44,1*73
$GBGSV,2,2,08,14,23,046,38,32,19,222,48,30,13,314,41,43,06,137,51,1*76
$GBGSV,2,1,07,41,74,210,42,28,65,141,42,27,63,308,38,33,50,048,39,5*7D
$GBGSV,2,2,07,32,19,222,46,30,13,314,34,43,06,137,44,5*48
$GNGGA,021007.000,4005.098296,N,10513.207650,W,2,52,0.46,1585.200,M,-20.670,M,,*7A
$GPGSV,3,1,12,18,73,358,40,23,58,268,42,15,58,080,45,48,39,209,47,1*6A
$GPGSV,3,2,12,29,39,169,47,13,30,052,44,10,24,250,48,05,17,059,42,1*69
$GPGSV,3,3,12,16,15,292,30,27,14,320,38,26,09,261,44,24,07,129,37,1*63
$GPGSV,2,1,06,18,73,358,38,23,58,268,46,10,24,250,44,27,14,320,44,8*63
$GPGSV,2,2,06,26,09,261,44,24,07,129,44,8*68
$GLGSV,2,1,05,72,70,042,38,88,40,327,39,86,23,123,45,71,21,033,43,1*75
$GLGSV,2,2,05,79,03,324,19,1*4D
$GAGSV,3,1,09,33,72,042,40,19,39,175,39,12,37,306,31,26,30,100,40,7*76
$GAGSV,3,2,09,07,24,045,39,24,15,286,36,10,14,299,24,31,12,237,47,7*7E
$GAGSV,3,3,09,25,01,333,,7*4F
$GAGSV,2,1,08,33,72,042,33,19,39,175,43,12,37,306,31,26,30,100,40,1*79
$GAGSV,2,2,08,07,24,045,38,24,15,286,29,10,14,299,39,31,12,237,43,1*7F
$GBGSV,2,1,08,41,74,210,44,28,65,141,47,27,63,308,43,33,50,048,44,1*73
$GBGSV,2,2,08,14,23,046,38,32,19,222,48,30,13,314,40,43,06,137,51,1*77
$GBGSV,2,1,07,41,74,210,42,28,65,141,42,27,63,308,38,33,50,048,39,5*7D
$GBGSV,2,2,07,32,19,222,46,30,13,314,34,43,06,137,44,5*48
$GNGGA,021012.000,4005.098338,N,10513.207722,W,2,51,0.46,1585.193,M,-20.670,M,,*75
$GPGSV,3,1,12,18,73,358,40,23,58,268,42,15,58,080,45,48,39,209,47,1*6A
$GPGSV,3,2,12,29,39,169,47,13,30,052,44,10,24,250,48,05,17,059,42,1*69
$GPGSV,3,3,12,16,15,292,33,27,14,320,38,26,09,261,43,24,07,129,38,1*68
$GPGSV,2,1,06,18,73,358,37,23,58,268,46,10,24,250,44,27,14,320,44,8*6C
$GPGSV,2,2,06,26,09,261,44,24,07,129,44,8*68
$GLGSV,2,1,05,72,70,042,38,88,40,327,38,86,23,123,45,71,21,033,43,1*74
$GLGSV,2,2,05,79,03,324,16,1*42
$GAGSV,3,1,09,33,72,045,40,19,39,175,40,12,37,306,31,26,30,100,40,7*7F
$GAGSV,3,2,09,07,24,045,39,24,15,286,36,10,14,299,25,31,12,237,47,7*7F
$GAGSV,3,3,09,25,01,333,,7*4F
$GAGSV,2,1,08,33,72,045,33,19,39,175,43,12,37,306,31,26,30,100,40,1*7E
$GAGSV,2,2,08,07,24,045,38,24,15,286,28,10,14,299,39,31,12,237,43,1*7E
$GBGSV,2,1,08,41,74,210,44,28,65,141,47,27,63,308,43,33,50,048,44,1*73
$GBGSV,2,2,08,14,23,046,38,32,19,222,48,30,13,314,39,43,06,137,51,1*79
$GBGSV,2,1,07,41,74,210,42,28,65,141,42,27,63,308,38,33,50,048,39,5*7D
$GBGSV,2,2,07,32,19,222,46,30,13,314,34,43,06,137,44,5*48
$GNGGA,021017.000,4005.098350,N,10513.207758,W,2,51,0.46,1585.085,M,-20.670,M,,*75
$GPGSV,3,1,12,18,73,358,40,23,58,268,42,15,58,080,46,48,39,209,47,1*69
$GPGSV,3,2,12,29,39,169,47,13,30,052,44,10,24,250,48,05,17,059,42,1*69
$GPGSV,3,3,12,16,15,292,34,27,14,320,38,26,09,261,44,24,07,129,37,1*67
$GPGSV,2,1,06,18,73,358,37,23,58,268,46,10,24,250,44,27,14,320,44,8*6C
$GPGSV,2,2,06,26,09,261,44,24,07,129,44,8*68
$GLGSV,2,1,05,72,70,042,38,88,40,327,38,86,23,123,45,71,21,033,43,1*74
$GLGSV,2,2,05,79,03,324,13,1*47
$GAGSV,3,1,09,33,72,045,39,19,39,175,40,12,37,306,31,26,30,100,40,7*71
$GAGSV,3,2,09,07,24,045,39,24,15,286,36,10,14,299,24,31,12,237,47,7*7E
$GAGSV,3,3,09,25,01,333,,7*4F
$GAGSV,2,1,08,33,72,045,32,19,39,175,43,12,37,306,31,26,30,100,40,1*7F
$GAGSV,2,2,08,07,24,045,38,24,15,286,28,10,14,299,39,31,12,237,43,1*7E
$GBGSV,2,1,08,41,74,210,44,28,65,141,47,27,63,308,43,33,50,048,44,1*73
$GBGSV,2,2,08,14,23,046,38,32,19,222,49,30,13,314,39,43,06,137,51,1*78
$GBGSV,2,1,07,41,74,210,42,28,65,141,42,27,63,308,38,33,50,048,39,5*7D
$GBGSV,2,2,07,32,19,222,46,30,13,314,35,43,06,137,44,5*49
$GNGGA,021022.000,4005.098326,N,10513.207776,W,2,51,0.46,1584.971,M,-20.669,M,,*75
$GPGSV,3,1,12,18,73,358,40,23,58,268,42,15,58,080,46,48,39,209,47,1*69
$GPGSV,3,2,12,29,39,169,47,13,30,052,44,10,24,250,48,05,17,059,42,1*69
$GPGSV,3,3,12,16,15,292,34,27,14,320,36,26,09,261,44,24,07,129,37,1*69
$GPGSV,2,1,06,18,73,358,37,23,58,268,46,10,24,250,44,27,14,320,44,8*6C
$GPGSV,2,2,06,26,09,261,44,24,07,129,44,8*68
$GLGSV,2,1,05,72,69,040,38,88,40,327,38,86,23,123,45,71,19,033,43,1*75
$GLGSV,2,2,05,79,03,324,15,1*41
$GAGSV,3,1,09,33,72,045,39,19,39,175,40,12,37,306,30,26,30,100,40,7*70
$GAGSV,3,2,09,07,24,045,40,24,15,286,36,10,14,299,24,31,12,237,47,7*70
$GAGSV,3,3,09,25,01,333,,7*4F
$GAGSV,2,1,08,33,72,045,33,19,39,175,43,12,37,306,32,26,30,100,40,1*7D
$GAGSV,2,2,08,07,24,045,37,24,15,286,28,10,14,299,39,31,12,237,42,1*70
$GBGSV,2,1,08,41,74,210,44,28,65,141,47,27,63,308,43,33,50,048,44,1*73
$GBGSV,2,2,08,14,23,046,38,32,19,222,49,30,13,314,39,43,06,137,50,1*79
$GBGSV,2,1,07,41,74,210,42,28,65,141,42,27,63,308,38,33,50,048,39,5*7D
$GBGSV,2,2,07,32,19,222,46,30,13,314,37,43,06,137,44,5*4B
$GNGGA,021027.000,4005.098254,N,10513.207710,W,2,51,0.46,1584.900,M,-20.670,M,,*7A
$GPGSV,3,1,12,18,73,358,40,23,58,268,42,15,58,080,46,48,39,209,47,1*69
$GPGSV,3,2,12,29,39,169,46,13,30,052,44,10,24,250,48,05,17,059,42,1*68
$GPGSV,3,3,12,16,15,292,35,27,14,320,35,26,09,261,44,24,07,129,36,1*6A
$GPGSV,2,1,06,18,73,358,36,23,58,268,46,10,24,250,44,27,14,320,43,8*6A
$GPGSV,2,2,06,26,09,261,44,24,07,129,44,8*68
$GLGSV,2,1,05,72,69,040,38,88,40,327,37,86,23,123,45,71,19,033,43,1*7A
$GLGSV,2,2,05,79,02,323,13,1*41
$GAGSV,3,1,09,33,72,045,39,19,39,175,40,12,37,306,30,26,30,100,40,7*70
$GAGSV,3,2,09,07,24,045,40,24,15,286,36,10,14,299,22,31,12,237,47,7*76
$GAGSV,3,3,09,25,01,333,,7*4F
$GAGSV,2,1,08,33,72,045,33,19,39,175,43,12,37,306,31,26,30,100,40,1*7E
$GAGSV,2,2,08,07,24,045,37,24,15,286,29,10,14,299,39,31,12,237,42,1*71
$GBGSV,2,1,08,41,74,210,44,28,65,141,47,27,63,308,43,33,50,048,44,1*73
$GBGSV,2,2,08,14,23,046,38,32,19,222,49,30,13,314,39,43,06,137,50,1*79
$GBGSV,2,1,07,41,74,210,42,28,65,141,42,27,63,308,38,33,50,048,39,5*7D
$GBGSV,2,2,07,32,19,222,46,30,13,314,38,43,06,137,44,5*44
$GNGGA,021032.000,4005.098230,N,10513.207644,W,2,52,0.46,1585.057,M,-20.670,M,,*75
$GPGSV,3,1,12,18,73,358,40,23,58,268,42,15,58,080,46,48,39,209,47,1*69
$GPGSV,3,2,12,29,39,169,46,13,30,052,44,10,24,250,48,05,17,059,41,1*6B
$GPGSV,3,3,12,16,15,292,35,27,14,320,34,26,09,261,44,24,07,129,36,1*6B
$GPGSV,2,1,06,18,73,358,36,23,58,268,46,10,24,250,44,27,14,320,43,8*6A
$GPGSV,2,2,06,26,09,261,44,24,07,129,44,8*68
$GLGSV,2,1,05,72,69,040,38,88,40,327,36,86,23,123,45,71,19,033,43,1*7B
$GLGSV,2,2,05,79,02,323,15,1*47
$GAGSV,3,1,09,33,72,045,39,19,39,175,40,12,37,306,29,26,30,100,40,7*78
$GAGSV,3,2,09,07,24,045,40,24,15,286,36,10,14,299,18,31,12,237,47,7*7F
$GAGSV,3,3,09,25,01,333,,7*4F
$GAGSV,2,1,08,33,72,045,32,19,39,175,43,12,37,306,32,26,30,100,40,1*7C
$GAGSV,2,2,08,07,24,045,38,24,15,286,29,10,14,299,39,31,12,237,42,1*7E
$GBGSV,2,1,08,41,74,210,44,28,65,141,47,27,63,308,43,33,50,048,44,1*73
$GBGSV,2,2,08,14,23,046,36,32,19,222,49,30,13,314,40,43,06,137,50,1*79
$GBGSV,2,1,07,41,74,210,42,28,65,141,42,27,63,308,38,33,50,048,39,5*7D
$GBGSV,2,2,07,32,19,222,46,30,13,314,39,43,06,137,45,5*44
$GNGGA,021037.000,4005.098206,N,10513.207518,W,2,51,0.46,1585.091,M,-20.670,M,,*76
$GPGSV,3,1,12,18,73,358,40,23,58,268,42,15,58,080,46,48,39,209,47,1*69
$GPGSV,3,2,12,29,39,169,46,13,30,052,43,10,24,250,48,05,17,059,41,1*6C
$GPGSV,3,3,12,16,15,292,33,27,14,320,34,26,09,261,42,24,07,129,36,1*6B
$GPGSV,2,1,06,18,73,358,36,23,58,268,46,10,24,250,44,27,14,320,43,8*6A
$GPGSV,2,2,06,26,09,261,44,24,07,129,45,8*69
$GLGSV,2,1,05,72,69,040,38,88,41,328,33,86,21,124,45,71,19,033,43,1*75
$GLGSV,2,2,05,79,02,323,18,1*4A
$GAGSV,3,1,09,33,72,045,39,19,39,175,40,12,37,306,29,26,30,100,40,7*78
$GAGSV,3,2,09,07,24,045,39,24,15,286,36,10,14,299,15,31,12,237,47,7*7C
$GAGSV,3,3,09,25,01,333,,7*4F
$GAGSV,2,1,08,33,72,045,32,19,39,175,43,12,37,306,32,26,30,100,40,1*7C
$GAGSV,2,2,08,07,24,045,38,24,15,286,29,10,14,299,39,31,12,237,42,1*7E
$GBGSV,2,1,08,41,74,210,44,28,65,141,47,27,63,308,44,33,50,048,44,1*74
$GBGSV,2,2,08,14,23,046,36,32,19,222,49,30,13,314,40,43,06,137,50,1*79
$GBGSV,2,1,07,41,74,210,42,28,65,141,42,27,63,308,38,33,50,048,40,5*73
$GBGSV,2,2,07,32,19,222,46,30,13,314,39,43,06,137,45,5*44
$GNGGA,021042.000,4005.098188,N,10513.207488,W,2,52,0.46,1585.149,M,-20.670,M,,*7E
$GPGSV,3,1,12,18,73,358,40,23,58,268,42,15,58,080,46,48,39,209,47,1*69
$GPGSV,3,2,12,29,39,169,45,13,30,052,43,10,24,250,48,05,17,059,41,1*6F
$GPGSV,3,3,12,16,15,292,30,27,14,320,34,26,09,261,42,24,07,129,36,1*68
$GPGSV,2,1,06,18,73,358,35,23,58,268,46,10,24,250,44,27,14,320,43,8*69
$GPGSV,2,2,06,26,09,261,44,24,07,129,45,8*69
$GLGSV,2,1,05,72,69,040,38,88,41,328,29,86,21,124,45,71,19,033,42,1*7F
$GLGSV,2,2,05,79,02,323,16,1*44
$GAGSV,3,1,09,33,72,045,39,19,39,175,40,12,37,306,29,26,30,100,40,7*78
$GAGSV,3,2,09,07,24,045,39,24,15,286,36,10,14,299,17,31,12,237,47,7*7E
$GAGSV,3,3,09,25,01,333,,7*4F
$GAGSV,2,1,08,33,72,045,32,19,39,175,43,12,37,306,32,26,30,100,39,1*72
$GAGSV,2,2,08,07,24,045,38,24,15,286,30,10,14,299,39,31,12,237,42,1*76
$GBGSV,2,1,08,41,74,210,43,28,65,141,47,27,63,308,44,33,50,048,44,1*73
$GBGSV,2,2,08,14,23,046,36,32,19,222,49,30,13,314,41,43,06,137,49,1*70
$GBGSV,2,1,07,41,74,210,42,28,65,141,42,27,63,308,38,33,50,048,40,5*73
$GBGSV,2,2,07,32,19,222,46,30,13,314,39,43,06,137,45,5*44
$GNGGA,021047.000,4005.098176,N,10513.207524,W,2,52,0.46,1585.312,M,-20.670,M,,*71
$GPGSV,3,1,12,18,73,358,40,23,58,268,42,15,58,080,46,48,39,209,47,1*69
$GPGSV,3,2,12,29,39,169,45,13,30,052,43,10,24,250,48,05,17,059,41,1*6F
$GPGSV,3,3,12,16,15,292,28,27,14,320,35,26,09,261,42,24,07,129,37,1*61
$GPGSV,2,1,06,18,73,358,35,23,58,268,46,10,24,250,44,27,14,320,43,8*69
$GPGSV,2,2,06,26,09,261,44,24,07,129,45,8*69
$GLGSV,2,1,05,72,69,040,38,88,41,328,31,86,21,124,45,71,19,033,42,1*76
$GLGSV,2,2,05,79,02,323,17,1*45
$GAGSV,3,1,09,33,72,045,39,19,39,175,40,12,37,306,30,26,30,100,40,7*70
$GAGSV,3,2,09,07,24,045,39,24,15,286,34,10,14,299,13,31,12,237,47,7*78
$GAGSV,3,3,09,25,01,333,,7*4F
$GAGSV,2,1,08,33,72,045,32,19,39,175,43,12,37,306,32,26,30,100,39,1*72
$GAGSV,2,2,08,07,24,045,38,24,15,286,30,10,14,299,39,31,12,237,42,1*76
$GBGSV,2,1,08,41,74,210,43,28,65,141,47,27,63,308,44,33,50,048,44,1*73
$GBGSV,2,2,08,14,23,046,38,32,19,222,49,30,13,314,41,43,06,137,49,1*7E
$GBGSV,2,1,07,41,74,210,42,28,65,141,42,27,63,308,38,33,50,048,40,5*73
$GBGSV,2,2,07,32,19,222,46,30,13,314,40,43,06,137,45,5*4A
$GNGGA,021052.000,4005.098164,N,10513.207566,W,2,52,0.46,1585.485,M,-20.669,M,,*71
$GPGSV,3,1,12,18,73,358,40,23,58,268,42,15,58,080,46,48,39,209,47,1*69
$GPGSV,3,2,12,29,39,169,45,13,30,052,43,10,24,250,48,05,17,059,41,1*6F
$GPGSV,3,3,12,16,15,292,20,27,14,320,35,26,09,261,43,24,07,129,37,1*68
$GPGSV,2,1,06,18,73,358,35,23,58,268,46,10,24,250,44,27,14,320,43,8*69
$GPGSV,2,2,06,26,09,261,44,24,07,129,45,8*69
$GLGSV,2,1,05,72,69,040,38,88,41,328,29,86,21,124,45,71,19,033,41,1*7C
$GLGSV,2,2,05,79,02,323,13,1*41
$GAGSV,3,1,09,33,72,045,39,19,39,175,40,12,37,306,30,26,30,100,40,7*70
$GAGSV,3,2,09,07,24,045,39,24,15,286,34,10,14,299,14,31,12,237,47,7*7F
$GAGSV,3,3,09,25,01,333,,7*4F
$GAGSV,2,1,08,33,72,045,32,19,39,175,43,12,37,306,32,26,30,100,39,1*72
$GAGSV,2,2,08,07,24,045,38,24,15,286,30,10,14,299,39,31,12,237,42,1*76
$GBGSV,2,1,08,41,74,210,43,28,65,141,47,27,63,308,44,33,50,048,44,1*73
$GBGSV,2,2,08,14,22,046,38,32,19,222,49,30,13,314,41,43,06,137,49,1*7F
$GBGSV,2,1,07,41,74,210,42,28,65,141,42,27,63,308,38,33,50,048,41,5*72
$GBGSV,2,2,07,32,19,222,46,30,13,314,40,43,06,137,45,5*4A
$GNGGA,021057.000,4005.098158,N,10513.207566,W,2,52,0.46,1585.623,M,-20.670,M,,*7D
$GPGSV,3,1,12,18,73,358,40,23,58,268,42,15,58,080,46,48,39,209,47,1*69
$GPGSV,3,2,12,29,39,169,45,13,30,052,43,10,24,250,48,05,17,059,41,1*6F
$GPGSV,3,3,12,16,15,292,20,27,14,320,35,26,09,261,42,24,07,129,37,1*69
$GPGSV,2,1,06,18,73,358,35,23,58,268,46,10,24,250,44,27,14,320,43,8*69
$GPGSV,2,2,06,26,09,261,44,24,07,129,45,8*69
$GLGSV,2,1,05,72,69,040,39,88,41,328,29,86,21,124,45,71,19,033,41,1*7D
$GLGSV,2,2,05,79,02,323,15,1*47
$GAGSV,3,1,09,33,72,045,40,19,39,175,40,12,37,306,30,26,30,100,40,7*7E
$GAGSV,3,2,09,07,24,045,39,24,15,286,32,10,14,299,18,31,12,237,46,7*74
$GAGSV,3,3,09,25,01,333,,7*4F
$GAGSV,2,1,08,33,72,045,32,19,39,175,43,12,37,306,32,26,30,100,39,1*72
$GAGSV,2,2,08,07,24,045,38,24,15,286,31,10,14,299,39,31,12,237,42,1*77
$GBGSV,2,1,08,41,74,210,43,28,65,141,47,27,63,308,44,33,50,048,44,1*73
$GBGSV,2,2,08,14,22,046,38,32,19,222,49,30,13,314,41,43,06,137,48,1*7E
$GBGSV,2,1,07,41,74,210,42,28,65,141,42,27,63,308,38,33,50,048,41,5*72
$GBGSV,2,2,07,32,19,222,46,30,13,314,40,43,06,137,45,5*4A
$GNGGA,021102.000,4005.098182,N,10513.207494,W,2,52,0.46,1585.740,M,-20.670,M,,*73
$GPGSV,3,1,12,18,73,358,40,23,58,268,42,15,58,080,46,48,39,209,47,1*69
$GPGSV,3,2,12,29,39,169,45,13,30,052,43,10,24,250,48,05,17,059,41,1*6F
$GPGSV,3,3,12,16,15,292,25,27,14,320,35,26,09,261,42,24,07,129,37,1*6C
$GPGSV,2,1,06,18,73,358,35,23,58,268,46,10,24,250,44,27,14,320,43,8*69
$GPGSV,2,2,06,26,09,261,44,24,07,129,46,8*6A
$GLGSV,2,1,05,72,69,040,39,88,41,328,27,86,21,124,45,71,19,033,41,1*73
$GLGSV,2,2,05,79,02,323,15,1*47
