$GNGGA,093637.000,4005.098608,N,10513.208154,W,2,54,0.46,1584.753,M,-20.669,M,,*75
$GPGSV,3,1,12,03,70,269,46,31,57,046,35,26,55,111,43,04,45,304,38,1*61
$GPGSV,3,2,12,48,39,209,47,16,35,158,45,28,28,053,40,02,07,222,48,1*6D
$GPGSV,3,3,12,09,07,292,33,06,06,326,31,32,05,102,39,21,02,210,16,1*6D
$GPGSV,2,1,07,03,70,269,45,26,55,111,43,04,45,304,26,28,28,053,39,8*69
$GPGSV,2,2,07,09,07,292,26,06,06,326,31,32,05,102,39,8*51
$GLGSV,2,1,08,78,79,101,38,68,70,024,40,67,37,110,42,79,36,198,48,1*76
$GLGSV,2,2,08,69,29,321,36,77,24,033,33,84,09,289,33,85,05,341,34,1*78
$GAGSV,2,1,08,09,69,339,32,31,50,134,44,04,45,086,39,05,22,294,35,7*7A
$GAGSV,2,2,08,36,22,252,42,34,17,305,30,24,17,183,48,11,06,207,47,7*7F
$GAGSV,2,1,08,09,69,339,36,31,50,134,43,04,45,086,37,05,22,294,39,1*7D
$GAGSV,2,2,08,36,22,252,39,34,17,305,38,24,17,183,39,11,06,207,42,1*7E
$GBGSV,2,1,07,46,73,177,44,19,66,317,44,20,60,126,45,37,42,051,46,1*7C
$GBGSV,2,2,07,36,25,213,50,22,13,311,38,32,07,129,50,1*45
$GBGSV,2,1,07,46,73,177,44,19,66,317,35,20,60,126,46,37,42,051,43,5*78
$GBGSV,2,2,07,36,25,213,35,22,13,311,39,32,07,129,40,5*42
$PAIR001,062,0*3F
$PAIR001,062,0*3F
$PAIR001,062,0*3F
$PAIR001,062,0*3F
$PAIR001,062,0*3F
$PAIR001,062,0*3F
$PAIR001,062,0*3F
$PAIR001,062,0*3F
$PAIR001,062,0*3F
$GNGGA,093642.000,4005.098614,N,10513.208058,W,2,55,0.46,1584.814,M,-20.670,M,,*72
$GPGSV,3,1,12,03,70,269,46,31,57,046,34,26,55,111,43,04,45,304,38,1*60
$GPGSV,3,2,12,48,39,209,47,16,35,158,45,28,28,053,41,02,07,222,48,1*6C
$GPGSV,3,3,12,09,07,292,32,06,06,326,27,32,05,102,40,21,02,210,13,1*60
$GPGSV,2,1,07,03,70,269,44,26,55,111,43,04,45,304,26,28,28,053,38,8*69
$GPGSV,2,2,07,09,07,292,26,06,06,326,30,32,05,102,38,8*51
$GLGSV,2,1,08,78,79,101,39,68,70,024,40,67,37,110,42,79,36,198,48,1*77
$GLGSV,2,2,08,69,29,321,35,77,24,033,33,84,09,289,32,85,05,341,34,1*7A
$GAGSV,2,1,08,09,69,339,31,31,50,134,44,04,45,086,39,05,22,294,34,7*78
$GAGSV,2,2,08,36,22,252,43,34,17,305,31,24,17,183,48,11,06,207,46,7*7E
$GAGSV,2,1,08,09,69,339,36,31,50,134,43,04,45,086,36,05,22,294,38,1*7D
$GAGSV,2,2,08,36,22,252,39,34,17,305,38,24,17,183,39,11,06,207,42,1*7E
$GBGSV,2,1,07,46,73,177,44,19,66,317,44,20,60,126,45,37,42,051,46,1*7C
$GBGSV,2,2,07,36,26,214,50,22,13,311,38,32,06,130,50,1*48
$GBGSV,2,1,07,46,73,177,44,19,66,317,35,20,60,126,46,37,42,051,42,5*79
$GBGSV,2,2,07,36,26,214,36,22,13,311,39,32,06,130,41,5*4D
$GNGGA,093647.000,4005.098656,N,10513.207938,W,2,54,0.46,1584.832,M,-20.670,M,,*74
$GPGSV,3,1,12,03,70,269,46,31,57,046,34,26,55,111,43,04,45,304,39,1*61
$GPGSV,3,2,12,48,39,209,47,16,35,158,45,28,28,053,41,02,07,222,49,1*6D
$GPGSV,3,3,12,09,07,292,34,06,06,326,26,32,05,102,40,21,02,210,14,1*60
$GPGSV,2,1,07,03,70,269,44,26,55,111,43,04,45,304,26,28,28,053,38,8*69
$GPGSV,2,2,07,09,07,292,27,06,06,326,30,32,05,102,38,8*50
$GLGSV,2,1,08,78,79,101,39,68,70,024,41,67,37,110,41,79,36,198,48,1*75
$GLGSV,2,2,08,69,29,321,35,77,24,033,33,84,09,289,32,85,05,341,35,1*7B
$GAGSV,2,1,08,09,69,339,32,31,50,134,44,04,45,086,39,05,22,294,34,7*7B
$GAGSV,2,2,08,36,22,252,43,34,17,305,31,24,17,183,48,11,06,207,46,7*7E
$GAGSV,2,1,08,09,69,339,36,31,50,134,43,04,45,086,36,05,22,294,38,1*7D
$GAGSV,2,2,08,36,22,252,39,34,17,305,38,24,17,183,39,11,06,207,42,1*7E
$GBGSV,2,1,08,46,73,177,44,19,66,317,44,20,60,126,45,37,41,051,46,1*70
$GBGSV,2,2,08,36,26,214,50,57,16,292,,22,13,311,38,32,06,130,50,1*7B
$GBGSV,2,1,07,46,73,177,44,19,66,317,35,20,60,126,46,37,41,051,42,5*7A
$GBGSV,2,2,07,36,26,214,36,22,13,311,39,32,06,130,41,5*4D
$GNGGA,093652.000,4005.098632,N,10513.207866,W,2,55,0.46,1584.838,M,-20.670,M,,*73
$GPGSV,3,1,12,03,70,269,46,31,57,046,34,26,55,111,43,04,45,304,38,1*60
$GPGSV,3,2,12,48,39,209,47,16,35,158,45,28,28,053,41,02,07,222,49,1*6D
$GPGSV,3,3,12,09,07,292,32,06,06,326,26,32,05,102,40,21,02,210,16,1*64
$GPGSV,2,1,07,03,70,269,45,26,55,111,43,04,45,304,26,28,28,053,38,8*68
$GPGSV,2,2,07,09,07,292,28,06,06,326,29,32,05,102,39,8*56
$GLGSV,2,1,08,78,79,101,39,68,70,024,41,67,37,110,41,79,36,198,48,1*75
$GLGSV,2,2,08,69,29,321,35,77,24,033,33,84,09,289,32,85,05,341,36,1*78
$GAGSV,2,1,08,09,69,339,33,31,50,134,44,04,45,086,39,05,22,294,32,7*7C
$GAGSV,2,2,08,36,22,252,43,34,17,305,30,24,17,183,48,11,06,207,46,7*7F
$GAGSV,2,1,08,09,69,339,36,31,50,134,43,04,45,086,37,05,22,294,38,1*7C
$GAGSV,2,2,08,36,22,252,39,34,17,305,39,24,17,183,39,11,06,207,43,1*7E
$GBGSV,2,1,08,46,75,175,44,19,66,317,44,20,60,126,45,37,41,051,46,1*74
$GBGSV,2,2,08,36,26,214,50,57,16,292,,22,13,311,38,32,06,130,50,1*7B
$GBGSV,2,1,07,46,75,175,44,19,66,317,35,20,60,126,46,37,41,051,42,5*7E
$GBGSV,2,2,07,36,26,214,37,22,13,311,39,32,06,130,42,5*4F
$GNGGA,093657.000,4005.098602,N,10513.207842,W,2,54,0.46,1584.886,M,-20.670,M,,*77
$GPGSV,3,1,12,03,70,269,46,31,57,046,34,26,55,111,43,04,45,304,38,1*60
$GPGSV,3,2,12,48,39,209,47,16,35,158,45,28,28,053,41,02,07,222,49,1*6D
$GPGSV,3,3,12,09,07,292,29,06,06,326,29,32,05,102,40,21,02,210,17,1*60
$GPGSV,2,1,07,03,70,269,45,26,55,111,43,04,45,304,26,28,28,053,39,8*69
$GPGSV,2,2,07,09,07,292,28,06,06,326,28,32,05,102,39,8*57
$GLGSV,2,1,08,78,79,101,40,68,70,024,41,67,37,110,40,79,36,198,48,1*7A
$GLGSV,2,2,08,69,29,321,35,77,24,033,34,84,09,289,32,85,05,341,36,1*7F
$GAGSV,2,1,08,09,69,339,33,31,50,134,44,04,45,086,39,05,22,294,31,7*7F
$GAGSV,2,2,08,36,22,252,43,34,17,305,30,24,17,183,48,11,06,207,46,7*7F
$GAGSV,2,1,08,09,69,339,36,31,50,134,43,04,45,086,37,05,22,294,38,1*7C
$GAGSV,2,2,08,36,22,252,40,34,17,305,39,24,17,183,39,11,06,207,43,1*70
$GBGSV,2,1,08,46,75,175,44,19,66,317,44,20,60,126,45,37,41,051,46,1*74
$GBGSV,2,2,08,36,26,214,50,57,16,292,,22,13,311,38,32,06,130,50,1*7B
$GBGSV,2,1,07,46,75,175,44,19,66,317,35,20,60,126,46,37,41,051,42,5*7E
$GBGSV,2,2,07,36,26,214,38,22,13,311,38,32,06,130,42,5*41
$GNGGA,093702.000,4005.098548,N,10513.207890,W,2,54,0.46,1584.819,M,-20.670,M,,*72
$GPGSV,3,1,12,03,70,269,45,31,57,046,34,26,55,111,43,04,45,304,37,1*6C
$GPGSV,3,2,12,48,39,209,47,16,35,158,45,28,28,053,41,02,07,222,49,1*6D
$GPGSV,3,3,12,09,07,292,32,06,06,326,28,32,05,102,40,21,02,210,17,1*6B
$GPGSV,2,1,07,03,70,269,45,26,55,111,43,04,45,304,27,28,28,053,39,8*68
$GPGSV,2,2,07,09,07,292,28,06,06,326,28,32,05,102,39,8*57
$GLGSV,2,1,08,78,79,101,39,68,70,024,41,67,37,110,40,79,36,198,47,1*7B
$GLGSV,2,2,08,69,29,321,35,77,24,033,34,84,09,289,32,85,05,341,35,1*7C
$GAGSV,2,1,08,09,69,339,33,31,50,134,44,04,45,086,39,05,22,294,31,7*7F
$GAGSV,2,2,08,36,22,252,43,34,17,305,30,24,17,183,48,11,06,207,46,7*7F
$GAGSV,2,1,08,09,69,339,36,31,50,134,43,04,45,086,37,05,22,294,38,1*7C
$GAGSV,2,2,08,36,22,252,40,34,17,305,39,24,17,183,39,11,06,207,43,1*70
$GBGSV,2,1,08,46,75,175,44,19,66,317,44,20,60,126,45,37,41,051,46,1*74
$GBGSV,2,2,08,36,26,214,50,57,16,292,,22,13,311,36,32,06,130,50,1*75
$GBGSV,2,1,07,46,75,175,44,19,66,317,35,20,60,126,46,37,41,051,42,5*7E
$GBGSV,2,2,07,36,26,214,38,22,13,311,36,32,06,130,42,5*4F
$GNGGA,093707.000,4005.098542,N,10513.207950,W,2,55,0.46,1584.779,M,-20.669,M,,*70
$GPGSV,3,1,12,03,70,269,45,31,57,046,34,26,55,111,43,04,45,304,36,1*6D
$GPGSV,3,2,12,48,39,209,47,16,35,158,45,28,28,053,41,02,07,222,50,1*65
$GPGSV,3,3,12,09,07,292,34,06,06,326,29,32,05,102,40,21,02,210,12,1*69
$GPGSV,2,1,07,03,70,269,45,26,55,111,43,04,45,304,28,28,28,053,39,8*67
$GPGSV,2,2,07,09,07,292,29,06,06,326,28,32,05,102,39,8*56
$GLGSV,2,1,08,78,79,101,39,68,70,024,41,67,37,110,41,79,36,198,47,1*7A
$GLGSV,2,2,08,69,29,321,35,77,24,033,33,84,09,289,32,85,05,341,35,1*7B
$GAGSV,2,1,08,09,69,339,33,31,50,134,44,04,45,086,39,05,22,294,31,7*7F
$GAGSV,2,2,08,36,22,252,43,34,17,305,29,24,17,183,48,11,06,207,46,7*77
$GAGSV,2,1,08,09,69,339,36,31,50,134,43,04,45,086,37,05,22,294,38,1*7C
$GAGSV,2,2,08,36,22,252,40,34,17,305,39,24,17,183,38,11,06,207,43,1*71
$GBGSV,2,1,07,46,75,175,44,19,66,317,44,20,60,126,44,37,41,051,46,1*7A
$GBGSV,2,2,07,36,26,214,50,22,13,311,34,32,06,130,50,1*44
$GBGSV,2,1,07,46,75,175,44,19,66,317,35,20,60,126,46,37,41,051,41,5*7D
$GBGSV,2,2,07,36,26,214,38,22,13,311,35,32,06,130,42,5*4C
$GNGGA,093712.000,4005.098578,N,10513.208016,W,2,54,0.46,1584.708,M,-20.670,M,,*76
$GPGSV,3,1,12,03,70,265,45,31,57,046,34,26,55,111,43,04,45,304,36,1*61
$GPGSV,3,2,12,48,39,209,47,16,35,158,45,28,28,053,41,09,07,292,33,1*60
$GPGSV,3,3,12,02,06,221,50,06,06,326,30,32,05,102,41,21,02,210,,1*63
$GPGSV,2,1,07,03,70,265,45,26,55,111,43,04,45,304,28,28,28,053,39,8*6B
$GPGSV,2,2,07,09,07,292,29,06,06,326,29,32,05,102,39,8*57
$GLGSV,2,1,08,78,79,101,39,68,70,024,41,67,37,110,41,79,36,198,47,1*7A
$GLGSV,2,2,08,69,29,321,35,77,24,033,33,84,09,289,33,85,05,341,34,1*7B
$GAGSV,2,1,08,09,69,339,33,31,50,134,44,04,45,086,39,05,22,294,31,7*7F
$GAGSV,2,2,08,36,22,252,43,34,17,305,29,24,17,183,48,11,06,207,45,7*74
$GAGSV,2,1,08,09,69,339,36,31,50,134,43,04,45,086,37,05,22,294,38,1*7C
$GAGSV,2,2,08,36,22,252,40,34,17,305,39,24,17,183,38,11,06,207,43,1*71
$GBGSV,2,1,08,46,75,175,44,19,66,317,44,20,60,126,44,37,41,051,46,1*75
$GBGSV,2,2,08,36,26,214,50,57,16,293,,22,13,311,34,32,06,130,50,1*76
$GBGSV,2,1,07,46,75,175,44,19,66,317,35,20,60,126,46,37,41,051,41,5*7D
$GBGSV,2,2,07,36,26,214,38,22,13,311,34,32,06,130,43,5*4C
$GNGGA,093717.000,4005.098578,N,10513.208058,W,2,55,0.46,1584.679,M,-20.670,M,,*7F
$GPGSV,3,1,12,03,70,265,45,31,57,046,34,26,55,111,43,04,46,305,36,1*63
$GPGSV,3,2,12,48,39,209,47,16,35,158,45,28,28,053,41,09,07,292,33,1*60
$GPGSV,3,3,12,02,06,221,50,06,06,325,29,32,05,102,41,21,02,210,,1*68
$GPGSV,2,1,07,03,70,265,45,26,55,111,43,04,46,305,28,28,28,053,39,8*69
$GPGSV,2,2,07,09,07,292,29,06,06,325,29,32,05,102,39,8*54
$GLGSV,2,1,08,78,79,101,40,68,70,024,41,67,37,110,41,79,36,198,47,1*74
$GLGSV,2,2,08,69,29,321,36,77,24,033,33,84,09,289,33,85,05,341,34,1*78
$GAGSV,2,1,08,09,69,339,34,31,50,134,44,04,45,086,39,05,22,294,31,7*78
$GAGSV,2,2,08,36,22,252,43,34,17,305,29,24,17,183,48,11,06,207,45,7*74
$GAGSV,2,1,08,09,69,339,36,31,50,134,43,04,45,086,37,05,22,294,38,1*7C
$GAGSV,2,2,08,36,22,252,40,34,17,305,39,24,17,183,38,11,06,207,43,1*71
$GBGSV,2,1,07,46,75,175,44,19,66,317,44,20,60,126,44,37,41,051,46,1*7A
$GBGSV,2,2,07,36,26,214,50,22,13,311,33,32,06,130,50,1*43
$GBGSV,2,1,07,46,75,175,44,19,66,317,35,20,60,126,46,37,41,051,41,5*7D
$GBGSV,2,2,07,36,26,214,39,22,13,311,35,32,06,130,43,5*4C
$GNGGA,093722.000,4005.098554,N,10513.208010,W,2,55,0.46,1584.672,M,-20.670,M,,*70
$GPGSV,3,1,12,03,70,265,45,31,57,046,35,26,55,111,43,04,46,305,36,1*62
$GPGSV,3,2,12,48,39,209,47,16,35,158,45,28,28,053,41,09,08,292,33,1*6F
$GPGSV,3,3,12,02,06,221,50,06,06,325,26,32,05,102,41,21,02,210,,1*67
$GPGSV,2,1,07,03,70,265,45,26,55,111,43,04,46,305,28,28,28,053,39,8*69
$GPGSV,2,2,07,09,08,292,29,06,06,325,29,32,05,102,39,8*5B
$GLGSV,2,1,08,78,79,101,40,68,70,024,41,67,37,110,41,79,36,198,47,1*74
$GLGSV,2,2,08,69,29,321,36,77,24,033,32,84,09,289,33,85,05,341,35,1*78
$GAGSV,2,1,08,09,69,339,34,31,50,134,44,04,45,086,39,36,22,252,43,7*77
$GAGSV,2,2,08,05,22,294,31,34,17,305,28,24,17,183,48,11,06,207,45,7*7A
$GAGSV,2,1,08,09,69,339,36,31,50,134,43,04,45,086,37,36,22,252,40,1*79
$GAGSV,2,2,08,05,22,294,38,24,17,183,38,34,17,305,39,11,06,207,44,1*73
$GBGSV,2,1,08,46,75,175,44,19,66,317,44,20,60,126,44,37,41,051,46,1*75
$GBGSV,2,2,08,36,26,214,50,57,16,293,,22,13,311,34,32,06,130,50,1*76
$GBGSV,2,1,07,46,75,175,44,19,66,317,35,20,60,126,46,37,41,051,40,5*7C
$GBGSV,2,2,07,36,26,214,39,22,13,311,36,32,06,130,43,5*4F
$GNGGA,093727.000,4005.098542,N,10513.207986,W,2,55,0.46,1584.753,M,-20.670,M,,*79
$GPGSV,3,1,12,03,70,265,45,31,57,046,35,26,55,111,42,04,46,305,35,1*60
$GPGSV,3,2,12,48,39,209,47,16,36,157,45,28,28,053,41,09,08,292,32,1*62
$GPGSV,3,3,12,02,06,221,50,06,06,325,26,32,05,102,41,21,02,210,,1*67
$GPGSV,2,1,07,03,70,265,45,26,55,111,43,04,46,305,28,28,28,053,39,8*69
$GPGSV,2,2,07,09,08,292,29,06,06,325,29,32,05,102,39,8*5B
$GLGSV,2,1,08,78,79,101,39,68,70,024,41,67,37,110,41,79,36,198,47,1*7A
$GLGSV,2,2,08,69,29,321,35,77,24,033,31,84,09,289,32,85,05,341,35,1*79
$GAGSV,2,1,08,09,69,339,34,31,50,134,44,04,45,086,39,36,22,252,43,7*77
$GAGSV,2,2,08,05,22,294,31,34,17,305,29,24,17,183,48,11,06,207,45,7*7B
$GAGSV,2,1,08,09,69,339,36,31,50,134,43,04,45,086,37,36,22,252,40,1*79
$GAGSV,2,2,08,05,22,294,38,24,17,183,38,34,17,305,39,11,06,207,44,1*73
$GBGSV,2,1,08,46,75,175,44,19,66,317,43,20,60,126,44,37,41,051,46,1*72
$GBGSV,2,2,08,36,26,214,50,57,16,293,,22,13,311,35,32,06,130,50,1*77
$GBGSV,2,1,07,46,75,175,44,19,66,317,35,20,60,126,46,37,41,051,40,5*7C
$GBGSV,2,2,07,36,26,214,40,22,13,311,38,32,06,130,43,5*4F
$GNGGA,093732.000,4005.098494,N,10513.208004,W,2,55,0.46,1584.886,M,-20.670,M,,*7C
$GPGSV,3,1,12,03,70,265,45,31,57,046,35,26,55,111,42,04,46,305,35,1*60
$GPGSV,3,2,12,48,39,209,47,16,36,157,45,28,28,053,41,09,08,292,29,1*68
$GPGSV,3,3,12,02,06,221,50,06,06,325,21,32,05,102,42,21,01,209,,1*68
$GPGSV,2,1,07,03,70,265,45,26,55,111,43,04,46,305,28,28,28,053,39,8*69
$GPGSV,2,2,07,09,08,292,30,06,06,325,29,32,05,102,38,8*52
$GLGSV,2,1,08,78,79,101,38,68,70,024,40,67,37,110,41,79,36,198,46,1*7B
$GLGSV,2,2,08,69,29,321,34,77,24,033,31,84,09,289,31,85,05,341,35,1*7B
$GAGSV,2,1,08,09,69,339,35,31,50,134,44,04,45,086,39,36,22,252,43,7*76
$GAGSV,2,2,08,05,22,294,31,34,17,305,29,24,17,183,48,11,06,207,44,7*7A
$GAGSV,2,1,08,09,69,339,36,31,50,134,43,04,45,086,37,36,22,252,40,1*79
$GAGSV,2,2,08,05,22,294,38,24,17,183,37,34,17,305,39,11,06,207,44,1*7C
$GBGSV,2,1,08,46,75,175,44,19,66,317,43,20,60,126,44,37,41,051,46,1*72
$GBGSV,2,2,08,36,26,214,50,57,16,293,,22,13,311,37,32,06,130,50,1*75
$GBGSV,2,1,07,46,75,175,44,19,66,317,34,20,60,126,46,37,41,051,40,5*7D
$GBGSV,2,2,07,36,26,214,40,22,13,311,39,32,06,130,43,5*4E
$GNGGA,093737.000,4005.098476,N,10513.208052,W,2,55,0.46,1584.957,M,-20.670,M,,*7B
$GPGSV,3,1,12,03,70,265,45,31,57,046,35,26,55,109,42,04,46,305,35,1*69
$GPGSV,3,2,12,48,39,209,47,16,36,157,45,28,27,053,41,09,08,292,30,1*6F
$GPGSV,3,3,12,02,06,221,51,06,06,325,21,32,05,102,43,21,01,209,,1*68
$GPGSV,2,1,07,03,70,265,45,26,55,109,43,04,46,305,28,28,27,053,39,8*6F
$GPGSV,2,2,07,09,08,292,30,06,06,325,29,32,05,102,38,8*52
$GLGSV,2,1,08,78,79,101,40,68,70,024,41,67,37,110,41,79,36,198,46,1*75
$GLGSV,2,2,08,69,29,321,35,77,24,033,31,84,09,289,31,85,05,341,36,1*79
$GAGSV,2,1,08,09,69,339,35,31,50,134,44,04,45,086,40,36,22,252,43,7*78
$GAGSV,2,2,08,05,22,294,30,34,17,305,29,24,17,183,48,11,06,207,44,7*7B
$GAGSV,2,1,08,09,69,339,36,31,50,134,44,04,45,086,37,36,22,252,40,1*7E
$GAGSV,2,2,08,05,22,294,38,24,17,183,37,34,17,305,39,11,06,207,44,1*7C
$GBGSV,2,1,08,46,75,175,44,19,66,317,43,20,60,126,44,37,41,051,46,1*72
$GBGSV,2,2,08,36,26,214,50,57,16,293,,22,13,311,39,32,06,130,50,1*7B
$GBGSV,2,1,07,46,75,175,44,19,66,317,34,20,60,126,46,37,41,051,40,5*7D
$GBGSV,2,2,07,36,26,214,40,22,13,311,41,32,06,130,44,5*46
$GNGGA,093742.000,4005.098482,N,10513.208106,W,2,53,0.49,1584.933,M,-20.670,M,,*79
$GPGSV,3,1,12,03,70,265,45,31,56,046,35,26,55,109,42,04,46,305,35,1*68
$GPGSV,3,2,12,48,39,209,47,16,36,157,45,28,27,053,41,09,08,292,33,1*6C
$GPGSV,3,3,12,02,06,221,51,06,06,325,18,32,04,102,43,21,01,209,,1*63
$GPGSV,2,1,07,03,70,265,45,26,55,109,43,04,46,305,27,28,27,053,39,8*60
$GPGSV,2,2,07,09,08,292,27,06,06,325,28,32,04,102,38,8*54
$GLGSV,2,1,08,78,79,101,40,68,70,024,41,67,37,110,41,79,36,198,46,1*75
$GLGSV,2,2,08,69,29,321,35,77,24,033,31,84,09,289,31,85,05,341,36,1*79
$GAGSV,2,1,08,09,69,339,35,31,50,134,44,04,45,086,40,36,22,252,44,7*7F
$GAGSV,2,2,08,05,22,294,30,34,17,305,28,24,17,183,48,11,06,207,44,7*7A
$GAGSV,2,1,08,09,69,339,36,31,50,134,44,04,45,086,37,36,22,252,40,1*7E
$GAGSV,2,2,08,05,22,294,38,24,17,183,37,34,17,305,39,11,06,207,44,1*7C
$GBGSV,3,1,09,46,75,175,44,19,66,317,43,20,60,126,44,37,41,051,46,1*72
$GBGSV,3,2,09,36,26,214,50,57,16,293,,22,13,311,39,32,06,130,50,1*7B
$GBGSV,3,3,09,63,,,27,1*7F
$GBGSV,2,1,07,46,75,175,44,19,66,317,34,20,60,126,46,37,41,051,40,5*7D
$GBGSV,2,2,07,36,26,214,40,22,13,311,41,32,06,130,44,5*46
$GNGGA,093747.000,4005.098536,N,10513.208154,W,2,53,0.49,1584.926,M,-20.670,M,,*71
$GPGSV,3,1,12,03,70,265,45,31,56,046,35,26,55,109,42,04,46,305,35,1*68
$GPGSV,3,2,12,48,39,209,47,16,36,157,45,28,27,053,42,09,08,292,33,1*6F
$GPGSV,3,3,12,02,06,221,51,06,06,325,21,32,04,102,43,21,01,209,,1*69
$GPGSV,2,1,07,03,70,265,45,26,55,109,43,04,46,305,27,28,27,053,39,8*60
$GPGSV,2,2,07,09,08,292,25,06,06,325,28,32,04,102,38,8*56
$GLGSV,2,1,08,78,79,101,39,68,70,024,40,67,37,110,41,79,36,198,46,1*7A
$GLGSV,2,2,08,69,29,321,35,77,24,033,31,84,09,289,31,85,05,341,34,1*7B
$GAGSV,2,1,08,09,69,339,35,31,50,134,44,04,45,086,40,36,22,252,44,7*7F
$GAGSV,2,2,08,05,22,294,30,34,17,305,27,24,17,183,48,11,06,207,44,7*75
$GAGSV,2,1,08,09,69,339,36,31,50,134,44,04,45,086,37,36,22,252,40,1*7E
$GAGSV,2,2,08,05,22,294,38,24,17,183,37,34,17,305,39,11,06,207,44,1*7C
$GBGSV,3,1,09,46,75,175,44,19,66,317,43,20,60,126,44,37,41,051,46,1*72
$GBGSV,3,2,09,36,26,214,50,57,16,293,,22,13,311,40,32,06,130,50,1*75
$GBGSV,3,3,09,63,,,27,1*7F
$GBGSV,2,1,07,46,75,175,44,19,66,317,34,20,60,126,46,37,41,051,40,5*7D
$GBGSV,2,2,07,36,26,214,41,22,13,311,41,32,06,130,44,5*47
$GNGGA,093752.000,4005.098620,N,10513.208244,W,2,53,0.49,1584.905,M,-20.670,M,,*72
$GPGSV,3,1,12,03,70,265,45,31,56,046,35,26,55,109,42,04,46,305,34,1*69
$GPGSV,3,2,12,48,39,209,47,16,36,157,45,28,27,053,42,09,08,292,31,1*6D
$GPGSV,3,3,12,02,06,221,51,06,06,325,26,32,04,102,43,21,01,209,,1*6E
$GPGSV,2,1,07,03,70,265,45,26,55,109,43,04,46,305,28,28,27,053,39,8*6F
$GPGSV,2,2,07,09,08,292,26,06,06,325,29,32,04,102,38,8*54
$GLGSV,2,1,08,78,79,101,38,68,70,024,40,67,37,110,41,79,36,198,46,1*7B
$GLGSV,2,2,08,69,29,321,35,77,24,033,30,84,09,289,31,85,05,341,31,1*7F
$GAGSV,2,1,08,09,69,339,35,31,50,134,44,04,45,087,40,36,22,252,44,7*7E
$GAGSV,2,2,08,05,22,294,28,34,17,305,26,24,17,183,48,11,06,207,43,7*7A
$GAGSV,2,1,08,09,69,339,36,31,50,134,44,04,45,087,37,36,22,252,41,1*7E
$GAGSV,2,2,08,05,22,294,38,24,17,183,37,34,17,305,39,11,06,207,44,1*7C
$GBGSV,3,1,10,46,75,175,44,19,66,317,43,20,60,126,44,37,41,051,46,1*7A
$GBGSV,3,2,10,36,26,214,50,57,16,293,,22,13,311,40,32,06,130,50,1*7D
$GBGSV,3,3,10,58,,,23,63,,,28,1*74
$GBGSV,2,1,07,46,75,175,44,19,66,317,34,20,60,126,46,37,41,051,40,5*7D
$GBGSV,2,2,07,36,26,214,42,22,13,311,42,32,06,130,44,5*47
$GNGGA,093757.000,4005.098620,N,10513.208334,W,2,53,0.49,1584.843,M,-20.670,M,,*72
$GPGSV,3,1,12,03,70,265,45,31,56,046,36,26,55,109,42,04,46,305,34,1*6A
$GPGSV,3,2,12,48,39,209,47,16,36,157,45,28,27,053,42,09,08,292,31,1*6D
$GPGSV,3,3,12,02,06,221,51,06,06,325,28,32,04,102,44,21,01,209,,1*67
$GPGSV,2,1,07,03,70,265,45,26,55,109,43,04,46,305,28,28,27,053,38,8*6E
$GPGSV,2,2,07,09,08,292,28,06,06,325,30,32,04,102,38,8*52
$GLGSV,2,1,08,78,79,101,39,68,70,024,40,67,37,110,40,79,36,198,45,1*78
$GLGSV,2,2,08,69,29,321,36,77,24,033,30,84,09,289,31,85,05,341,32,1*7F
$GAGSV,2,1,08,09,70,341,35,31,50,134,44,04,45,087,40,36,22,252,44,7*79
$GAGSV,2,2,08,05,22,294,28,34,17,305,26,24,17,183,48,11,06,207,43,7*7A
$GAGSV,2,1,08,09,70,341,36,31,50,134,44,04,45,087,37,36,22,252,41,1*79
$GAGSV,2,2,08,05,22,294,38,24,17,183,37,34,17,305,38,11,06,207,45,1*7C
$GBGSV,3,1,09,46,75,175,44,19,66,317,43,20,60,126,44,37,41,051,46,1*72
$GBGSV,3,2,09,36,26,214,50,57,16,293,,22,13,311,39,32,06,130,50,1*7B
$GBGSV,3,3,09,63,,,26,1*7E
$GBGSV,2,1,07,46,75,175,44,19,66,317,34,20,60,126,46,37,41,051,40,5*7D
$GBGSV,2,2,07,36,26,214,42,22,13,311,42,32,06,130,44,5*47
$GNGGA,093802.000,4005.098590,N,10513.208388,W,2,53,0.49,1584.862,M,-20.670,M,,*71
$GPGSV,3,1,12,03,70,265,45,31,56,046,37,26,55,109,42,04,46,305,33,1*6C
$GPGSV,3,2,12,48,39,209,47,16,36,157,45,28,27,053,42,09,08,292,31,1*6D
$GPGSV,3,3,12,02,06,221,51,06,06,325,30,32,04,102,44,21,01,209,,1*6E
$GPGSV,2,1,07,03,70,265,45,26,55,109,43,04,46,305,28,28,27,053,38,8*6E
$GPGSV,2,2,07,09,08,292,27,06,06,325,31,32,04,102,38,8*5C
$GLGSV,2,1,08,78,79,101,41,68,70,024,40,67,37,110,40,79,36,198,45,1*77
$GLGSV,2,2,08,69,29,321,36,77,24,033,30,84,09,289,32,85,05,341,33,1*7D
$GAGSV,2,1,08,09,70,341,35,31,50,134,44,04,45,087,41,36,22,252,44,7*78
$GAGSV,2,2,08,05,22,294,27,34,17,305,26,24,17,183,48,11,05,206,43,7*77
$GAGSV,2,1,08,09,70,341,36,31,50,134,44,04,45,087,37,05,22,294,37,1*72
$GAGSV,2,2,08,36,22,252,41,24,17,183,36,34,17,305,38,11,05,206,45,1*7B
$GBGSV,2,1,08,46,75,175,44,19,66,317,43,20,60,126,44,37,41,051,46,1*72
$GBGSV,2,2,08,36,26,214,50,57,16,293,,22,13,311,36,32,06,130,50,1*74
$GBGSV,2,1,07,46,75,175,44,19,66,317,33,20,60,126,46,37,41,051,40,5*7A
$GBGSV,2,2,07,36,26,214,42,22,13,311,41,32,06,130,44,5*44
$GNGGA,093807.000,4005.098536,N,10513.208448,W,2,52,0.49,1584.806,M,-20.670,M,,*70
$GPGSV,3,1,12,03,70,265,45,31,56,046,38,26,55,109,42,04,46,305,32,1*62
$GPGSV,3,2,12,48,39,209,47,16,36,157,45,28,27,053,42,09,08,292,25,1*68
$GPGSV,3,3,12,02,06,221,51,06,06,325,30,32,04,102,44,21,01,209,,1*6E
$GPGSV,2,1,07,03,70,265,45,26,55,109,42,04,46,305,29,28,27,053,37,8*61
$GPGSV,2,2,07,09,08,292,26,06,06,325,31,32,04,102,38,8*5D
$GLGSV,2,1,08,78,79,101,41,68,70,024,40,67,37,110,40,79,36,198,45,1*77
$GLGSV,2,2,08,69,29,321,33,77,24,033,30,84,09,289,31,85,05,341,35,1*7D
$GAGSV,2,1,08,09,70,341,35,31,50,134,44,04,45,087,41,36,22,252,44,7*78
$GAGSV,2,2,08,05,22,294,28,34,17,305,27,24,17,183,48,11,05,206,42,7*78
$GAGSV,2,1,08,09,70,341,36,31,50,134,44,04,45,087,36,05,22,294,37,1*73
$GAGSV,2,2,08,36,22,252,41,24,17,183,36,34,17,305,38,11,05,206,45,1*7B
$GBGSV,2,1,08,46,75,175,44,19,66,317,43,20,60,126,44,37,41,051,45,1*71
$GBGSV,2,2,08,36,26,214,50,57,16,293,,22,13,311,33,32,06,130,50,1*71
$GBGSV,2,1,07,46,75,175,44,19,66,317,33,20,60,126,46,37,41,051,40,5*7A
$GBGSV,2,2,07,36,26,214,42,22,13,311,39,32,06,130,44,5*4B
$GNGGA,093812.000,4005.098530,N,10513.208466,W,2,53,0.49,1584.672,M,-20.670,M,,*72
$GPGSV,3,1,12,03,70,265,45,31,56,046,38,26,55,109,42,04,46,305,33,1*63
$GPGSV,3,2,12,48,39,209,47,16,36,157,45,28,27,053,42,09,08,292,23,1*6E
$GPGSV,3,3,12,02,06,221,51,06,06,325,30,32,04,102,44,21,01,209,,1*6E
$GPGSV,2,1,07,03,70,265,45,26,55,109,42,04,46,305,29,28,27,053,37,8*61
$GPGSV,2,2,07,09,08,292,28,06,06,325,32,32,04,102,38,8*50
$GLGSV,2,1,08,78,79,101,39,68,70,024,40,67,37,110,40,79,36,198,45,1*78
$GLGSV,2,2,08,69,29,321,35,77,24,033,31,84,09,289,31,85,05,341,37,1*78
$GAGSV,2,1,08,09,70,341,36,31,50,134,44,04,45,087,41,36,22,252,44,7*7B
$GAGSV,2,2,08,05,22,294,29,24,18,183,47,34,17,305,27,11,05,206,42,7*79
$GAGSV,2,1,08,09,70,341,37,31,50,134,44,04,45,087,36,05,22,294,37,1*72
$GAGSV,2,2,08,36,22,252,41,24,18,183,36,34,17,305,38,11,05,206,45,1*74
$GBGSV,2,1,07,46,75,175,44,19,66,317,43,20,60,126,44,37,41,051,45,1*7E
$GBGSV,2,2,07,36,26,214,50,22,13,311,33,32,06,130,50,1*43
$GBGSV,2,1,07,46,75,175,44,19,66,317,33,20,60,126,46,37,41,051,40,5*7A
$GBGSV,2,2,07,36,26,214,42,22,13,311,39,32,06,130,44,5*4B
$GNGGA,093817.000,4005.098506,N,10513.208496,W,2,53,0.49,1584.663,M,-20.670,M,,*7D
$GPGSV,3,1,12,03,70,265,45,31,56,046,39,26,55,109,43,04,46,305,34,1*64
$GPGSV,3,2,12,48,39,209,47,16,36,157,45,28,27,053,42,09,08,292,24,1*69
$GPGSV,3,3,12,02,06,221,51,06,06,325,30,32,04,102,44,21,01,209,,1*6E
$GPGSV,2,1,07,03,70,265,45,26,55,109,42,04,46,305,29,28,27,053,37,8*61
$GPGSV,2,2,07,09,08,292,27,06,06,325,33,32,04,102,38,8*5E
$GLGSV,2,1,08,78,79,101,39,68,70,024,40,67,37,110,40,79,36,198,45,1*78
$GLGSV,2,2,08,69,29,321,36,77,24,033,31,84,09,289,30,85,05,341,36,1*7B
$GAGSV,2,1,08,09,70,341,36,31,50,134,44,04,45,087,41,36,22,252,44,7*7B
$GAGSV,2,2,08,05,22,294,29,24,18,183,47,34,17,305,25,11,05,206,42,7*7B
$GAGSV,2,1,08,09,70,341,37,31,50,134,44,04,45,087,36,05,22,294,37,1*72
$GAGSV,2,2,08,36,22,252,41,24,18,183,36,34,17,305,37,11,05,206,45,1*7B
$GBGSV,2,1,08,46,75,175,44,19,66,317,43,20,60,126,44,37,41,051,45,1*71
$GBGSV,2,2,08,36,26,214,50,57,16,293,,22,13,311,35,32,06,130,49,1*7F
$GBGSV,2,1,07,46,75,175,44,19,66,317,33,20,60,126,46,37,41,051,40,5*7A
$GBGSV,2,2,07,36,26,214,42,22,13,311,37,32,06,130,45,5*44
$GNGGA,093822.000,4005.098458,N,10513.208550,W,2,53,0.49,1584.675,M,-20.669,M,,*75
$GPGSV,3,1,12,03,70,265,45,31,56,046,39,26,55,109,43,04,46,305,34,1*64
$GPGSV,3,2,12,48,39,209,47,16,36,157,45,28,27,053,42,09,08,292,23,1*6E
$GPGSV,3,3,12,02,06,221,51,06,06,325,30,32,04,102,45,21,01,209,,1*6F
$GPGSV,2,1,07,03,70,265,45,26,55,109,42,04,46,305,30,28,27,053,37,8*69
$GPGSV,2,2,07,09,08,292,26,06,06,325,33,32,04,102,38,8*5F
$GLGSV,2,1,08,78,79,101,39,68,70,024,40,67,37,110,41,79,36,198,45,1*79
$GLGSV,2,2,08,69,29,321,36,77,24,033,31,84,09,289,30,85,05,341,35,1*78
$GAGSV,2,1,08,09,70,341,36,31,51,133,44,04,45,087,41,36,22,252,44,7*7D
$GAGSV,2,2,08,05,22,294,29,24,18,183,47,34,17,304,27,11,05,206,40,7*7A
$GAGSV,2,1,08,09,70,341,37,31,51,133,44,04,45,087,36,05,22,294,37,1*74
$GAGSV,2,2,08,36,22,252,41,24,18,183,36,34,17,304,37,11,05,206,45,1*7A
$GBGSV,2,1,08,46,75,175,44,19,66,317,43,20,60,126,45,37,41,051,45,1*70
$GBGSV,2,2,08,36,26,214,50,57,16,293,,22,13,311,38,32,06,130,49,1*72
$GBGSV,2,1,07,46,75,175,44,19,66,317,33,20,60,126,46,37,41,051,40,5*7A
$GBGSV,2,2,07,36,26,214,43,22,13,311,36,32,06,130,45,5*44
$GNGGA,093827.000,4005.098494,N,10513.208592,W,2,53,0.49,1584.589,M,-20.670,M,,*76
$GPGSV,3,1,12,03,70,265,45,31,56,046,39,26,55,109,43,04,46,305,33,1*63
$GPGSV,3,2,12,48,39,209,47,16,36,157,45,28,27,053,42,09,08,292,26,1*6B
$GPGSV,3,3,12,02,06,221,51,06,06,325,30,32,04,102,46,21,01,209,,1*6C
$GPGSV,2,1,07,03,70,265,45,26,55,109,42,04,46,305,30,28,27,053,36,8*68
$GPGSV,2,2,07,09,08,292,28,06,06,325,32,32,04,102,38,8*50
$GLGSV,2,1,08,78,79,101,40,68,70,024,39,67,36,112,41,79,36,198,45,1*7A
$GLGSV,2,2,08,69,29,321,34,77,24,033,31,84,09,289,31,85,05,341,34,1*7A
$GAGSV,2,1,08,09,70,341,36,31,51,133,44,04,45,087,41,05,22,294,29,7*7C
$GAGSV,2,2,08,36,21,251,44,24,18,183,47,34,17,304,28,11,05,206,41,7*75
$GAGSV,2,1,08,09,70,341,37,31,51,133,44,04,45,087,36,05,22,294,37,1*74
$GAGSV,2,2,08,36,21,251,41,24,18,183,37,34,17,304,37,11,05,206,45,1*7B
$GBGSV,2,1,08,46,75,175,44,19,66,317,43,20,60,126,45,37,41,051,45,1*70
$GBGSV,2,2,08,36,26,214,50,57,16,293,,22,13,311,39,32,06,130,49,1*73
$GBGSV,2,1,07,46,75,175,44,19,66,317,33,20,60,126,46,37,41,051,40,5*7A
$GBGSV,2,2,07,36,26,214,43,22,13,311,36,32,06,130,45,5*44
$GNGGA,093832.000,4005.098488,N,10513.208670,W,2,53,0.49,1584.561,M,-20.670,M,,*76
$GPGSV,3,1,12,03,70,265,45,31,56,046,39,26,55,109,43,04,46,305,33,1*63
$GPGSV,3,2,12,48,39,209,47,16,36,157,45,28,27,053,42,09,08,292,26,1*6B
$GPGSV,3,3,12,02,06,221,51,06,06,325,30,32,04,102,46,21,01,209,,1*6C
$GPGSV,2,1,07,03,70,265,45,26,55,109,42,04,46,305,30,28,27,053,36,8*68
$GPGSV,2,2,07,09,08,292,28,06,06,325,32,32,04,102,38,8*50
$GLGSV,2,1,08,78,79,101,40,68,70,028,39,67,36,112,41,79,36,198,45,1*76
$GLGSV,2,2,08,69,30,322,36,77,24,033,31,84,09,289,29,85,05,341,33,1*7D
$GAGSV,2,1,08,09,70,341,36,31,51,133,44,04,45,087,41,05,22,294,28,7*7D
$GAGSV,2,2,08,36,21,251,44,24,18,183,47,34,17,304,26,11,05,206,40,7*7A
$GAGSV,2,1,08,09,70,341,37,31,51,133,44,04,45,087,36,05,22,294,37,1*74
$GAGSV,2,2,08,36,21,251,41,24,18,183,37,34,17,304,37,11,05,206,45,1*7B
$GBGSV,2,1,08,46,75,175,44,19,66,317,43,20,60,126,45,37,41,051,45,1*70
$GBGSV,2,2,08,36,26,214,50,57,16,293,,22,13,311,40,32,06,130,49,1*7D
$GBGSV,2,1,07,46,75,175,44,19,66,317,33,20,60,126,46,37,41,051,40,5*7A
$GBGSV,2,2,07,36,26,214,43,22,13,311,36,32,06,130,45,5*44
$GNGGA,093837.000,4005.098494,N,10513.208682,W,2,53,0.49,1584.542,M,-20.669,M,,*7A
$GPGSV,3,1,12,03,70,265,45,31,56,046,39,26,55,109,43,04,46,305,32,1*62
$GPGSV,3,2,12,48,39,209,47,16,36,157,45,28,27,053,42,09,08,292,26,1*6B
$GPGSV,3,3,12,02,06,221,51,06,06,325,30,32,04,102,46,21,01,209,,1*6C
$GPGSV,2,1,07,03,70,265,45,26,55,109,42,04,46,305,31,28,27,053,36,8*69
$GPGSV,2,2,07,09,08,292,29,06,06,325,32,32,04,102,38,8*51
$GLGSV,2,1,08,78,79,101,40,68,70,028,40,67,36,112,41,79,36,198,45,1*78
$GLGSV,2,2,08,69,30,322,37,77,23,033,31,84,09,289,30,85,05,341,31,1*71
$GAGSV,2,1,08,09,70,341,36,31,51,133,44,04,45,087,41,05,22,294,26,7*73
$GAGSV,2,2,08,36,21,251,44,24,18,183,46,34,17,304,25,11,05,206,39,7*76
$GAGSV,2,1,08,09,70,341,37,31,51,133,44,04,45,087,36,05,22,294,37,1*74
$GAGSV,2,2,08,36,21,251,41,24,18,183,37,34,17,304,37,11,05,206,46,1*78
$GBGSV,2,1,08,46,75,175,44,19,66,317,43,20,60,126,45,37,41,051,45,1*70
$GBGSV,2,2,08,36,26,214,50,57,16,293,,22,13,311,40,32,06,130,48,1*7C
$GBGSV,2,1,07,46,75,175,44,19,66,317,33,20,60,126,46,37,41,051,40,5*7A
$GBGSV,2,2,07,36,26,214,43,22,13,311,38,32,06,130,46,5*49
$GNGGA,093842.000,4005.098416,N,10513.208646,W,2,52,0.49,1584.560,M,-20.669,M,,*7B
$GPGSV,3,1,12,03,70,265,45,31,56,046,39,26,55,109,43,04,46,305,33,1*63
$GPGSV,3,2,12,48,39,209,47,16,36,157,45,28,27,053,42,09,08,292,17,1*69
$GPGSV,3,3,12,02,06,221,51,06,06,325,31,32,04,102,46,21,01,209,,1*6D
$GPGSV,2,1,07,03,70,265,45,26,55,109,42,04,46,305,31,28,27,053,35,8*6A
$GPGSV,2,2,07,09,08,292,29,06,06,325,34,32,04,102,37,8*58
$GLGSV,2,1,08,78,79,093,40,68,70,028,39,79,37,198,45,67,36,112,40,1*7C
$GLGSV,2,2,08,69,30,322,37,77,23,033,31,84,09,289,30,85,05,341,27,1*76
$GAGSV,2,1,08,09,70,341,36,31,51,133,44,04,45,087,41,05,22,294,23,7*76
$GAGSV,2,2,08,36,21,251,45,24,18,183,46,34,17,304,25,11,05,206,40,7*79
$GAGSV,2,1,08,09,70,341,37,31,51,133,44,04,45,087,37,05,22,294,37,1*75
$GAGSV,2,2,08,36,21,251,41,24,18,183,37,34,17,304,37,11,05,206,46,1*78
$GBGSV,2,1,08,46,75,175,44,19,66,317,43,20,60,126,45,37,41,051,45,1*70
$GBGSV,2,2,08,36,26,214,50,57,16,293,,22,13,311,40,32,06,130,48,1*7C
$GBGSV,2,1,07,46,75,175,44,19,66,317,33,20,60,126,46,37,41,051,39,5*74
$GBGSV,2,2,07,36,26,214,43,22,13,311,40,32,06,130,46,5*46
$GNGGA,093847.000,4005.098350,N,10513.208604,W,2,52,0.49,1584.670,M,-20.670,M,,*77
$GPGSV,3,1,12,03,70,265,45,31,56,046,39,26,55,109,42,04,46,305,31,1*60
$GPGSV,3,2,12,48,39,209,47,16,36,157,45,28,27,053,42,09,08,292,17,1*69
$GPGSV,3,3,12,02,06,221,51,06,06,325,30,32,04,102,46,21,01,209,,1*6C
$GPGSV,2,1,07,03,70,265,45,26,55,109,42,04,46,305,32,28,27,053,35,8*69
$GPGSV,2,2,07,09,08,292,30,06,06,325,35,32,04,102,37,8*51
$GLGSV,2,1,08,78,79,093,40,68,70,028,39,79,37,198,45,67,36,112,40,1*7C
$GLGSV,2,2,08,69,30,322,37,77,23,033,31,84,09,288,30,85,05,339,24,1*7B
$GAGSV,2,1,08,09,70,341,36,31,51,133,44,04,45,087,41,05,22,294,22,7*77
$GAGSV,2,2,08,36,21,251,45,24,18,183,46,34,17,304,25,11,05,206,38,7*76
$GAGSV,2,1,08,09,70,341,38,31,51,133,44,04,45,087,37,05,22,294,37,1*7A
$GAGSV,2,2,08,36,21,251,41,24,18,183,38,34,17,304,37,11,05,206,46,1*77
$GBGSV,2,1,08,46,75,175,44,19,66,317,43,20,60,126,45,37,41,051,45,1*70
$GBGSV,2,2,08,36,26,214,50,57,16,293,,22,13,311,39,32,06,130,48,1*72
$GBGSV,2,1,07,46,75,175,44,19,66,317,33,20,60,126,46,37,41,051,39,5*74
$GBGSV,2,2,07,36,26,214,44,22,13,311,41,32,06,130,46,5*40
$GNGGA,093852.000,4005.098314,N,10513.208592,W,2,52,0.49,1584.733,M,-20.670,M,,*79
$GPGSV,3,1,12,03,70,265,45,31,56,046,39,26,55,109,42,04,46,305,31,1*60
$GPGSV,3,2,12,48,39,209,47,16,36,157,45,28,27,053,42,09,08,292,13,1*6D
$GPGSV,3,3,12,02,06,221,51,06,06,325,30,32,04,102,46,21,01,209,,1*6C
$GPGSV,2,1,07,03,70,265,45,26,55,109,42,04,46,305,32,28,27,053,33,8*6F
$GPGSV,2,2,07,09,08,292,30,06,06,325,35,32,04,102,37,8*51
$GLGSV,2,1,08,78,79,093,40,68,70,028,39,79,37,198,45,67,36,112,40,1*7C
$GLGSV,2,2,08,69,30,322,35,77,23,033,31,84,09,288,28,85,05,339,25,1*71
$GAGSV,2,1,08,09,70,341,36,31,51,133,44,04,45,087,41,05,22,294,19,7*7F
$GAGSV,2,2,08,36,21,251,45,24,18,183,46,34,17,304,25,11,05,206,38,7*76
$GAGSV,2,1,08,09,70,341,38,31,51,133,44,04,45,087,37,05,22,294,37,1*7A
$GAGSV,2,2,08,36,21,251,41,24,18,183,38,34,17,304,37,11,05,206,46,1*77
$GBGSV,2,1,08,46,75,175,44,19,66,317,43,20,60,126,45,37,41,051,45,1*70
$GBGSV,2,2,08,36,26,214,50,57,16,293,,22,13,311,37,32,06,130,47,1*73
$GBGSV,2,1,07,46,75,175,44,19,66,317,32,20,60,126,46,37,41,051,39,5*75
$GBGSV,2,2,07,36,26,214,44,22,13,311,42,32,06,130,46,5*43
$GNGGA,093857.000,4005.098320,N,10513.208562,W,2,53,0.49,1584.802,M,-20.670,M,,*78
$GPGSV,3,1,12,03,70,265,45,31,56,046,40,26,55,109,42,04,46,305,30,1*6F
$GPGSV,3,2,12,48,39,209,47,16,36,157,45,28,27,053,42,09,08,292,25,1*68
$GPGSV,3,3,12,02,06,221,51,06,06,325,26,32,04,102,46,21,01,209,,1*6B
$GPGSV,2,1,07,03,70,265,45,26,55,109,42,04,46,305,33,28,27,053,32,8*6F
$GPGSV,2,2,07,09,08,292,31,06,06,325,36,32,04,102,36,8*52
$GLGSV,2,1,08,78,79,093,40,68,70,028,39,79,37,198,45,67,36,112,40,1*7C
$GLGSV,2,2,08,69,30,322,36,77,23,033,31,84,09,288,28,85,05,339,28,1*7F
$GAGSV,2,1,08,09,70,341,36,31,51,133,44,04,45,087,41,05,22,294,19,7*7F
$GAGSV,2,2,08,36,21,251,45,24,18,183,46,34,17,304,27,11,05,206,38,7*74
$GAGSV,2,1,08,09,70,341,38,31,51,133,44,04,45,087,37,05,22,294,37,1*7A
$GAGSV,2,2,08,36,21,251,41,24,18,183,38,34,17,304,37,11,05,206,46,1*77
$GBGSV,3,1,09,46,75,175,44,19,66,317,43,20,60,126,45,37,41,051,45,1*70
$GBGSV,3,2,09,36,26,214,50,57,16,293,,22,13,311,34,32,06,130,47,1*70
$GBGSV,3,3,09,58,,,28,1*78
$GBGSV,2,1,07,46,75,175,44,19,66,317,32,20,60,126,46,37,41,051,39,5*75
$GBGSV,2,2,07,36,26,214,44,22,13,311,42,32,06,130,46,5*43
$GNGGA,093902.000,4005.098278,N,10513.208514,W,2,53,0.49,1584.757,M,-20.670,M,,*7B
$GPGSV,3,1,12,03,70,265,45,31,56,046,40,26,55,109,42,04,46,305,28,1*66
$GPGSV,3,2,12,48,39,209,47,16,36,157,45,28,27,053,41,09,08,292,25,1*6B
$GPGSV,3,3,12,02,06,221,51,06,06,325,26,32,04,102,46,21,01,209,,1*6B
$GPGSV,2,1,07,03,70,265,45,26,55,109,42,04,46,305,33,28,27,053,31,8*6C
$GPGSV,2,2,07,09,08,292,33,06,06,325,36,32,04,102,36,8*50
$GLGSV,2,1,08,78,79,093,40,68,70,028,39,79,37,198,45,67,36,112,39,1*72
$GLGSV,2,2,08,69,30,322,36,77,23,033,31,84,09,288,30,85,05,339,31,1*7E
$GAGSV,2,1,08,09,70,341,36,31,51,133,44,04,45,087,41,05,22,294,19,7*7F
$GAGSV,2,2,08,36,21,251,45,24,18,183,46,34,17,304,27,11,05,206,37,7*7B
$GAGSV,2,1,08,09,70,341,38,31,51,133,44,04,45,087,37,05,22,294,36,1*7B
$GAGSV,2,2,08,36,21,251,41,24,18,183,38,34,17,304,37,11,05,206,46,1*77
$GBGSV,3,1,09,46,75,175,44,19,66,317,43,20,60,126,45,37,41,051,44,1*71
$GBGSV,3,2,09,36,26,214,50,57,16,293,,22,13,311,33,32,06,130,47,1*77
$GBGSV,3,3,09,58,,,28,1*78
$GBGSV,2,1,07,46,75,175,44,19,66,317,32,20,60,126,46,37,41,051,39,5*75
$GBGSV,2,2,07,36,26,214,44,22,13,311,42,32,06,130,46,5*43
$GNGGA,093907.000,4005.098260,N,10513.208472,W,2,53,0.49,1584.702,M,-20.669,M,,*7E
$GPGSV,3,1,12,03,70,265,45,31,56,046,40,26,55,109,43,04,46,305,28,1*67
$GPGSV,3,2,12,48,39,209,47,16,36,157,45,28,27,053,41,09,08,292,22,1*6C
$GPGSV,3,3,12,02,06,221,51,06,06,325,29,32,04,102,47,21,01,209,,1*65
$GPGSV,2,1,07,03,70,265,45,26,55,109,42,04,46,305,34,28,27,053,31,8*6B
$GPGSV,2,2,07,09,08,292,34,06,06,325,36,32,04,102,36,8*57
$GLGSV,2,1,08,78,79,093,41,68,70,028,39,79,37,198,45,67,36,112,39,1*73
$GLGSV,2,2,08,69,30,322,36,77,23,033,29,84,09,288,30,85,05,339,32,1*74
$GAGSV,2,1,08,09,70,341,36,31,51,133,44,04,45,087,41,05,22,294,19,7*7F
$GAGSV,2,2,08,36,21,251,45,24,18,183,46,34,17,304,28,11,05,206,37,7*74
$GAGSV,2,1,08,09,70,341,38,31,51,133,44,04,45,087,37,05,22,294,36,1*7B
$GAGSV,2,2,08,36,21,251,41,24,18,183,39,34,17,304,38,11,05,206,46,1*79
$GBGSV,2,1,08,46,75,175,44,19,67,316,43,20,60,126,45,37,41,051,44,1*71
$GBGSV,2,2,08,36,26,214,50,57,16,293,,22,13,311,36,32,06,130,47,1*72
$GBGSV,2,1,07,46,75,175,44,19,67,316,33,20,60,126,46,37,41,051,39,5*74
$GBGSV,2,2,07,36,26,214,44,22,13,311,42,32,06,130,46,5*43
$GNGGA,093912.000,4005.098224,N,10513.208454,W,2,53,0.49,1584.645,M,-20.670,M,,*74
$GPGSV,3,1,12,03,70,265,45,31,56,046,40,26,55,109,43,04,46,305,28,1*67
$GPGSV,3,2,12,48,39,209,47,16,36,157,46,28,27,053,41,09,08,292,27,1*6A
$GPGSV,3,3,12,02,06,221,51,06,06,325,30,32,04,102,47,21,01,209,,1*6D
$GPGSV,2,1,07,03,70,265,45,26,55,109,42,04,46,305,34,28,27,053,30,8*6A
$GPGSV,2,2,07,09,08,292,34,06,06,325,36,32,04,102,36,8*57
$GLGSV,2,1,08,78,79,093,41,68,70,028,40,79,37,198,45,67,36,112,39,1*7D
$GLGSV,2,2,08,69,30,322,36,77,23,033,29,84,09,288,30,85,05,339,33,1*75
$GAGSV,2,1,08,09,70,341,36,31,51,133,44,04,45,087,41,05,22,294,19,7*7F
$GAGSV,2,2,08,36,21,251,45,24,18,183,46,34,17,304,28,11,05,206,37,7*74
$GAGSV,2,1,08,09,70,341,38,31,51,133,44,04,45,087,37,05,22,294,36,1*7B
$GAGSV,2,2,08,36,21,251,41,24,18,183,40,34,17,304,38,11,05,206,46,1*77
$GBGSV,2,1,08,46,75,175,44,19,67,316,43,20,59,127,45,37,41,051,44,1*7A
$GBGSV,2,2,08,36,26,214,50,57,16,293,,22,14,312,37,32,06,130,46,1*76
$GBGSV,2,1,07,46,75,175,44,19,67,316,33,20,59,127,46,37,41,051,39,5*7F
$GBGSV,2,2,07,36,26,214,44,22,14,312,42,32,06,130,46,5*47
$GNGGA,093917.000,4005.098182,N,10513.208424,W,2,53,0.49,1584.608,M,-20.670,M,,*70
$GPGSV,3,1,12,03,70,265,45,31,56,046,40,26,55,109,43,04,46,305,28,1*67
$GPGSV,3,2,12,48,39,209,47,16,36,157,46,28,27,053,41,09,08,292,28,1*65
$GPGSV,3,3,12,02,06,221,51,06,06,325,30,32,04,102,47,21,01,209,,1*6D
$GPGSV,2,1,07,03,70,265,45,26,55,109,42,04,46,305,34,28,27,053,29,8*62
$GPGSV,2,2,07,09,08,292,34,06,06,325,36,32,04,102,36,8*57
$GLGSV,2,1,08,78,79,093,40,68,70,028,40,79,37,198,45,67,36,112,40,1*72
$GLGSV,2,2,08,69,30,322,36,77,23,033,29,84,09,288,29,85,05,339,34,1*7A
$GAGSV,2,1,08,09,70,341,36,31,51,133,44,04,45,087,41,05,22,294,21,7*74
$GAGSV,2,2,08,36,21,251,45,24,18,183,45,34,17,304,25,11,05,206,36,7*7B
$GAGSV,2,1,08,09,70,341,38,31,51,133,44,04,45,087,37,05,22,294,36,1*7B
$GAGSV,2,2,08,36,21,251,41,24,18,183,40,34,17,304,38,11,05,206,46,1*77
$GBGSV,2,1,08,46,75,175,44,19,67,316,43,20,59,127,45,37,41,051,44,1*7A
$GBGSV,2,2,08,36,26,214,50,57,16,293,,22,14,312,37,32,06,130,46,1*76
$GBGSV,2,1,07,46,75,175,44,19,67,316,33,20,59,127,46,37,41,051,39,5*7F
$GBGSV,2,2,07,36,26,214,44,22,14,312,41,32,06,130,46,5*44
$GNGGA,093922.000,4005.098158,N,10513.208460,W,2,53,0.49,1584.679,M,-20.670,M,,*77
$GPGSV,3,1,12,03,70,265,45,31,56,046,40,26,55,109,43,04,46,305,27,1*68
$GPGSV,3,2,12,48,39,209,47,16,36,157,46,28,27,053,41,09,08,292,29,1*64
$GPGSV,3,3,12,02,06,221,51,06,06,325,30,32,04,102,47,21,01,209,,1*6D
$GPGSV,2,1,07,03,70,265,45,26,55,109,42,04,46,305,34,28,27,053,29,8*62
$GPGSV,2,2,07,09,08,292,35,06,06,325,36,32,04,102,36,8*56
$GLGSV,2,1,08,78,79,093,40,68,70,028,40,79,37,198,45,67,36,112,40,1*72
$GLGSV,2,2,08,69,30,322,34,77,23,033,27,84,09,288,27,85,05,339,34,1*78
$GAGSV,2,1,08,09,70,341,36,31,51,133,44,04,45,087,41,05,22,294,21,7*74
$GAGSV,2,2,08,36,21,251,45,24,18,183,45,34,17,304,21,11,05,206,36,7*7F
$GAGSV,2,1,08,09,70,341,38,31,51,133,45,04,45,087,37,05,22,294,36,1*7A
$GAGSV,2,2,08,36,21,251,42,24,18,183,40,34,17,304,38,11,05,206,46,1*74
$GBGSV,2,1,08,46,75,175,44,19,67,316,43,20,59,127,45,37,41,051,44,1*7A
$GBGSV,2,2,08,36,26,214,50,57,16,293,,22,14,312,38,32,05,131,46,1*7B
$GBGSV,2,1,07,46,75,175,44,19,67,316,33,20,59,127,46,37,41,051,39,5*7F
$GBGSV,2,2,07,36,26,214,45,22,14,312,41,32,05,131,46,5*47
$GNGGA,093927.000,4005.098200,N,10513.208448,W,2,53,0.49,1584.675,M,-20.670,M,,*7A
$GPGSV,3,1,12,03,70,265,45,31,56,046,40,26,55,109,43,04,46,305,26,1*69
$GPGSV,3,2,12,48,39,209,47,16,36,157,46,28,27,053,40,09,08,292,30,1*6D
$GPGSV,3,3,12,02,06,221,51,06,06,325,31,32,04,102,47,21,01,209,,1*6C
$GPGSV,2,1,07,03,70,265,45,26,55,109,42,04,46,305,34,28,27,053,28,8*63
$GPGSV,2,2,07,09,08,292,36,06,06,325,36,32,04,102,36,8*55
$GLGSV,2,1,08,78,79,093,41,68,70,028,39,79,37,198,45,67,36,112,40,1*7D
$GLGSV,2,2,08,69,30,322,34,77,23,033,25,84,09,288,26,85,05,339,33,1*7C
$GAGSV,2,1,08,09,70,341,36,31,51,133,44,04,45,087,41,05,22,294,19,7*7F
$GAGSV,2,2,08,36,21,251,45,24,18,183,45,34,17,304,21,11,05,206,35,7*7C
$GAGSV,2,1,08,09,70,341,38,31,51,133,45,04,45,087,37,05,22,294,36,1*7A
$GAGSV,2,2,08,36,21,251,42,24,18,183,40,34,17,304,38,11,05,206,46,1*74
$GBGSV,2,1,08,46,75,175,44,19,67,316,43,20,59,127,45,37,40,050,44,1*7A
$GBGSV,2,2,08,36,27,214,50,57,16,293,,22,14,312,39,32,05,131,45,1*78
$GBGSV,2,1,07,46,75,175,44,19,67,316,33,20,59,127,46,37,40,050,39,5*7F
$GBGSV,2,2,07,36,27,214,45,22,14,312,39,32,05,131,46,5*49
$GNGGA,093932.000,4005.098188,N,10513.208436,W,2,53,0.49,1584.623,M,-20.669,M,,*7F
$GPGSV,3,1,12,03,70,265,46,31,56,046,41,26,55,109,43,04,46,305,27,1*6A
$GPGSV,3,2,12,48,39,209,47,16,36,157,46,28,27,053,40,09,08,292,29,1*65
$GPGSV,3,3,12,02,06,221,51,06,06,325,31,32,04,102,47,21,01,209,,1*6C
$GPGSV,2,1,07,03,70,265,45,26,55,109,42,04,46,305,34,28,27,053,25,8*6E
$GPGSV,2,2,07,09,08,292,36,06,06,325,36,32,04,102,35,8*56
$GLGSV,2,1,08,78,79,093,40,68,70,028,40,79,37,198,45,67,36,112,40,1*72
$GLGSV,2,2,08,69,30,322,36,77,23,033,25,84,09,288,27,85,05,339,32,1*7E
$GAGSV,2,1,08,09,70,341,36,31,51,133,44,04,45,087,41,05,22,294,17,7*71
$GAGSV,2,2,08,36,21,251,45,24,18,183,45,34,17,304,22,11,05,206,33,7*79
$GAGSV,2,1,08,09,70,341,38,31,51,133,45,04,45,087,37,05,22,294,34,1*78
$GAGSV,2,2,08,36,21,251,42,24,18,183,40,34,17,304,38,11,05,206,46,1*74
$GBGSV,2,1,08,46,75,175,44,19,67,316,43,20,59,127,45,37,40,050,44,1*7A
$GBGSV,2,2,08,36,27,214,50,57,16,293,,22,14,312,39,32,05,131,44,1*79
$GBGSV,2,1,07,46,75,175,44,19,67,316,33,20,59,127,46,37,40,050,38,5*7E
$GBGSV,2,2,07,36,27,214,45,22,14,312,36,32,05,131,46,5*46
$GNGGA,093937.000,4005.098170,N,10513.208544,W,2,52,0.49,1584.559,M,-20.670,M,,*7E
$GPGSV,3,1,12,03,70,265,46,31,56,046,42,26,55,109,43,04,46,305,27,1*69
$GPGSV,3,2,12,48,39,209,47,16,36,157,46,28,27,053,40,09,08,292,29,1*65
$GPGSV,3,3,12,02,06,221,51,06,06,325,28,32,04,102,47,21,01,209,,1*64
$GPGSV,2,1,07,03,70,265,45,26,55,109,42,04,46,305,35,28,27,053,23,8*69
$GPGSV,2,2,07,09,08,292,37,06,06,325,36,32,04,102,35,8*57
$GLGSV,2,1,08,78,79,093,40,68,70,028,41,79,37,198,45,67,36,112,40,1*73
$GLGSV,2,2,08,69,30,322,36,77,23,033,26,84,09,288,27,85,05,339,33,1*7C
$GAGSV,2,1,08,09,70,341,36,31,51,133,44,04,45,087,42,05,22,294,17,7*72
$GAGSV,2,2,08,36,21,251,45,24,18,183,45,34,17,304,20,11,05,206,34,7*7C
$GAGSV,2,1,08,09,70,341,38,31,51,133,45,04,45,087,38,05,22,294,35,1*76
$GAGSV,2,2,08,36,21,251,42,24,18,183,41,34,17,304,37,11,05,206,46,1*7A
$GBGSV,2,1,07,46,76,174,44,19,67,316,43,20,59,127,45,37,40,050,44,1*77
$GBGSV,2,2,07,36,27,214,50,22,14,312,39,32,05,131,42,1*4D
$GBGSV,2,1,07,46,76,174,45,19,67,316,33,20,59,127,46,37,40,050,38,5*7D
$GBGSV,2,2,07,36,27,214,45,22,14,312,34,32,05,131,47,5*45
$GNGGA,093942.000,4005.098146,N,10513.208700,W,2,53,0.48,1584.423,M,-20.670,M,,*77
$GPGSV,3,1,12,03,70,265,46,31,56,046,42,26,55,109,43,04,46,305,28,1*66
$GPGSV,3,2,12,48,39,209,47,16,36,157,46,28,27,053,40,09,08,292,29,1*65
$GPGSV,3,3,12,02,06,221,51,06,06,325,25,32,04,102,47,21,01,209,,1*69
$GPGSV,2,1,07,03,70,265,45,26,55,109,42,04,46,305,35,28,27,053,25,8*6F
$GPGSV,2,2,07,09,08,292,37,06,06,325,36,32,04,102,35,8*57
$GLGSV,2,1,08,78,79,093,41,68,70,028,41,79,37,198,45,67,36,112,40,1*72
$GLGSV,2,2,08,69,30,322,36,77,23,033,26,84,09,288,26,85,05,339,32,1*7C
$GAGSV,2,1,08,09,70,341,36,31,51,133,44,04,45,087,42,05,22,294,17,7*72
$GAGSV,2,2,08,36,21,251,45,24,18,183,45,34,17,304,21,11,05,206,32,7*7B
$GAGSV,2,1,08,09,70,341,38,31,51,133,45,04,45,087,38,05,22,294,35,1*76
$GAGSV,2,2,08,36,21,251,42,24,18,183,41,34,17,304,37,11,05,206,46,1*7A
$GBGSV,2,1,08,46,76,174,45,19,67,316,42,20,59,127,45,37,40,050,44,1*78
$GBGSV,2,2,08,36,27,214,50,57,16,293,,22,14,312,39,32,05,131,42,1*7F
$GBGSV,2,1,07,46,76,174,45,19,67,316,33,20,59,127,46,37,40,050,38,5*7D
$GBGSV,2,2,07,36,27,214,45,22,14,312,33,32,05,131,47,5*42
$GNGGA,093947.000,4005.098158,N,10513.208880,W,2,52,0.48,1584.286,M,-20.670,M,,*72
$GPGSV,3,1,12,03,70,265,46,31,56,046,42,26,55,109,43,04,46,305,28,1*66
$GPGSV,3,2,12,48,39,209,47,16,36,157,46,28,27,053,40,09,08,292,31,1*6C
$GPGSV,3,3,12,02,06,221,51,06,06,325,26,32,04,102,48,21,01,209,,1*65
$GPGSV,2,1,07,03,70,265,45,26,55,109,42,04,46,305,35,28,27,053,25,8*6F
$GPGSV,2,2,07,09,08,292,37,06,06,325,36,32,04,102,33,8*51
$GLGSV,2,1,08,78,79,093,41,68,70,028,41,79,37,198,45,67,36,112,42,1*70
$GLGSV,2,2,08,69,30,322,36,77,23,033,26,84,09,288,26,85,05,339,31,1*7F
$GAGSV,2,1,08,09,70,341,36,31,51,133,44,04,45,087,42,05,22,294,18,7*7D
$GAGSV,2,2,08,36,21,251,45,24,18,183,44,34,17,304,23,11,05,206,34,7*7E
$GAGSV,2,1,08,09,70,341,38,31,51,133,45,04,45,087,38,05,22,294,34,1*77
$GAGSV,2,2,08,36,21,251,42,24,18,183,41,34,17,304,37,11,05,206,46,1*7A
$GBGSV,3,1,09,46,76,174,45,19,67,316,42,20,59,127,45,37,40,050,44,1*78
$GBGSV,3,2,09,36,27,214,50,57,17,293,,22,14,312,38,32,05,131,42,1*7F
$GBGSV,3,3,09,58,,,28,1*78
$GBGSV,2,1,07,46,76,174,45,19,67,316,33,20,59,127,46,37,40,050,38,5*7D
$GBGSV,2,2,07,36,27,214,45,22,14,312,35,32,05,131,47,5*44
$GNGGA,093952.000,4005.098176,N,10513.208946,W,2,52,0.48,1584.126,M,-20.670,M,,*78
$GPGSV,3,1,12,03,70,265,46,31,56,046,42,26,55,109,43,04,46,305,26,1*68
$GPGSV,3,2,12,48,39,209,47,16,36,157,46,28,27,053,40,09,08,292,31,1*6C
$GPGSV,3,3,12,02,06,221,51,06,06,325,25,32,04,102,48,21,01,209,,1*66
$GPGSV,2,1,07,03,70,265,45,26,55,109,42,04,46,305,36,28,27,053,25,8*6C
$GPGSV,2,2,07,09,08,292,37,06,06,325,36,32,04,102,34,8*56
$GLGSV,2,1,08,78,79,093,40,68,70,028,40,79,37,198,45,67,36,112,42,1*70
$GLGSV,2,2,08,69,30,322,36,77,23,033,26,84,09,288,25,85,05,339,32,1*7F
$GAGSV,2,1,08,09,70,341,36,31,51,133,44,04,45,087,42,05,22,294,20,7*76
$GAGSV,2,2,08,36,21,251,45,24,18,183,44,34,17,304,25,11,05,206,32,7*7E
$GAGSV,2,1,08,09,70,341,38,31,51,133,45,04,45,087,38,05,22,294,34,1*77
$GAGSV,2,2,08,36,21,251,42,24,18,183,42,34,17,304,37,11,05,206,46,1*79
$GBGSV,3,1,09,46,76,174,45,19,67,316,42,20,59,127,45,37,40,050,44,1*78
$GBGSV,3,2,09,36,27,214,50,57,17,293,,22,14,312,38,32,05,131,41,1*7C
$GBGSV,3,3,09,58,,,28,1*78
$GBGSV,2,1,07,46,76,174,45,19,67,316,34,20,59,127,46,37,40,050,37,5*75
$GBGSV,2,2,07,36,27,214,46,22,14,312,37,32,05,131,47,5*45
$GNGGA,093957.000,4005.098188,N,10513.208940,W,2,52,0.48,1584.163,M,-20.670,M,,*7B
$GPGSV,3,1,12,03,70,261,46,31,56,046,42,26,55,109,43,04,47,306,25,1*6D
$GPGSV,3,2,12,48,39,209,47,16,36,157,46,28,27,053,40,09,08,292,29,1*65
$GPGSV,3,3,12,06,07,324,26,02,06,220,51,32,04,102,48,21,01,209,,1*64
$GPGSV,2,1,07,03,70,261,45,26,55,109,42,04,47,306,36,28,27,053,25,8*6A
$GPGSV,2,2,07,09,08,292,37,06,07,324,36,32,04,102,33,8*51
$GLGSV,2,1,08,78,79,093,41,68,70,028,39,79,37,198,45,67,36,112,41,1*7C
$GLGSV,2,2,08,69,30,322,34,77,23,033,27,84,09,288,25,85,05,339,32,1*7C
$GAGSV,2,1,08,09,70,341,35,31,51,133,44,04,45,087,42,05,22,294,20,7*75
$GAGSV,2,2,08,36,21,251,45,24,18,183,44,34,17,304,27,11,05,206,31,7*7F
$GAGSV,2,1,08,09,70,341,38,31,51,133,45,04,45,087,38,05,22,294,34,1*77
$GAGSV,2,2,08,36,21,251,42,24,18,183,42,34,17,304,37,11,05,206,46,1*79
$GBGSV,3,1,09,46,76,174,45,19,67,316,42,20,59,127,45,37,40,050,44,1*78
$GBGSV,3,2,09,36,27,214,50,57,17,293,,22,14,312,38,32,05,131,40,1*7D
$GBGSV,3,3,09,58,,,28,1*78
$GBGSV,2,1,07,46,76,174,45,19,67,316,34,20,59,127,46,37,40,050,37,5*75
$GBGSV,2,2,07,36,27,214,46,22,14,312,39,32,05,131,47,5*4B
$GNGGA,094002.000,4005.098122,N,10513.208910,W,2,52,0.48,1584.184,M,-20.670,M,,*79
$GPGSV,3,1,12,03,70,261,46,31,56,046,42,26,55,109,43,04,47,306,26,1*6E
$GPGSV,3,2,12,48,39,209,47,16,36,157,46,28,27,053,40,09,09,293,32,1*6F
$GPGSV,3,3,12,06,07,324,26,02,06,220,51,32,04,102,48,21,01,209,,1*64
$GPGSV,2,1,07,03,70,261,45,26,55,109,42,04,47,306,36,28,27,053,26,8*69
$GPGSV,2,2,07,09,09,293,37,06,07,324,36,32,04,102,35,8*57
$GLGSV,2,1,08,78,79,093,41,68,70,028,41,79,37,198,45,67,36,112,41,1*73
$GLGSV,2,2,08,69,30,322,34,77,23,033,26,84,09,288,23,85,05,339,32,1*7B
$GAGSV,2,1,08,09,70,341,35,31,51,133,44,04,45,087,42,05,22,294,21,7*74
$GAGSV,2,2,08,36,21,251,46,24,18,183,44,34,17,304,29,11,05,206,34,7*77
$GAGSV,2,1,08,09,70,341,38,31,51,133,45,04,45,087,38,05,22,294,34,1*77
$GAGSV,2,2,08,36,21,251,42,24,18,183,42,34,17,304,37,11,05,206,46,1*79
$GBGSV,3,1,09,46,76,174,45,19,67,316,42,20,59,127,46,37,40,050,44,1*7B
$GBGSV,3,2,09,36,27,214,50,57,17,293,,22,14,312,37,32,05,131,38,1*7D
$GBGSV,3,3,09,58,,,27,1*77
$GBGSV,2,1,07,46,76,174,45,19,67,316,34,20,59,127,46,37,40,050,36,5*74
$GBGSV,2,2,07,36,27,214,46,22,14,312,41,32,05,131,47,5*44
$GNGGA,094007.000,4005.098038,N,10513.208922,W,2,53,0.48,1584.321,M,-20.670,M,,*7B
$GPGSV,3,1,12,03,70,261,46,31,56,046,42,26,55,109,43,04,47,306,26,1*6E
$GPGSV,3,2,12,48,39,209,47,16,37,157,46,28,27,053,40,09,09,293,33,1*6F
$GPGSV,3,3,12,06,07,324,25,02,06,220,51,32,04,102,48,21,01,209,,1*67
$GPGSV,2,1,07,03,70,261,45,26,55,109,42,04,47,306,36,28,27,053,27,8*68
$GPGSV,2,2,07,09,09,293,37,06,07,324,36,32,04,102,34,8*56
$GLGSV,2,1,08,78,79,093,40,68,70,028,41,79,37,198,45,67,36,112,41,1*72
$GLGSV,2,2,08,69,30,322,33,77,23,033,25,84,09,288,24,85,05,339,31,1*7B
$GAGSV,2,1,08,09,70,341,36,31,51,133,44,04,45,087,42,05,22,294,21,7*77
$GAGSV,2,2,08,36,21,251,46,24,18,183,44,34,17,304,29,11,05,206,34,7*77
$GAGSV,2,1,08,09,70,341,38,31,51,133,45,04,45,087,38,05,22,294,33,1*70
$GAGSV,2,2,08,36,21,251,42,24,18,183,42,34,17,304,37,11,05,206,46,1*79
$GBGSV,3,1,09,46,76,174,45,19,67,316,42,20,59,127,46,37,40,050,44,1*7B
$GBGSV,3,2,09,36,27,214,50,57,17,293,,22,14,312,37,32,05,131,38,1*7D
$GBGSV,3,3,09,58,,,28,1*78
$GBGSV,2,1,07,46,76,174,45,19,67,316,34,20,59,127,46,37,40,050,36,5*74
$GBGSV,2,2,07,36,27,214,46,22,14,312,42,32,05,131,47,5*47
$GNGGA,094012.000,4005.098020,N,10513.208910,W,2,52,0.48,1584.468,M,-20.669,M,,*74
$GPGSV,3,1,12,03,70,261,46,31,56,046,42,26,55,109,44,04,47,306,25,1*6A
$GPGSV,3,2,12,48,39,209,47,16,37,157,46,28,27,053,40,09,09,293,32,1*6E
$GPGSV,3,3,12,06,07,324,23,02,06,220,51,32,04,102,48,21,01,208,,1*60
$GPGSV,2,1,07,03,70,261,45,26,55,109,42,04,47,306,36,28,27,053,26,8*69
$GPGSV,2,2,07,09,09,293,38,06,07,324,36,32,04,102,34,8*59
$GLGSV,2,1,08,78,79,093,39,68,70,028,41,79,37,198,45,67,36,112,42,1*7F
$GLGSV,2,2,08,69,30,322,32,77,23,033,25,84,09,288,19,85,05,339,32,1*77
$GAGSV,2,1,08,09,70,341,36,31,51,133,44,04,45,087,42,05,22,294,24,7*72
$GAGSV,2,2,08,36,21,251,46,24,18,183,44,34,17,304,29,11,05,206,34,7*77
$GAGSV,2,1,08,09,70,341,38,31,51,133,45,04,45,087,38,05,22,294,32,1*71
$GAGSV,2,2,08,36,21,251,42,24,18,183,42,34,17,304,37,11,05,206,45,1*7A
$GBGSV,3,1,09,46,76,174,45,19,67,316,42,20,59,127,46,37,40,050,43,1*7C
$GBGSV,3,2,09,36,27,214,50,57,17,293,,22,14,312,37,32,05,131,38,1*7D
$GBGSV,3,3,09,58,,,27,1*77
$GBGSV,2,1,07,46,76,174,45,19,67,316,34,20,59,127,46,37,40,050,34,5*76
$GBGSV,2,2,07,36,27,214,46,22,14,312,42,32,05,131,47,5*47
$GNGGA,094017.000,4005.098020,N,10513.208886,W,2,52,0.48,1584.512,M,-20.670,M,,*7B
$GPGSV,3,1,12,03,70,261,46,31,56,046,42,26,56,107,44,04,47,306,30,1*63
$GPGSV,3,2,12,48,39,209,47,16,37,157,47,28,27,053,40,09,09,293,33,1*6E
$GPGSV,3,3,12,06,07,324,19,02,06,220,51,32,04,102,48,21,01,208,,1*69
$GPGSV,2,1,07,03,70,261,45,26,56,107,42,04,47,306,36,28,27,053,26,8*64
$GPGSV,2,2,07,09,09,293,38,06,07,324,36,32,04,102,32,8*5F
$GLGSV,2,1,08,78,79,093,40,68,70,028,41,79,37,198,45,67,36,112,42,1*71
$GLGSV,2,2,08,69,30,322,31,77,23,033,26,84,09,288,19,85,05,339,32,1*77
$GAGSV,2,1,08,09,70,341,36,31,51,133,44,04,45,087,42,05,22,294,24,7*72
$GAGSV,2,2,08,36,21,251,46,24,18,183,44,34,17,304,29,11,05,206,34,7*77
$GAGSV,2,1,08,09,70,341,38,31,51,133,45,04,45,087,38,05,22,294,32,1*71
$GAGSV,2,2,08,36,21,251,42,24,18,183,43,34,17,304,37,11,05,206,45,1*7B
$GBGSV,3,1,09,46,76,174,45,19,67,316,42,20,59,127,46,37,40,050,43,1*7C
$GBGSV,3,2,09,36,27,214,49,57,17,293,,22,14,312,38,32,05,131,37,1*75
$GBGSV,3,3,09,58,,,25,1*75
$GBGSV,2,1,07,46,76,174,45,19,67,316,34,20,59,127,46,37,40,050,34,5*76
$GBGSV,2,2,07,36,27,214,46,22,14,312,42,32,05,131,47,5*47
$GNGGA,094022.000,4005.098002,N,10513.208838,W,2,53,0.48,1584.741,M,-20.669,M,,*75
$GPGSV,3,1,12,03,70,261,46,26,56,107,44,31,54,046,42,04,47,306,29,1*69
$GPGSV,3,2,12,48,39,209,47,16,37,157,47,28,26,054,40,09,09,293,35,1*6E
$GPGSV,3,3,12,06,07,324,18,02,06,220,51,32,04,102,48,21,01,208,,1*68
$GPGSV,2,1,07,03,70,261,45,26,56,107,42,04,47,306,37,28,26,054,28,8*6D
$GPGSV,2,2,07,09,09,293,38,06,07,324,36,32,04,102,34,8*59
$GLGSV,2,1,08,78,79,093,40,68,70,028,40,79,37,198,46,67,36,112,42,1*73
$GLGSV,2,2,08,69,30,322,31,77,23,033,26,84,09,288,21,85,05,339,33,1*7D
$GAGSV,2,1,08,09,70,341,37,31,51,133,44,04,45,087,42,05,22,294,25,7*72
$GAGSV,2,2,08,36,21,251,46,24,18,183,44,34,17,304,28,11,05,206,35,7*77
$GAGSV,2,1,08,09,70,341,38,31,51,133,45,04,45,087,38,05,22,294,32,1*71
$GAGSV,2,2,08,36,21,251,42,24,18,183,43,34,17,304,38,11,05,206,45,1*74
$GBGSV,3,1,09,46,76,174,45,19,67,316,42,20,59,127,46,37,40,050,43,1*7C
$GBGSV,3,2,09,36,27,214,49,57,17,293,,22,14,312,38,32,05,131,36,1*74
$GBGSV,3,3,09,58,,,27,1*77
$GBGSV,2,1,07,46,76,174,45,19,67,316,34,20,59,127,46,37,40,050,34,5*76
$GBGSV,2,2,07,36,27,214,46,22,14,312,42,32,05,131,47,5*47
$GNGGA,094027.000,4005.097978,N,10513.208814,W,2,53,0.48,1584.904,M,-20.670,M,,*72
$GPGSV,3,1,12,03,70,261,46,26,56,107,44,31,54,046,42,04,47,306,28,1*68
$GPGSV,3,2,12,48,39,209,47,16,37,157,47,28,26,054,39,09,09,293,35,1*60
$GPGSV,3,3,12,06,07,324,17,02,06,220,51,32,04,103,48,21,01,208,,1*66
$GPGSV,2,1,07,03,70,261,45,26,56,107,42,04,47,306,37,28,26,054,29,8*6C
$GPGSV,2,2,07,09,09,293,38,06,07,324,37,32,04,103,31,8*5C
$GLGSV,2,1,08,78,79,093,41,68,70,028,38,79,37,198,46,67,36,112,42,1*7D
$GLGSV,2,2,08,69,30,322,31,77,23,033,26,84,09,288,20,85,05,339,33,1*7C
$GAGSV,2,1,08,09,70,341,37,31,51,133,44,04,45,087,43,05,22,294,24,7*72
$GAGSV,2,2,08,36,21,251,46,24,18,183,44,34,17,304,28,11,05,206,36,7*74
$GAGSV,2,1,08,09,70,341,38,31,51,133,45,04,45,087,38,05,22,294,32,1*71
$GAGSV,2,2,08,36,21,251,42,24,18,183,43,34,17,304,38,11,05,206,45,1*74
$GBGSV,3,1,09,46,76,174,45,19,67,316,42,20,59,127,46,37,40,050,43,1*7C
$GBGSV,3,2,09,36,27,214,49,57,17,293,,22,14,312,38,32,05,131,34,1*76
$GBGSV,3,3,09,58,,,27,1*77
$GBGSV,2,1,07,46,76,174,45,19,67,316,34,20,59,127,46,37,40,050,34,5*76
$GBGSV,2,2,07,36,27,214,46,22,14,312,42,32,05,131,47,5*47
$GNGGA,094032.000,4005.097978,N,10513.208796,W,2,53,0.48,1585.020,M,-20.670,M,,*7D
$GPGSV,3,1,12,03,70,261,46,26,56,107,44,31,54,046,42,04,47,306,29,1*69
$GPGSV,3,2,12,48,39,209,47,16,37,157,47,28,26,054,39,09,09,293,35,1*60
$GPGSV,3,3,12,06,07,324,14,02,06,220,51,32,04,103,49,21,01,208,,1*64
$GPGSV,2,1,07,03,70,261,45,26,56,107,42,04,47,306,37,28,26,054,29,8*6C
$GPGSV,2,2,07,09,09,293,38,06,07,324,37,32,04,103,32,8*5F
$GLGSV,2,1,08,78,79,093,40,68,70,028,38,79,37,198,46,67,36,112,42,1*7C
$GLGSV,2,2,08,69,30,322,32,77,23,033,26,84,09,288,22,85,05,339,32,1*7C
$GAGSV,2,1,08,09,70,341,38,31,51,133,44,04,45,087,43,05,22,294,24,7*7D
$GAGSV,2,2,08,36,21,251,46,24,18,183,44,34,17,304,26,11,05,206,37,7*7B
$GAGSV,2,1,08,09,70,341,38,31,51,133,45,04,45,087,38,05,22,294,32,1*71
$GAGSV,2,2,08,36,21,251,42,24,18,183,43,34,17,304,38,11,05,206,45,1*74
$GBGSV,3,1,09,46,76,174,45,19,67,316,42,20,59,127,46,37,40,050,43,1*7C
$GBGSV,3,2,09,36,27,214,49,57,17,293,,22,14,312,37,32,05,131,36,1*7B
$GBGSV,3,3,09,58,,,28,1*78
$GBGSV,2,1,07,46,76,174,45,19,67,316,34,20,59,127,46,37,40,050,34,5*76
$GBGSV,2,2,07,36,27,214,46,22,14,312,41,32,05,131,47,5*44
$GNGGA,094037.000,4005.097924,N,10513.208838,W,2,53,0.48,1585.178,M,-20.669,M,,*7E
$GPGSV,3,1,12,03,70,261,46,26,56,107,44,31,54,046,42,04,47,306,31,1*60
$GPGSV,3,2,12,48,39,209,47,16,37,157,47,28,26,054,39,09,09,293,35,1*60
$GPGSV,3,3,12,06,07,324,18,02,06,220,51,32,04,103,49,21,01,208,,1*68
$GPGSV,2,1,07,03,70,261,45,26,56,107,42,04,47,306,37,28,26,054,29,8*6C
$GPGSV,2,2,07,09,09,293,38,06,07,324,37,32,04,103,30,8*5D
$GLGSV,2,1,08,78,79,093,40,68,70,028,37,79,37,198,46,67,36,112,42,1*73
$GLGSV,2,2,08,69,30,322,32,77,23,033,26,84,09,288,23,85,05,339,32,1*7D
$GAGSV,2,1,08,09,70,341,38,31,51,133,44,04,44,088,43,05,23,295,24,7*73
$GAGSV,2,2,08,36,21,251,46,24,18,183,44,34,17,304,24,11,05,206,37,7*79
$GAGSV,2,1,08,09,70,341,38,31,51,133,45,04,44,088,38,05,23,295,32,1*7F
$GAGSV,2,2,08,36,21,251,42,24,18,183,43,34,17,304,39,11,05,206,45,1*75
$GBGSV,3,1,09,46,76,174,45,19,67,316,42,20,59,127,46,37,40,050,43,1*7C
$GBGSV,3,2,09,36,27,214,49,57,17,293,,22,14,312,34,32,05,131,36,1*78
$GBGSV,3,3,09,58,,,27,1*77
$GBGSV,2,1,07,46,76,174,45,19,67,316,34,20,59,127,46,37,40,050,34,5*76
$GBGSV,2,2,07,36,27,214,46,22,14,312,40,32,05,131,47,5*45
$GNGGA,094042.000,4005.097966,N,10513.208904,W,2,51,0.49,1585.247,M,-20.669,M,,*78
$GPGSV,3,1,12,03,70,261,46,26,56,107,44,31,54,046,43,04,47,306,31,1*61
$GPGSV,3,2,12,48,39,209,47,16,37,157,47,28,26,054,39,09,09,293,37,1*62
$GPGSV,3,3,12,06,07,324,14,02,06,220,51,32,04,103,49,21,01,208,,1*64
$GPGSV,2,1,07,03,70,261,45,26,56,107,42,04,47,306,37,28,26,054,29,8*6C
$GPGSV,2,2,07,09,09,293,38,06,07,324,37,32,04,103,32,8*5F
$GLGSV,2,1,08,78,79,093,40,68,70,028,38,79,37,198,46,67,36,112,42,1*7C
$GLGSV,2,2,08,69,30,322,31,77,23,033,26,84,09,288,24,85,05,339,32,1*79
$GAGSV,2,1,08,09,70,344,38,31,51,133,44,04,44,088,43,05,23,295,22,7*70
$GAGSV,2,2,08,36,21,251,46,24,18,183,44,34,17,304,22,11,04,206,39,7*70
$GAGSV,2,1,08,09,70,344,38,31,51,133,45,04,44,088,38,05,23,295,31,1*79
$GAGSV,2,2,08,36,21,251,42,24,18,183,43,34,17,304,39,11,04,206,45,1*74
$GBGSV,3,1,09,46,76,174,45,19,67,316,42,20,59,127,46,37,40,050,42,1*7D
$GBGSV,3,2,09,36,27,214,49,57,17,293,,22,14,312,30,32,05,131,36,1*7C
$GBGSV,3,3,09,58,,,27,1*77
$GBGSV,2,1,07,46,76,174,45,19,67,316,34,20,59,127,46,37,40,050,34,5*76
$GBGSV,2,2,07,36,27,214,46,22,14,312,38,32,05,131,47,5*4A
$GNGGA,094047.000,4005.098074,N,10513.208910,W,2,50,0.49,1585.308,M,-20.670,M,,*7E
$GPGSV,3,1,12,03,70,261,46,26,56,107,44,31,54,046,43,04,47,306,32,1*62
$GPGSV,3,2,12,48,39,209,47,16,37,157,47,28,26,054,38,09,09,293,37,1*63
$GPGSV,3,3,12,06,07,324,,02,06,220,51,32,04,103,49,21,01,208,,1*61
$GPGSV,2,1,07,03,70,261,45,26,56,107,42,04,47,306,37,28,26,054,29,8*6C
$GPGSV,2,2,07,09,09,293,38,06,07,324,37,32,04,103,29,8*55
$GLGSV,2,1,08,78,79,093,40,68,70,028,38,79,37,198,45,67,36,112,42,1*7F
$GLGSV,2,2,08,69,30,322,31,77,23,033,27,84,09,288,25,85,05,339,31,1*7A
$GAGSV,2,1,08,09,70,344,38,31,51,133,44,04,44,088,43,05,23,295,22,7*70
$GAGSV,2,2,08,36,21,251,46,24,18,183,44,34,17,304,22,11,04,206,39,7*70
$GAGSV,2,1,08,09,70,344,38,31,51,133,45,04,44,088,38,05,23,295,31,1*79
$GAGSV,2,2,08,36,21,251,42,24,18,183,44,34,17,304,39,11,04,206,45,1*73
$GBGSV,3,1,09,46,76,174,45,19,67,316,42,20,59,127,46,37,40,050,42,1*7D
$GBGSV,3,2,09,36,27,214,49,57,17,293,,22,14,312,26,32,05,131,36,1*7B
$GBGSV,3,3,09,58,,,27,1*77
$GBGSV,2,1,07,46,76,174,45,19,67,316,34,20,59,127,46,37,40,050,34,5*76
$GBGSV,2,2,07,36,27,214,46,22,14,312,36,32,05,131,47,5*44
$GNGGA,094052.000,4005.098218,N,10513.208892,W,2,51,0.49,1585.320,M,-20.670,M,,*72
$GPGSV,3,1,12,03,70,261,46,26,56,107,44,31,54,046,43,04,47,306,33,1*63
$GPGSV,3,2,12,48,39,209,47,16,37,157,47,28,26,054,36,09,09,293,37,1*6D
$GPGSV,3,3,12,06,07,324,24,02,06,220,51,32,04,103,49,21,01,208,,1*67
$GPGSV,2,1,07,03,70,261,45,26,56,107,42,04,47,306,37,28,26,054,29,8*6C
$GPGSV,2,2,07,09,09,293,38,06,07,324,37,32,04,103,30,8*5D
$GLGSV,2,1,08,78,79,093,40,68,70,028,39,79,37,198,47,67,36,112,42,1*7C
$GLGSV,2,2,08,69,30,322,33,77,23,033,27,84,09,288,25,85,05,339,31,1*78
$GAGSV,2,1,08,09,70,344,38,31,51,133,43,04,44,088,43,05,23,295,24,7*71
$GAGSV,2,2,08,36,21,251,46,24,18,183,44,34,17,304,23,11,04,206,39,7*71
$GAGSV,2,1,08,09,70,344,38,31,51,133,45,04,44,088,38,05,23,295,31,1*79
$GAGSV,2,2,08,36,21,251,42,24,18,183,44,34,17,304,38,11,04,206,45,1*72
$GBGSV,3,1,09,46,76,174,45,19,67,316,42,20,59,127,46,37,40,050,41,1*7E
$GBGSV,3,2,09,36,27,214,49,57,17,293,,22,14,312,24,32,05,131,36,1*79
$GBGSV,3,3,09,58,,,27,1*77
$GBGSV,2,1,07,46,76,174,45,19,67,316,34,20,59,127,46,37,40,050,34,5*76
$GBGSV,2,2,07,36,27,214,46,22,14,312,36,32,05,131,47,5*44
$GNGGA,094057.000,4005.098410,N,10513.208856,W,2,51,0.49,1585.374,M,-20.670,M,,*70
$GPGSV,3,1,12,03,70,261,46,26,56,107,44,31,54,046,43,04,47,306,34,1*64
$GPGSV,3,2,12,48,39,209,47,16,37,157,47,28,26,054,36,09,09,293,38,1*62
$GPGSV,3,3,12,06,07,324,22,02,06,220,51,32,04,103,49,21,01,208,,1*61
