$GNGGA,123637.000,4005.098164,N,10513.208310,W,2,48,0.49,1585.132,M,-20.670,M,,*7A
$GPGSV,3,1,12,09,78,275,43,04,53,144,41,07,47,296,38,48,39,209,47,1*6E
$GPGSV,3,2,12,27,38,089,41,08,36,136,43,16,35,048,26,30,17,281,35,1*63
$GPGSV,3,3,12,20,10,315,40,26,04,051,25,14,02,226,23,03,02,186,51,1*6E
$GPGSV,2,1,07,09,78,275,42,04,53,144,47,27,38,089,40,08,36,136,45,8*6A
$GPGSV,2,2,07,30,17,281,39,26,04,051,30,03,02,186,51,8*53
$GLGSV,3,1,10,80,60,286,42,70,52,311,27,69,51,179,46,79,46,031,38,1*7A
$GLGSV,3,2,10,73,12,248,39,88,10,040,32,81,09,090,43,71,07,333,36,1*76
$GLGSV,3,3,10,68,04,162,51,78,01,054,,1*7D
$GAGSV,2,1,06,24,87,096,40,05,78,287,40,09,43,143,42,25,36,225,44,7*7E
$GAGSV,2,2,06,31,34,048,40,03,26,313,32,7*7F
$GAGSV,2,1,06,24,87,096,36,05,78,287,38,09,43,143,41,25,36,225,42,1*73
$GAGSV,2,2,06,31,34,048,26,03,26,313,39,1*72
$GBGSV,3,1,11,57,81,287,12,36,75,359,40,22,58,250,46,45,37,263,46,1*75
$GBGSV,3,2,11,46,31,060,44,19,30,180,50,21,27,314,40,30,15,117,48,1*7E
$GBGSV,3,3,11,27,14,068,44,38,07,335,28,08,04,347,27,1*42
$GBGSV,3,1,09,36,75,359,30,22,58,250,44,45,37,263,40,46,31,060,32,5*79
$GBGSV,3,2,09,19,30,180,46,21,27,314,32,30,15,117,31,27,14,068,37,5*73
$GBGSV,3,3,09,38,07,335,28,5*48
$PAIR001,062,0*3F
$PAIR001,062,0*3F
$PAIR001,062,0*3F
$PAIR001,062,0*3F
$PAIR001,062,0*3F
$PAIR001,062,0*3F
$PAIR001,062,0*3F
$PAIR001,062,0*3F
$PAIR001,062,0*3F
$GNGGA,123642.000,4005.098140,N,10513.208322,W,2,51,0.49,1584.977,M,-20.669,M,,*77
$GPGSV,3,1,12,09,78,275,43,04,53,144,41,07,47,296,38,48,39,209,47,1*6E
$GPGSV,3,2,12,27,38,089,41,08,36,136,43,16,35,048,24,30,17,281,31,1*65
$GPGSV,3,3,12,20,10,315,40,26,04,051,24,14,02,226,25,03,02,186,51,1*69
$GPGSV,2,1,07,09,78,275,42,04,53,144,47,27,38,089,40,08,36,136,45,8*6A
$GPGSV,2,2,07,30,17,281,39,26,04,051,30,03,02,186,51,8*53
$GLGSV,3,1,10,80,60,286,42,70,53,310,28,69,49,179,46,79,46,031,38,1*7C
$GLGSV,3,2,10,73,12,248,38,88,10,040,32,81,09,090,42,71,07,333,37,1*77
$GLGSV,3,3,10,68,03,162,51,78,01,054,,1*7A
$GAGSV,2,1,06,24,87,096,40,05,78,287,40,09,43,143,42,25,36,225,44,7*7E
$GAGSV,2,2,06,31,34,048,40,03,26,313,32,7*7F
$GAGSV,2,1,06,24,87,096,36,05,78,287,38,09,43,143,41,25,36,225,42,1*73
$GAGSV,2,2,06,31,34,048,27,03,26,313,39,1*73
$GBGSV,3,1,11,57,81,287,14,36,75,359,41,22,58,250,46,45,37,263,46,1*72
$GBGSV,3,2,11,46,31,060,44,19,30,180,50,21,27,314,40,30,15,117,48,1*7E
$GBGSV,3,3,11,27,14,068,44,38,07,335,30,08,04,347,27,1*4B
$GBGSV,3,1,09,36,75,359,30,22,58,250,44,45,37,263,40,46,31,060,32,5*79
$GBGSV,3,2,09,19,30,180,46,21,27,314,32,30,15,117,32,27,14,068,37,5*70
$GBGSV,3,3,09,38,07,335,28,5*48
$GNGGA,123647.000,4005.098098,N,10513.208298,W,2,49,0.49,1584.841,M,-20.670,M,,*73
$GPGSV,3,1,12,09,78,275,43,04,53,144,41,07,47,296,38,48,39,209,47,1*6E
$GPGSV,3,2,12,27,38,089,41,08,36,136,43,16,35,048,28,30,17,281,31,1*69
$GPGSV,3,3,12,20,10,315,39,26,04,051,24,14,02,226,24,03,02,186,51,1*66
$GPGSV,2,1,07,09,78,275,42,04,53,144,47,27,38,089,39,08,36,136,45,8*64
$GPGSV,2,2,07,30,17,281,40,26,04,051,30,03,02,186,51,8*5D
$GLGSV,3,1,10,80,60,286,42,70,53,310,30,69,49,179,46,79,46,031,37,1*7A
$GLGSV,3,2,10,73,13,249,38,88,10,040,35,81,09,090,42,71,08,333,37,1*7F
$GLGSV,3,3,10,68,03,162,50,78,01,054,,1*7B
$GAGSV,2,1,06,24,87,096,39,05,78,287,40,09,43,143,42,25,36,225,44,7*70
$GAGSV,2,2,06,31,34,048,40,03,26,313,32,7*7F
$GAGSV,2,1,06,24,87,096,36,05,78,287,39,09,43,143,41,25,36,225,42,1*72
$GAGSV,2,2,06,31,34,048,27,03,26,313,40,1*7D
$GBGSV,3,1,11,57,81,287,14,36,75,359,41,22,58,250,46,45,37,263,46,1*72
$GBGSV,3,2,11,46,31,060,44,19,30,180,50,21,27,314,40,30,15,117,48,1*7E
$GBGSV,3,3,11,27,14,068,44,38,07,335,30,08,04,347,27,1*4B
$GBGSV,3,1,09,36,75,359,30,22,58,250,45,45,37,263,40,46,31,060,31,5*7B
$GBGSV,3,2,09,19,30,180,47,21,27,314,33,30,15,117,32,27,14,068,37,5*70
$GBGSV,3,3,09,38,07,335,29,5*49
$GNGGA,123652.000,4005.098044,N,10513.208166,W,2,49,0.49,1584.738,M,-20.670,M,,*75
$GPGSV,3,1,12,09,78,275,43,04,53,144,41,07,47,296,38,48,39,209,46,1*6F
$GPGSV,3,2,12,27,38,089,41,08,36,136,43,16,35,048,30,30,17,281,32,1*63
$GPGSV,3,3,12,20,10,315,39,26,04,051,25,14,02,226,23,03,02,186,51,1*60
$GPGSV,2,1,07,09,78,275,42,04,53,144,47,27,38,089,39,08,36,136,45,8*64
$GPGSV,2,2,07,30,17,281,40,26,04,051,30,03,02,186,51,8*5D
$GLGSV,3,1,09,80,60,289,42,70,53,310,31,69,49,179,46,79,45,032,38,1*73
$GLGSV,3,2,09,73,13,249,37,88,10,040,36,81,09,090,42,71,08,333,37,1*7B
$GLGSV,3,3,09,68,03,162,50,1*4C
$GAGSV,2,1,06,24,87,096,39,05,78,287,40,09,43,143,42,25,36,225,44,7*70
$GAGSV,2,2,06,31,34,048,40,03,26,313,32,7*7F
$GAGSV,2,1,06,24,87,096,36,05,78,287,39,09,43,143,41,25,36,225,42,1*72
$GAGSV,2,2,06,31,34,048,28,03,26,313,40,1*72
$GBGSV,3,1,12,57,81,287,14,36,75,359,41,22,58,250,46,45,37,263,46,1*71
$GBGSV,3,2,12,46,31,060,44,19,30,180,50,21,27,314,40,30,15,117,48,1*7D
$GBGSV,3,3,12,27,14,068,44,38,07,335,31,08,04,347,28,58,,,30,1*48
$GBGSV,3,1,09,36,75,359,30,22,58,250,45,45,37,263,40,46,31,060,31,5*7B
$GBGSV,3,2,09,19,30,180,47,21,27,314,33,30,15,117,32,27,14,068,37,5*70
$GBGSV,3,3,09,38,07,335,28,5*48
$GNGGA,123657.000,4005.097960,N,10513.208088,W,2,50,0.49,1584.675,M,-20.670,M,,*71
$GPGSV,3,1,12,09,78,275,43,04,53,144,41,07,47,296,38,48,39,209,46,1*6F
$GPGSV,3,2,12,27,38,089,41,08,36,136,43,16,35,048,32,30,17,281,32,1*61
$GPGSV,3,3,12,20,10,315,39,26,04,051,25,14,02,226,25,03,02,186,51,1*66
$GPGSV,2,1,07,09,78,275,42,04,53,144,47,27,38,089,39,08,36,136,45,8*64
$GPGSV,2,2,07,30,17,281,40,26,04,051,30,03,02,186,51,8*5D
$GLGSV,3,1,09,80,60,289,42,70,53,310,30,69,49,179,46,79,45,032,38,1*72
$GLGSV,3,2,09,73,13,249,37,88,10,040,36,81,10,089,42,71,08,333,37,1*7B
$GLGSV,3,3,09,68,03,162,50,1*4C
$GAGSV,2,1,06,24,87,096,39,05,78,287,41,09,43,143,42,25,36,225,45,7*70
$GAGSV,2,2,06,31,34,048,42,03,26,313,32,7*7D
$GAGSV,2,1,06,24,87,096,36,05,78,287,39,09,43,143,41,25,36,225,42,1*72
$GAGSV,2,2,06,31,34,048,29,03,26,313,40,1*73
$GBGSV,3,1,12,57,81,287,13,36,75,359,41,22,58,250,46,45,37,263,46,1*76
$GBGSV,3,2,12,46,31,060,44,19,30,180,50,21,27,314,40,30,15,117,48,1*7D
$GBGSV,3,3,12,27,14,068,44,38,07,335,31,08,04,347,28,58,,,36,1*4E
$GBGSV,3,1,09,36,75,359,29,22,58,250,45,45,37,263,40,46,31,060,29,5*7A
$GBGSV,3,2,09,19,30,180,47,21,27,314,33,30,15,117,32,27,14,068,37,5*70
$GBGSV,3,3,09,38,07,335,28,5*48
$GNGGA,123702.000,4005.097906,N,10513.208100,W,2,50,0.49,1584.569,M,-20.670,M,,*7F
$GPGSV,3,1,12,09,78,275,43,04,53,144,41,07,47,296,38,48,39,209,47,1*6E
$GPGSV,3,2,12,27,38,089,41,08,36,136,43,16,35,048,34,30,17,281,32,1*67
$GPGSV,3,3,12,20,10,315,38,26,04,051,26,14,02,226,27,03,02,186,51,1*66
$GPGSV,2,1,07,09,78,275,42,04,53,144,47,27,38,089,39,08,36,136,45,8*64
$GPGSV,2,2,07,30,17,281,40,26,04,051,29,03,02,186,51,8*55
$GLGSV,3,1,09,80,60,289,43,70,53,310,29,69,49,179,46,79,45,032,39,1*7A
$GLGSV,3,2,09,73,13,249,36,88,10,039,36,81,10,089,43,71,08,333,38,1*7A
$GLGSV,3,3,09,68,03,162,50,1*4C
$GAGSV,2,1,06,24,87,096,39,05,78,287,41,09,43,143,43,25,36,225,45,7*71
$GAGSV,2,2,06,31,34,048,42,03,26,313,32,7*7D
$GAGSV,2,1,06,24,87,096,35,05,78,287,39,09,43,143,41,25,36,225,42,1*71
$GAGSV,2,2,06,31,34,048,29,03,26,313,39,1*7D
$GBGSV,3,1,12,57,81,287,,36,75,359,41,22,58,250,46,45,37,263,46,1*74
$GBGSV,3,2,12,46,31,060,44,19,30,180,50,21,27,314,40,30,15,117,48,1*7D
$GBGSV,3,3,12,27,14,068,44,38,07,335,31,08,04,347,28,58,,,36,1*4E
$GBGSV,3,1,09,36,75,359,29,22,58,250,44,45,37,263,40,46,31,060,28,5*7A
$GBGSV,3,2,09,19,30,180,47,21,27,314,33,30,15,117,32,27,14,068,37,5*70
$GBGSV,3,3,09,38,07,335,27,5*47
$GNGGA,123707.000,4005.097858,N,10513.208142,W,2,51,0.49,1584.506,M,-20.670,M,,*7E
$GPGSV,3,1,12,09,78,275,43,04,53,144,41,07,47,296,38,48,39,209,46,1*6F
$GPGSV,3,2,12,27,38,089,41,08,36,136,43,16,35,048,36,30,17,281,31,1*66
$GPGSV,3,3,12,20,10,315,38,26,04,051,26,14,02,226,30,03,02,186,51,1*60
$GPGSV,2,1,07,09,78,275,42,04,53,144,47,27,38,089,39,08,36,136,45,8*64
$GPGSV,2,2,07,30,17,281,40,26,04,051,30,03,02,186,51,8*5D
$GLGSV,3,1,09,80,60,289,42,70,53,310,30,69,49,179,47,79,45,032,39,1*72
$GLGSV,3,2,09,73,13,249,36,88,10,039,35,81,10,089,43,71,08,333,38,1*79
$GLGSV,3,3,09,68,03,162,50,1*4C
$GAGSV,2,1,06,24,87,096,39,05,78,287,41,09,43,143,43,25,36,225,45,7*71
$GAGSV,2,2,06,31,34,048,42,03,26,313,33,7*7C
$GAGSV,2,1,06,24,87,096,35,05,78,287,39,09,43,143,41,25,36,225,42,1*71
$GAGSV,2,2,06,31,34,048,30,03,26,313,39,1*75
$GBGSV,3,1,12,57,81,287,,36,75,359,41,22,58,250,46,45,37,263,46,1*74
$GBGSV,3,2,12,46,31,060,44,19,30,180,50,21,27,314,40,30,15,117,48,1*7D
$GBGSV,3,3,12,27,14,068,44,38,07,335,30,08,04,347,29,58,,,37,1*4F
$GBGSV,3,1,09,36,75,359,29,22,58,250,44,45,37,263,40,46,31,060,27,5*75
$GBGSV,3,2,09,19,30,180,47,21,27,314,33,30,15,117,32,27,14,068,37,5*70
$GBGSV,3,3,09,38,07,335,27,5*47
$GNGGA,123712.000,4005.097858,N,10513.208148,W,2,51,0.49,1584.463,M,-20.670,M,,*72
$GPGSV,3,1,12,09,78,275,43,04,53,144,42,07,47,296,38,48,39,209,46,1*6C
$GPGSV,3,2,12,27,38,089,41,08,36,136,43,16,35,048,36,30,17,281,31,1*66
$GPGSV,3,3,12,20,10,315,37,26,04,051,27,14,02,226,29,03,02,186,51,1*66
$GPGSV,2,1,07,09,78,275,42,04,53,144,47,27,38,089,39,08,36,136,44,8*65
$GPGSV,2,2,07,30,17,281,40,26,04,051,30,03,02,186,50,8*5C
$GLGSV,3,1,09,80,60,289,42,70,53,310,31,69,49,179,46,79,45,032,40,1*7C
$GLGSV,3,2,09,73,13,249,38,88,10,039,35,81,10,089,43,71,08,333,38,1*77
$GLGSV,3,3,09,68,03,162,50,1*4C
$GAGSV,2,1,06,24,87,096,39,05,78,287,41,09,43,143,43,25,36,225,45,7*71
$GAGSV,2,2,06,31,34,048,42,03,26,313,33,7*7C
$GAGSV,2,1,06,24,87,096,35,05,78,287,39,09,43,143,41,25,36,225,42,1*71
$GAGSV,2,2,06,31,34,048,30,03,26,313,38,1*74
$GBGSV,3,1,12,57,81,287,,36,75,359,41,22,58,250,46,45,37,263,46,1*74
$GBGSV,3,2,12,46,31,060,44,19,30,180,50,21,27,314,39,30,15,117,48,1*73
$GBGSV,3,3,12,27,14,068,44,38,07,335,30,08,04,347,29,58,,,37,1*4F
$GBGSV,3,1,09,36,75,359,29,22,58,250,44,45,37,263,40,46,31,060,25,5*77
$GBGSV,3,2,09,19,30,180,47,21,27,314,33,30,15,117,32,27,14,068,37,5*70
$GBGSV,3,3,09,38,07,335,26,5*46
$GNGGA,123717.000,4005.097930,N,10513.208178,W,2,51,0.49,1584.521,M,-20.670,M,,*7C
$GPGSV,3,1,12,09,78,275,43,04,53,144,42,07,47,296,37,48,39,209,46,1*63
$GPGSV,3,2,12,27,38,089,40,08,36,136,43,16,35,048,38,30,17,281,30,1*68
$GPGSV,3,3,12,20,10,315,37,26,04,051,27,14,02,226,28,03,02,186,51,1*67
$GPGSV,2,1,07,09,78,275,42,04,53,144,47,27,38,089,39,08,36,136,44,8*65
$GPGSV,2,2,07,30,17,281,40,26,04,051,30,03,02,186,50,8*5C
$GLGSV,3,1,09,80,60,289,41,70,53,310,31,69,49,179,46,79,45,032,40,1*7F
$GLGSV,3,2,09,73,13,249,38,88,10,039,33,81,10,089,43,71,08,333,38,1*71
$GLGSV,3,3,09,68,03,162,48,1*45
$GAGSV,2,1,06,24,87,096,39,05,78,287,41,09,43,143,44,25,36,225,45,7*76
$GAGSV,2,2,06,31,34,048,42,03,26,313,33,7*7C
$GAGSV,2,1,06,24,87,096,35,05,78,287,39,09,43,143,40,25,36,225,42,1*70
$GAGSV,2,2,06,31,34,048,31,03,26,313,37,1*7A
$GBGSV,3,1,12,57,81,287,,36,75,359,41,22,58,250,46,45,37,263,46,1*74
$GBGSV,3,2,12,46,31,060,45,19,30,180,49,21,27,314,39,30,15,117,48,1*7A
$GBGSV,3,3,12,27,14,068,44,38,07,335,30,08,04,347,29,58,,,37,1*4F
$GBGSV,3,1,09,36,75,359,29,22,58,250,44,45,37,263,40,46,31,060,25,5*77
$GBGSV,3,2,09,19,30,180,47,21,27,314,32,30,15,117,32,27,14,068,37,5*71
$GBGSV,3,3,09,38,07,335,27,5*47
$GNGGA,123722.000,4005.098038,N,10513.208214,W,2,51,0.49,1584.616,M,-20.670,M,,*7A
$GPGSV,3,1,12,09,78,275,43,04,53,144,42,07,47,296,37,48,39,209,46,1*63
$GPGSV,3,2,12,27,38,089,40,08,36,136,43,16,35,048,38,30,17,281,29,1*60
$GPGSV,3,3,12,20,10,315,37,26,04,051,28,14,02,226,31,03,02,186,51,1*60
$GPGSV,2,1,07,09,78,275,42,04,53,144,47,27,38,089,39,08,36,136,44,8*65
$GPGSV,2,2,07,30,17,281,40,26,04,051,30,03,02,186,51,8*5D
$GLGSV,3,1,09,80,60,289,41,70,53,310,30,69,49,179,47,79,45,032,40,1*7F
$GLGSV,3,2,09,73,13,249,39,88,10,039,33,81,10,089,43,71,08,333,38,1*70
$GLGSV,3,3,09,68,03,162,48,1*45
$GAGSV,2,1,06,24,87,096,39,05,78,287,41,09,43,143,44,25,36,225,45,7*76
$GAGSV,2,2,06,31,34,048,42,03,26,313,33,7*7C
$GAGSV,2,1,06,24,87,096,35,05,78,287,39,09,43,143,40,25,36,225,42,1*70
$GAGSV,2,2,06,31,34,048,31,03,26,313,38,1*75
$GBGSV,3,1,12,57,81,287,,36,75,359,40,22,57,248,46,45,37,263,46,1*73
$GBGSV,3,2,12,46,31,060,45,19,28,180,49,21,28,313,39,30,15,117,48,1*7B
$GBGSV,3,3,12,27,14,068,44,38,07,335,31,08,04,347,29,58,,,38,1*41
$GBGSV,3,1,09,36,75,359,29,22,57,248,44,45,37,263,40,46,31,060,25,5*71
$GBGSV,3,2,09,21,28,313,32,19,28,180,47,30,15,117,32,27,14,068,37,5*70
$GBGSV,3,3,09,38,07,335,27,5*47
$GNGGA,123727.000,4005.098128,N,10513.208232,W,2,51,0.49,1584.697,M,-20.670,M,,*72
$GPGSV,3,1,12,09,78,275,43,04,53,144,42,07,47,296,38,48,39,209,47,1*6D
$GPGSV,3,2,12,27,38,089,40,08,36,136,43,16,35,048,38,30,17,281,32,1*6A
$GPGSV,3,3,12,20,10,315,37,26,04,051,27,14,02,226,31,03,02,186,51,1*6F
$GPGSV,2,1,07,09,78,275,42,04,53,144,47,27,38,089,39,08,36,136,44,8*65
$GPGSV,2,2,07,30,17,281,40,26,04,051,30,03,02,186,51,8*5D
$GLGSV,3,1,09,80,60,289,41,70,53,310,31,69,49,179,47,79,45,032,41,1*7F
$GLGSV,3,2,09,73,13,249,39,88,10,039,34,81,10,089,43,71,08,333,38,1*77
$GLGSV,3,3,09,68,03,162,47,1*4A
$GAGSV,2,1,06,24,87,096,39,05,78,287,41,09,43,143,44,25,36,225,45,7*76
$GAGSV,2,2,06,31,34,048,42,03,26,313,33,7*7C
$GAGSV,2,1,06,24,87,096,35,05,78,287,39,09,43,143,40,25,36,225,42,1*70
$GAGSV,2,2,06,31,34,048,31,03,26,313,38,1*75
$GBGSV,3,1,12,57,81,287,,36,75,359,40,22,57,248,47,45,37,263,46,1*72
$GBGSV,3,2,12,46,31,060,45,19,28,180,49,21,28,313,39,30,15,117,48,1*7B
$GBGSV,3,3,12,27,14,067,44,38,07,335,31,08,04,347,29,58,,,38,1*4E
$GBGSV,3,1,09,36,75,359,29,22,57,248,44,45,37,263,40,46,31,060,24,5*70
$GBGSV,3,2,09,21,28,313,32,19,28,180,47,30,15,117,32,27,14,067,37,5*7F
$GBGSV,3,3,09,38,07,335,26,5*46
$GNGGA,123732.000,4005.098146,N,10513.208280,W,2,51,0.49,1584.780,M,-20.670,M,,*70
$GPGSV,3,1,12,09,78,275,43,04,53,144,42,07,47,296,38,48,39,209,47,1*6D
$GPGSV,3,2,12,27,38,089,41,08,36,136,43,16,35,048,38,30,17,281,31,1*68
$GPGSV,3,3,12,20,10,315,37,26,04,051,27,14,02,226,29,03,02,186,51,1*66
$GPGSV,2,1,07,09,78,275,42,04,53,144,47,27,38,089,39,08,36,136,44,8*65
$GPGSV,2,2,07,30,17,281,40,26,04,051,30,03,02,186,51,8*5D
$GLGSV,3,1,09,80,60,289,42,70,53,310,30,69,49,179,47,79,45,032,41,1*7D
$GLGSV,3,2,09,73,13,249,38,88,10,039,34,81,10,089,42,71,08,333,38,1*77
$GLGSV,3,3,09,68,03,162,47,1*4A
$GAGSV,2,1,06,24,87,096,39,05,78,287,41,09,43,143,44,25,36,225,45,7*76
$GAGSV,2,2,06,31,34,048,42,03,26,313,33,7*7C
$GAGSV,2,1,06,24,87,096,35,05,78,287,39,09,43,143,40,25,36,225,42,1*70
$GAGSV,2,2,06,31,34,048,31,03,26,313,38,1*75
$GBGSV,3,1,12,57,81,287,,36,75,359,40,22,57,248,47,45,37,263,46,1*72
$GBGSV,3,2,12,46,31,060,45,19,28,180,49,21,28,313,39,30,16,117,48,1*78
$GBGSV,3,3,12,27,14,067,43,38,07,335,31,08,04,347,29,58,,,38,1*49
$GBGSV,3,1,09,36,75,359,29,22,57,248,44,45,37,263,40,46,31,060,24,5*70
$GBGSV,3,2,09,21,28,313,32,19,28,180,47,30,16,117,33,27,14,067,37,5*7D
$GBGSV,3,3,09,38,07,335,26,5*46
$GNGGA,123737.000,4005.098134,N,10513.208280,W,2,51,0.49,1584.752,M,-20.670,M,,*7F
$GPGSV,3,1,12,09,78,275,43,04,53,144,42,07,47,296,39,48,39,209,47,1*6C
$GPGSV,3,2,12,27,38,089,41,08,36,136,43,16,35,048,38,30,17,281,32,1*6B
$GPGSV,3,3,12,20,10,315,37,26,04,051,28,14,02,226,31,03,02,186,51,1*60
$GPGSV,2,1,07,09,78,275,42,04,53,144,47,27,38,089,39,08,36,136,44,8*65
$GPGSV,2,2,07,30,17,281,40,26,04,051,29,03,02,186,51,8*55
$GLGSV,3,1,09,80,60,289,42,70,53,310,29,69,49,179,47,79,45,032,41,1*75
$GLGSV,3,2,09,73,13,249,39,88,10,039,35,81,10,089,42,71,08,333,38,1*77
$GLGSV,3,3,09,68,03,162,46,1*4B
$GAGSV,2,1,06,24,87,096,39,05,78,287,41,09,43,143,45,25,36,225,45,7*77
$GAGSV,2,2,06,31,34,048,42,03,26,313,33,7*7C
$GAGSV,2,1,06,24,87,096,35,05,78,287,39,09,43,143,40,25,36,225,42,1*70
$GAGSV,2,2,06,31,34,048,31,03,26,313,38,1*75
$GBGSV,3,1,12,57,81,287,,36,74,003,40,22,57,248,47,45,37,263,46,1*7F
$GBGSV,3,2,12,46,31,060,45,19,28,180,49,21,28,313,39,30,16,117,48,1*78
$GBGSV,3,3,12,27,14,067,43,38,07,335,31,08,04,347,29,58,,,37,1*46
$GBGSV,3,1,09,36,74,003,29,22,57,248,44,45,37,263,40,46,31,060,23,5*7A
$GBGSV,3,2,09,21,28,313,31,19,28,180,47,30,16,117,33,27,14,067,37,5*7E
$GBGSV,3,3,09,38,07,335,26,5*46
$GNGGA,123742.000,4005.098080,N,10513.208274,W,2,51,0.49,1584.717,M,-20.670,M,,*79
$GPGSV,3,1,12,09,78,275,43,04,53,144,42,07,47,296,39,48,39,209,47,1*6C
$GPGSV,3,2,12,27,38,089,41,08,36,136,43,16,35,048,39,30,17,281,33,1*6B
$GPGSV,3,3,12,20,10,315,37,26,04,051,27,14,02,226,32,03,02,186,51,1*6C
$GPGSV,2,1,07,09,78,275,42,04,53,144,47,27,38,089,39,08,36,136,44,8*65
$GPGSV,2,2,07,30,17,281,40,26,04,051,29,03,02,186,51,8*55
$GLGSV,3,1,09,80,60,289,41,70,53,310,28,69,49,179,47,79,45,032,41,1*77
$GLGSV,3,2,09,73,13,249,40,88,10,039,35,81,10,089,42,71,08,333,38,1*79
$GLGSV,3,3,09,68,03,162,45,1*48
$GAGSV,2,1,06,24,87,096,39,05,78,287,42,09,43,143,45,25,36,225,45,7*74
$GAGSV,2,2,06,31,34,048,42,03,26,313,33,7*7C
$GAGSV,2,1,06,24,87,096,35,05,78,287,39,09,43,143,40,25,36,225,42,1*70
$GAGSV,2,2,06,31,34,048,31,03,26,313,38,1*75
$GBGSV,3,1,12,57,81,287,,36,74,003,40,22,57,248,47,45,37,263,46,1*7F
$GBGSV,3,2,12,46,31,060,45,19,28,180,49,21,28,313,39,30,16,117,48,1*78
$GBGSV,3,3,12,27,14,067,43,38,07,335,31,08,04,347,29,58,,,36,1*47
$GBGSV,3,1,09,36,74,003,29,22,57,248,44,45,37,263,40,46,31,060,23,5*7A
$GBGSV,3,2,09,21,28,313,31,19,28,180,47,30,16,117,33,27,14,067,37,5*7E
$GBGSV,3,3,09,38,07,335,26,5*46
$GNGGA,123747.000,4005.098056,N,10513.208196,W,2,51,0.49,1584.697,M,-20.670,M,,*71
$GPGSV,3,1,12,09,78,275,44,04,53,144,43,07,47,296,39,48,39,209,47,1*6A
$GPGSV,3,2,12,27,38,089,41,08,36,136,44,16,35,048,40,30,17,281,33,1*62
$GPGSV,3,3,12,20,10,315,38,26,04,051,27,14,02,226,33,03,02,186,51,1*62
$GPGSV,2,1,07,09,78,275,42,04,53,144,47,27,38,089,39,08,36,136,44,8*65
$GPGSV,2,2,07,30,17,281,40,26,04,051,29,03,02,186,50,8*54
$GLGSV,3,1,09,80,60,289,40,70,53,310,28,69,49,179,48,79,45,032,41,1*79
$GLGSV,3,2,09,73,13,249,41,88,10,039,36,81,10,089,43,71,08,333,38,1*7A
$GLGSV,3,3,09,68,03,162,45,1*48
$GAGSV,2,1,06,24,87,096,39,05,78,287,42,09,43,143,45,25,36,225,45,7*74
$GAGSV,2,2,06,31,34,048,42,03,26,313,33,7*7C
$GAGSV,2,1,06,24,87,096,34,05,78,287,39,09,43,143,41,25,36,225,42,1*70
$GAGSV,2,2,06,31,34,048,31,03,26,313,38,1*75
$GBGSV,3,1,11,57,81,287,,36,74,003,40,22,57,248,47,45,38,264,46,1*74
$GBGSV,3,2,11,46,30,061,45,19,28,180,49,21,28,313,39,30,16,117,48,1*7B
$GBGSV,3,3,11,27,14,067,43,38,07,335,31,08,04,347,28,1*4D
$GBGSV,3,1,09,36,74,003,29,22,57,248,44,45,38,264,40,46,30,061,23,5*72
$GBGSV,3,2,09,21,28,313,30,19,28,180,47,30,16,117,34,27,14,067,37,5*78
$GBGSV,3,3,09,38,07,335,26,5*46
$GNGGA,123752.000,4005.098050,N,10513.208136,W,2,51,0.49,1584.798,M,-20.670,M,,*77
$GPGSV,3,1,12,09,78,275,44,04,53,144,43,07,47,296,39,48,39,209,47,1*6A
$GPGSV,3,2,12,27,38,089,41,08,36,136,44,16,35,048,40,30,17,281,33,1*62
$GPGSV,3,3,12,20,10,315,38,26,04,051,28,14,02,226,35,03,02,186,51,1*6B
$GPGSV,2,1,07,09,78,275,42,04,53,144,47,27,38,089,39,08,36,136,44,8*65
$GPGSV,2,2,07,30,17,281,40,26,04,051,30,03,02,186,50,8*5C
$GLGSV,3,1,09,80,60,289,41,70,53,310,29,69,49,179,48,79,45,032,41,1*79
$GLGSV,3,2,09,73,13,249,41,88,10,039,35,81,10,089,43,71,08,333,38,1*79
$GLGSV,3,3,09,68,03,162,45,1*48
$GAGSV,2,1,06,24,87,096,39,05,78,287,42,09,43,143,45,25,36,225,45,7*74
$GAGSV,2,2,06,31,34,048,42,03,26,313,33,7*7C
$GAGSV,2,1,06,24,87,096,34,05,78,287,39,09,43,143,41,25,36,225,43,1*71
$GAGSV,2,2,06,31,34,048,32,03,26,313,38,1*76
$GBGSV,3,1,11,57,81,287,,36,74,003,40,22,57,248,47,45,38,264,46,1*74
$GBGSV,3,2,11,46,30,061,45,19,28,180,49,21,28,313,39,30,16,117,48,1*7B
$GBGSV,3,3,11,27,14,067,43,38,07,335,31,08,04,347,28,1*4D
$GBGSV,3,1,09,36,74,003,29,22,57,248,44,45,38,264,41,46,30,061,24,5*74
$GBGSV,3,2,09,21,28,313,29,19,28,180,47,30,16,117,34,27,14,067,37,5*70
$GBGSV,3,3,09,38,07,335,26,5*46
$GNGGA,123757.000,4005.098080,N,10513.207998,W,2,51,0.49,1584.750,M,-20.669,M,,*70
$GPGSV,3,1,12,09,78,275,44,04,53,144,43,07,47,296,39,48,39,209,47,1*6A
$GPGSV,3,2,12,27,38,089,41,08,36,136,44,16,35,048,40,30,17,281,34,1*65
$GPGSV,3,3,12,20,10,315,38,26,04,051,28,14,02,226,36,03,02,186,51,1*68
$GPGSV,2,1,07,09,78,275,43,04,53,144,47,27,38,089,39,08,36,136,44,8*64
$GPGSV,2,2,07,30,17,281,40,26,04,051,30,03,02,186,49,8*54
$GLGSV,3,1,09,80,60,289,42,70,53,310,29,69,49,179,48,79,45,032,41,1*7A
$GLGSV,3,2,09,73,13,249,42,88,10,039,35,81,10,089,43,71,08,333,38,1*7A
$GLGSV,3,3,09,68,03,162,45,1*48
$GAGSV,2,1,06,24,87,096,40,05,78,287,42,09,43,143,45,25,36,225,45,7*7A
$GAGSV,2,2,06,31,34,048,42,03,26,313,33,7*7C
$GAGSV,2,1,06,24,87,096,35,05,78,287,39,09,43,143,41,25,36,225,43,1*70
$GAGSV,2,2,06,31,34,048,32,03,26,313,38,1*76
$GBGSV,3,1,11,57,82,280,,36,74,003,41,22,57,248,47,45,38,264,46,1*71
$GBGSV,3,2,11,46,30,061,45,19,28,180,49,21,28,313,40,30,16,117,48,1*75
$GBGSV,3,3,11,27,14,067,43,38,07,335,31,08,04,347,28,1*4D
$GBGSV,3,1,09,36,74,003,29,22,57,248,44,45,38,264,41,46,30,061,25,5*75
$GBGSV,3,2,09,21,28,313,28,19,28,180,47,30,16,117,35,27,14,067,37,5*70
$GBGSV,3,3,09,38,07,335,26,5*46
$GNGGA,123802.000,4005.098032,N,10513.207962,W,2,51,0.49,1584.507,M,-20.670,M,,*7B
$GPGSV,3,1,12,09,78,275,44,04,53,144,43,07,47,296,40,48,39,209,47,1*64
$GPGSV,3,2,12,27,38,089,41,08,36,136,44,16,35,048,40,30,17,281,34,1*65
$GPGSV,3,3,12,20,10,315,38,26,04,051,28,14,02,226,38,03,02,186,51,1*66
$GPGSV,2,1,07,09,78,275,43,04,53,144,47,27,38,089,39,08,36,136,44,8*64
$GPGSV,2,2,07,30,17,281,40,26,04,051,29,03,02,186,49,8*5C
$GLGSV,3,1,09,80,60,289,42,70,53,310,27,69,49,179,48,79,45,032,42,1*77
$GLGSV,3,2,09,73,13,249,42,88,10,039,35,81,10,089,43,71,08,333,38,1*7A
$GLGSV,3,3,09,68,03,162,44,1*49
$GAGSV,2,1,06,24,87,096,40,05,78,287,42,09,43,143,45,25,36,225,45,7*7A
$GAGSV,2,2,06,31,34,048,42,03,26,313,33,7*7C
$GAGSV,2,1,06,24,87,096,35,05,78,287,39,09,43,143,41,25,36,225,43,1*70
$GAGSV,2,2,06,31,34,048,32,03,26,313,38,1*76
$GBGSV,3,1,11,57,82,280,,36,74,003,41,22,57,248,47,45,38,264,46,1*71
$GBGSV,3,2,11,46,30,061,45,19,28,180,49,21,28,313,40,30,16,117,48,1*75
$GBGSV,3,3,11,27,14,067,43,38,07,335,31,08,04,347,28,1*4D
$GBGSV,3,1,09,36,74,003,29,22,57,248,44,45,38,264,41,46,30,061,26,5*76
$GBGSV,3,2,09,21,28,313,28,19,28,180,47,30,16,117,35,27,14,067,37,5*70
$GBGSV,3,3,09,38,07,335,26,5*46
$GNGGA,123807.000,4005.097966,N,10513.207962,W,2,51,0.49,1584.262,M,-20.669,M,,*75
$GPGSV,3,1,12,09,78,275,44,04,51,145,43,07,47,296,40,48,39,209,47,1*67
$GPGSV,3,2,12,27,38,089,41,08,36,136,44,16,35,048,40,30,17,281,34,1*65
$GPGSV,3,3,12,20,10,315,38,26,04,051,28,14,02,226,40,03,01,185,49,1*60
$GPGSV,2,1,08,09,78,275,43,04,51,145,47,27,38,089,39,08,36,136,44,8*68
$GPGSV,2,2,08,30,17,281,40,26,04,051,29,14,02,226,24,03,01,185,47,8*6A
$GLGSV,3,1,09,80,60,289,42,70,53,310,28,69,49,179,48,79,45,032,42,1*78
$GLGSV,3,2,09,73,13,249,42,88,10,039,35,81,10,089,43,71,08,333,37,1*75
$GLGSV,3,3,09,68,03,162,42,1*4F
$GAGSV,2,1,06,24,87,096,40,05,78,287,42,09,43,143,45,25,36,225,45,7*7A
$GAGSV,2,2,06,31,34,048,42,03,26,313,34,7*7B
$GAGSV,2,1,06,24,87,096,35,05,78,287,39,09,43,143,41,25,36,225,43,1*70
$GAGSV,2,2,06,31,34,048,32,03,26,313,38,1*76
$GBGSV,3,1,11,57,82,280,,36,74,003,42,22,57,248,47,45,38,264,46,1*72
$GBGSV,3,2,11,46,30,061,45,19,28,180,49,21,28,313,38,30,16,117,48,1*7A
$GBGSV,3,3,11,27,14,067,43,38,07,335,30,08,04,347,28,1*4C
$GBGSV,3,1,09,36,74,003,29,22,57,248,44,45,38,264,41,46,30,061,27,5*77
$GBGSV,3,2,09,21,28,313,28,19,28,180,47,30,16,117,35,27,14,067,37,5*70
$GBGSV,3,3,09,38,07,335,26,5*46
$GNGGA,123812.000,4005.097894,N,10513.208016,W,2,51,0.49,1584.063,M,-20.670,M,,*73
$GPGSV,3,1,12,09,79,268,44,04,51,145,44,07,47,297,40,48,39,209,47,1*6C
$GPGSV,3,2,12,27,38,089,42,08,37,135,44,16,35,048,40,30,17,281,35,1*65
$GPGSV,3,3,12,20,10,315,38,26,04,051,28,14,02,226,42,03,01,185,45,1*6E
$GPGSV,2,1,08,09,79,268,43,04,51,145,47,27,38,089,39,08,37,135,44,8*67
$GPGSV,2,2,08,30,17,281,41,26,04,051,28,14,02,226,25,03,01,185,43,8*6F
$GLGSV,3,1,09,80,60,289,42,70,53,310,29,69,49,179,48,79,45,032,42,1*79
$GLGSV,3,2,09,73,13,249,43,88,10,039,35,81,10,089,43,71,08,333,37,1*74
$GLGSV,3,3,09,68,03,162,42,1*4F
$GAGSV,2,1,06,24,87,096,40,05,78,287,42,09,43,143,45,25,36,225,45,7*7A
$GAGSV,2,2,06,31,34,048,42,03,26,313,35,7*7A
$GAGSV,2,1,06,24,87,096,35,05,78,287,39,09,43,143,41,25,36,225,43,1*70
$GAGSV,2,2,06,31,34,048,33,03,26,313,38,1*77
$GBGSV,3,1,11,57,82,280,,36,74,003,42,22,57,248,47,45,38,264,46,1*72
$GBGSV,3,2,11,46,30,061,45,19,28,180,49,21,28,313,37,30,16,117,48,1*75
$GBGSV,3,3,11,27,14,067,43,38,07,335,30,08,04,347,27,1*43
$GBGSV,3,1,09,36,74,003,29,22,57,248,44,45,38,264,41,46,30,061,27,5*77
$GBGSV,3,2,09,21,28,313,27,19,28,180,47,30,16,117,35,27,14,067,36,5*7E
$GBGSV,3,3,09,38,07,335,26,5*46
$GNGGA,123817.000,4005.097942,N,10513.208112,W,2,51,0.49,1583.820,M,-20.669,M,,*79
$GPGSV,3,1,12,09,79,268,44,04,51,145,44,07,47,297,40,48,39,209,47,1*6C
$GPGSV,3,2,12,27,38,089,42,08,37,135,44,16,35,048,41,30,17,281,35,1*64
$GPGSV,3,3,12,20,10,315,38,26,04,051,27,14,03,227,43,03,01,185,41,1*64
$GPGSV,2,1,08,09,79,268,43,04,51,145,47,27,38,089,39,08,37,135,44,8*67
$GPGSV,2,2,08,30,17,281,41,26,04,051,27,14,03,227,27,03,01,185,40,8*61
$GLGSV,3,1,09,80,60,289,42,70,53,310,28,69,49,179,48,79,45,032,42,1*78
$GLGSV,3,2,09,73,13,249,42,88,10,039,33,81,10,089,43,71,08,333,37,1*73
$GLGSV,3,3,09,68,03,162,41,1*4C
$GAGSV,2,1,06,24,87,096,40,05,78,287,42,09,43,143,45,25,36,225,46,7*79
$GAGSV,2,2,06,31,34,048,43,03,26,313,35,7*7B
$GAGSV,2,1,06,24,87,096,35,05,78,287,39,09,43,143,41,25,36,225,43,1*70
$GAGSV,2,2,06,31,34,048,33,03,26,313,38,1*77
$GBGSV,3,1,11,57,82,280,,36,74,003,42,22,57,248,47,45,38,264,46,1*72
$GBGSV,3,2,11,46,30,061,45,19,28,180,49,21,28,313,37,30,16,117,48,1*75
$GBGSV,3,3,11,27,14,067,43,38,07,335,30,08,04,347,27,1*43
$GBGSV,3,1,09,36,74,003,29,22,57,248,44,45,38,264,41,46,30,061,28,5*78
$GBGSV,3,2,09,21,28,313,27,19,28,180,47,30,16,117,35,27,14,067,36,5*7E
$GBGSV,3,3,09,38,07,335,26,5*46
$GNGGA,123822.000,4005.098038,N,10513.208166,W,2,51,0.49,1583.722,M,-20.670,M,,*72
$GPGSV,3,1,12,09,79,268,44,04,51,145,44,07,47,297,39,48,39,209,47,1*62
$GPGSV,3,2,12,27,38,089,42,08,37,135,44,16,34,048,41,30,17,281,35,1*65
$GPGSV,3,3,12,20,10,315,37,26,04,051,26,14,03,227,45,03,01,185,38,1*62
$GPGSV,2,1,08,09,79,268,43,04,51,145,47,27,38,089,39,08,37,135,44,8*67
$GPGSV,2,2,08,30,17,281,41,26,04,051,26,14,03,227,28,03,01,185,36,8*6E
$GLGSV,3,1,09,80,60,289,42,70,53,310,28,69,49,179,48,79,45,032,42,1*78
$GLGSV,3,2,09,73,13,249,42,88,10,039,33,81,10,089,43,71,08,333,36,1*72
$GLGSV,3,3,09,68,03,162,40,1*4D
$GAGSV,2,1,06,24,87,096,40,05,78,287,42,09,43,143,45,25,36,225,46,7*79
$GAGSV,2,2,06,31,34,048,43,03,26,313,35,7*7B
$GAGSV,2,1,06,24,87,096,35,05,78,287,39,09,43,143,41,25,36,225,43,1*70
$GAGSV,2,2,06,31,34,048,33,03,26,313,38,1*77
$GBGSV,3,1,11,57,82,280,,36,74,003,42,22,57,248,47,45,38,264,45,1*71
$GBGSV,3,2,11,46,30,061,45,19,28,180,49,21,28,313,37,30,16,117,48,1*75
$GBGSV,3,3,11,27,14,067,43,38,07,335,29,08,04,347,27,1*4B
$GBGSV,3,1,09,36,74,003,28,22,57,248,44,45,38,264,41,46,30,061,29,5*78
$GBGSV,3,2,09,21,28,313,25,19,28,180,47,30,16,117,36,27,14,067,36,5*7F
$GBGSV,3,3,09,38,07,335,26,5*46
$GNGGA,123827.000,4005.098062,N,10513.208286,W,2,51,0.49,1583.726,M,-20.670,M,,*71
$GPGSV,3,1,12,09,79,268,44,04,51,145,44,07,47,297,39,48,39,209,47,1*62
$GPGSV,3,2,12,27,38,089,42,08,37,135,44,16,34,048,41,30,17,281,35,1*65
$GPGSV,3,3,12,20,11,314,37,26,04,051,26,14,03,227,48,03,01,185,34,1*63
$GPGSV,2,1,08,09,79,268,43,04,51,145,48,27,38,089,39,08,37,135,44,8*68
$GPGSV,2,2,08,30,17,281,41,26,04,051,26,14,03,227,32,03,01,185,34,8*67
$GLGSV,3,1,09,80,60,289,42,70,53,310,28,69,49,179,48,79,45,032,42,1*78
$GLGSV,3,2,09,73,13,249,43,88,10,039,34,81,10,089,43,71,08,333,36,1*74
$GLGSV,3,3,09,68,03,162,38,1*42
$GAGSV,2,1,06,24,87,096,40,05,78,287,42,09,43,143,45,25,36,225,46,7*79
$GAGSV,2,2,06,31,34,048,43,03,26,313,35,7*7B
$GAGSV,2,1,06,24,87,096,35,05,78,287,39,09,43,143,42,25,36,225,43,1*73
$GAGSV,2,2,06,31,34,048,34,03,26,313,38,1*70
$GBGSV,3,1,11,57,82,280,,36,74,003,42,22,57,248,47,45,38,264,45,1*71
$GBGSV,3,2,11,46,30,061,45,19,28,180,49,21,28,313,37,30,16,117,48,1*75
$GBGSV,3,3,11,27,14,067,43,38,07,335,28,08,04,347,27,1*4A
$GBGSV,3,1,09,36,74,003,29,22,57,248,44,45,38,264,41,46,30,061,30,5*71
$GBGSV,3,2,09,21,28,313,23,19,28,180,47,30,16,117,37,27,14,067,36,5*78
$GBGSV,3,3,09,38,07,335,26,5*46
$GNGGA,123832.000,4005.098080,N,10513.208370,W,2,51,0.49,1583.705,M,-20.670,M,,*70
$GPGSV,3,1,12,09,79,268,44,04,51,145,44,07,47,297,38,48,39,209,47,1*63
$GPGSV,3,2,12,27,38,087,42,08,37,135,44,16,34,048,41,30,17,281,36,1*68
$GPGSV,3,3,12,20,11,314,37,14,03,227,49,26,03,051,25,03,01,185,30,1*62
$GPGSV,2,1,08,09,79,268,43,04,51,145,48,27,38,087,39,08,37,135,44,8*66
$GPGSV,2,2,08,30,17,281,41,14,03,227,33,26,03,051,26,03,01,185,31,8*64
$GLGSV,3,1,09,80,60,289,42,70,53,310,28,69,49,179,48,79,45,032,42,1*78
$GLGSV,3,2,09,73,13,249,43,88,10,039,33,81,10,089,43,71,08,333,36,1*73
$GLGSV,3,3,09,68,03,162,38,1*42
$GAGSV,2,1,06,24,87,096,40,05,78,287,42,09,43,143,45,25,36,225,46,7*79
$GAGSV,2,2,06,31,34,048,43,03,26,313,35,7*7B
$GAGSV,2,1,06,24,87,096,35,05,78,287,39,09,43,143,42,25,36,225,43,1*73
$GAGSV,2,2,06,31,34,048,34,03,26,313,38,1*70
$GBGSV,3,1,11,57,82,280,,36,74,003,42,22,57,248,47,45,38,264,45,1*71
$GBGSV,3,2,11,46,30,061,45,19,28,180,49,21,28,313,37,30,16,117,48,1*75
$GBGSV,3,3,11,27,14,067,43,38,07,335,27,08,04,347,26,1*44
$GBGSV,3,1,09,36,74,003,29,22,57,248,44,45,38,264,41,46,30,061,30,5*71
$GBGSV,3,2,09,21,28,313,23,19,28,180,47,30,16,117,37,27,14,067,36,5*78
$GBGSV,3,3,09,38,07,335,26,5*46
$GNGGA,123837.000,4005.098080,N,10513.208400,W,2,51,0.49,1583.594,M,-20.670,M,,*7F
$GPGSV,3,1,12,09,79,268,44,04,51,145,44,07,47,297,38,48,39,209,47,1*63
$GPGSV,3,2,12,27,38,087,42,08,37,135,44,16,34,048,42,30,17,282,37,1*69
$GPGSV,3,3,12,20,11,314,37,14,03,227,50,26,03,051,24,03,01,185,28,1*62
$GPGSV,2,1,08,09,79,268,43,04,51,145,48,27,38,087,39,08,37,135,44,8*66
$GPGSV,2,2,08,30,17,282,41,14,03,227,35,26,03,051,26,03,01,185,29,8*68
$GLGSV,3,1,09,80,60,289,42,70,53,310,28,69,49,179,48,79,45,032,42,1*78
$GLGSV,3,2,09,73,13,249,43,88,10,039,36,81,10,089,43,71,08,333,36,1*76
$GLGSV,3,3,09,68,03,162,38,1*42
$GAGSV,2,1,06,24,87,096,40,05,78,287,41,09,43,143,45,25,36,225,46,7*7A
$GAGSV,2,2,06,31,34,048,43,03,26,313,34,7*7A
$GAGSV,2,1,06,24,87,096,35,05,78,287,39,09,43,143,42,25,36,225,43,1*73
$GAGSV,2,2,06,31,34,048,34,03,26,313,38,1*70
$GBGSV,3,1,11,57,82,280,,36,74,003,42,22,57,248,47,45,38,264,45,1*71
$GBGSV,3,2,11,46,30,061,45,19,28,180,49,21,28,313,37,30,16,117,48,1*75
$GBGSV,3,3,11,27,14,067,43,38,07,335,24,08,04,347,26,1*47
$GBGSV,3,1,09,36,74,003,29,22,57,248,44,45,38,264,41,46,30,061,31,5*70
$GBGSV,3,2,09,21,28,313,23,19,28,180,47,30,16,117,37,27,14,067,36,5*78
$GBGSV,3,3,09,38,07,335,27,5*47
$GNGGA,123842.000,4005.098032,N,10513.208346,W,2,51,0.49,1583.546,M,-20.670,M,,*7E
$GPGSV,3,1,12,09,79,268,43,04,51,145,44,07,47,297,38,48,39,209,46,1*65
$GPGSV,3,2,12,27,38,087,41,08,37,135,44,16,34,048,42,30,17,282,37,1*6A
$GPGSV,3,3,12,20,11,314,37,14,03,227,51,26,03,051,26,03,01,185,27,1*6E
$GPGSV,2,1,08,09,79,268,43,04,51,145,48,27,38,087,39,08,37,135,44,8*66
$GPGSV,2,2,08,30,17,282,41,14,03,227,36,26,03,051,26,03,01,185,26,8*64
$GLGSV,3,1,09,80,60,289,42,70,53,310,28,69,49,179,48,79,45,032,42,1*78
$GLGSV,3,2,09,73,13,249,43,88,10,039,36,81,10,089,44,71,08,333,36,1*71
$GLGSV,3,3,09,68,03,162,36,1*4C
$GAGSV,2,1,06,24,87,096,39,05,78,287,41,09,43,143,45,25,36,225,46,7*74
$GAGSV,2,2,06,31,34,048,43,03,26,313,34,7*7A
$GAGSV,2,1,06,24,87,096,35,05,78,287,39,09,43,143,42,25,36,225,43,1*73
$GAGSV,2,2,06,31,34,048,34,03,26,313,38,1*70
$GBGSV,3,1,11,57,82,280,,36,74,003,42,22,57,248,47,45,38,264,45,1*71
$GBGSV,3,2,11,46,30,061,45,19,28,180,49,21,28,313,37,30,16,117,47,1*7A
$GBGSV,3,3,11,27,14,067,43,38,07,335,21,08,04,347,26,1*42
$GBGSV,3,1,09,36,74,003,29,22,57,248,44,45,38,264,41,46,30,061,31,5*70
$GBGSV,3,2,09,21,28,313,25,19,28,180,47,30,16,117,37,27,14,067,36,5*7E
$GBGSV,3,3,09,38,07,335,26,5*46
$GNGGA,123847.000,4005.098014,N,10513.208280,W,2,51,0.49,1583.470,M,-20.669,M,,*78
$GPGSV,3,1,12,09,79,268,43,04,51,145,44,07,47,297,38,48,39,209,46,1*65
$GPGSV,3,2,12,27,38,087,41,08,37,135,44,16,34,048,42,30,17,282,37,1*6A
$GPGSV,3,3,12,20,11,314,36,14,03,227,51,26,03,051,21,03,01,185,24,1*6B
$GPGSV,2,1,08,09,79,268,43,04,51,145,48,27,38,087,39,08,37,135,44,8*66
$GPGSV,2,2,08,30,17,282,41,14,03,227,37,26,03,051,25,03,01,185,24,8*64
$GLGSV,3,1,09,80,60,289,43,70,53,310,28,69,49,179,48,79,45,032,42,1*79
$GLGSV,3,2,09,73,13,249,44,88,10,039,35,81,10,089,44,71,08,333,36,1*75
$GLGSV,3,3,09,68,03,162,38,1*42
$GAGSV,2,1,06,24,87,096,39,05,79,283,41,09,43,143,45,25,36,225,46,7*71
$GAGSV,2,2,06,31,34,048,43,03,27,313,34,7*7B
$GAGSV,2,1,06,24,87,096,35,05,79,283,39,09,43,143,42,25,36,225,43,1*76
$GAGSV,2,2,06,31,34,048,34,03,27,313,38,1*71
$GBGSV,3,1,11,57,82,280,,36,74,003,42,22,57,248,47,45,38,264,45,1*71
$GBGSV,3,2,11,46,30,061,45,19,28,180,49,21,28,313,37,30,16,117,47,1*7A
$GBGSV,3,3,11,27,14,067,43,38,07,335,18,08,04,347,25,1*4B
$GBGSV,3,1,09,36,74,003,29,22,57,248,44,45,38,264,41,46,30,061,32,5*73
$GBGSV,3,2,09,21,28,313,27,19,28,180,47,30,16,117,37,27,14,067,36,5*7C
$GBGSV,3,3,09,38,07,335,27,5*47
$GNGGA,123852.000,4005.098002,N,10513.208196,W,2,51,0.49,1583.342,M,-20.670,M,,*71
$GPGSV,3,1,12,09,79,268,43,04,51,145,44,07,47,297,38,48,39,209,46,1*65
$GPGSV,3,2,12,27,38,087,41,08,37,135,44,16,34,048,42,30,17,282,37,1*6A
$GPGSV,3,3,12,20,11,314,36,14,03,227,51,26,03,051,24,03,01,185,21,1*6B
$GPGSV,2,1,08,09,79,268,43,04,51,145,48,27,38,087,38,08,37,135,44,8*67
$GPGSV,2,2,08,30,17,282,41,14,03,227,37,26,03,051,25,03,01,185,22,8*62
$GLGSV,3,1,09,80,60,289,43,70,53,310,28,69,49,179,48,79,45,032,42,1*79
$GLGSV,3,2,09,73,13,249,44,88,10,039,37,81,10,089,43,71,08,333,36,1*70
$GLGSV,3,3,09,68,03,162,40,1*4D
$GAGSV,2,1,06,24,87,096,39,05,79,283,41,09,42,144,45,25,36,225,46,7*77
$GAGSV,2,2,06,31,34,048,43,03,27,313,34,7*7B
$GAGSV,2,1,06,24,87,096,35,05,79,283,39,09,42,144,42,25,36,225,43,1*70
$GAGSV,2,2,06,31,34,048,34,03,27,313,38,1*71
$GBGSV,3,1,11,57,82,280,,36,74,003,43,22,57,248,47,45,38,264,45,1*70
$GBGSV,3,2,11,46,30,061,45,19,28,180,49,21,28,313,38,30,16,117,47,1*75
$GBGSV,3,3,11,27,14,067,43,38,07,335,18,08,04,347,25,1*4B
$GBGSV,3,1,09,36,74,003,29,22,57,248,44,45,38,264,41,46,30,061,32,5*73
$GBGSV,3,2,09,21,28,313,28,19,28,180,47,30,16,117,37,27,14,067,36,5*73
$GBGSV,3,3,09,38,07,335,27,5*47
$GNGGA,123857.000,4005.097978,N,10513.208160,W,2,51,0.49,1583.211,M,-20.670,M,,*71
$GPGSV,3,1,12,09,79,268,43,04,51,145,45,07,47,297,38,48,39,209,46,1*64
$GPGSV,3,2,12,27,38,087,41,08,37,135,44,16,34,048,43,30,17,282,37,1*6B
$GPGSV,3,3,12,20,11,314,36,14,03,227,51,26,03,051,23,03,01,185,20,1*6D
$GPGSV,2,1,08,09,79,268,43,04,51,145,48,27,38,087,38,08,37,135,44,8*67
$GPGSV,2,2,08,30,17,282,41,14,03,227,38,26,03,051,24,03,01,185,21,8*6F
$GLGSV,3,1,09,80,60,289,42,70,53,310,30,69,49,179,48,79,45,032,42,1*71
$GLGSV,3,2,09,73,13,249,44,88,10,039,37,81,10,089,42,71,08,333,36,1*71
$GLGSV,3,3,09,68,03,162,39,1*43
$GAGSV,2,1,06,24,87,096,39,05,79,283,41,09,42,144,45,25,36,225,46,7*77
$GAGSV,2,2,06,31,34,048,43,03,27,313,34,7*7B
$GAGSV,2,1,06,24,87,096,35,05,79,283,40,09,42,144,42,25,36,225,43,1*7E
$GAGSV,2,2,06,31,34,048,35,03,27,313,37,1*7F
$GBGSV,3,1,11,57,82,280,,36,74,003,43,22,57,248,47,45,38,264,45,1*70
$GBGSV,3,2,11,46,30,061,45,19,28,180,49,21,28,313,38,30,16,117,47,1*75
$GBGSV,3,3,11,27,14,067,43,38,07,335,20,08,04,347,24,1*41
$GBGSV,3,1,09,36,74,003,30,22,57,248,44,45,38,264,41,46,30,061,33,5*7A
$GBGSV,3,2,09,21,28,313,28,19,28,180,47,30,16,117,38,27,14,067,36,5*7C
$GBGSV,3,3,09,38,07,335,28,5*48
$GNGGA,123902.000,4005.097942,N,10513.208136,W,2,51,0.49,1583.085,M,-20.670,M,,*75
$GPGSV,3,1,12,09,79,268,43,04,51,145,45,07,47,297,38,48,39,209,46,1*64
$GPGSV,3,2,12,27,38,087,40,08,37,135,44,16,34,048,44,30,17,282,37,1*6D
$GPGSV,3,3,12,20,11,314,37,14,03,227,50,26,03,051,22,03,01,185,17,1*68
$GPGSV,2,1,08,09,79,268,43,04,51,145,48,27,38,087,38,08,37,135,44,8*67
$GPGSV,2,2,08,30,17,282,42,14,03,227,40,26,03,051,24,03,01,185,19,8*68
$GLGSV,3,1,09,80,60,289,43,70,53,310,29,69,49,179,49,79,45,032,42,1*79
$GLGSV,3,2,09,73,13,249,44,88,10,039,37,81,10,089,42,71,08,333,36,1*71
$GLGSV,3,3,09,68,03,162,38,1*42
$GAGSV,2,1,06,24,87,096,39,05,79,283,41,09,42,144,45,25,36,225,46,7*77
$GAGSV,2,2,06,31,34,048,43,03,27,313,34,7*7B
$GAGSV,2,1,06,24,87,096,35,05,79,283,40,09,42,144,42,25,36,225,44,1*79
$GAGSV,2,2,06,31,34,048,35,03,27,313,37,1*7F
$GBGSV,3,1,11,57,82,280,,36,74,003,43,22,57,248,47,45,38,264,45,1*70
$GBGSV,3,2,11,46,30,061,45,19,28,180,49,21,28,313,39,30,16,117,47,1*74
$GBGSV,3,3,11,27,14,067,43,38,07,335,23,08,04,347,23,1*45
$GBGSV,3,1,09,36,74,003,30,22,57,248,44,45,38,264,41,46,30,061,34,5*7D
$GBGSV,3,2,09,21,28,313,28,19,28,180,47,30,16,117,38,27,14,067,37,5*7D
$GBGSV,3,3,09,38,07,335,28,5*48
$GNGGA,123907.000,4005.097954,N,10513.208136,W,2,51,0.49,1582.965,M,-20.669,M,,*79
$GPGSV,3,1,12,09,79,268,43,04,51,145,45,07,47,297,38,48,39,209,46,1*64
$GPGSV,3,2,12,27,38,087,40,08,37,135,45,16,34,048,44,30,17,282,37,1*6C
$GPGSV,3,3,12,20,11,314,38,14,03,227,50,26,03,051,20,03,01,185,16,1*64
$GPGSV,2,1,08,09,79,268,43,04,51,145,48,27,38,087,38,08,37,135,44,8*67
$GPGSV,2,2,08,30,17,282,42,14,03,227,40,26,03,051,23,03,01,185,17,8*61
$GLGSV,3,1,09,80,60,289,43,70,53,310,27,69,49,179,49,79,45,032,42,1*77
$GLGSV,3,2,09,73,13,249,44,88,10,039,36,81,10,089,42,71,08,333,36,1*70
$GLGSV,3,3,09,68,03,162,41,1*4C
$GAGSV,2,1,06,24,87,078,39,05,79,283,41,09,42,144,45,25,37,225,46,7*76
$GAGSV,2,2,06,31,34,048,43,03,27,313,34,7*7B
$GAGSV,2,1,06,24,87,078,35,05,79,283,40,09,42,144,42,25,37,225,44,1*78
$GAGSV,2,2,06,31,34,048,35,03,27,313,37,1*7F
$GBGSV,3,1,11,57,82,280,,36,74,003,43,22,57,248,47,45,38,264,45,1*70
$GBGSV,3,2,11,46,30,061,44,19,28,180,49,21,28,313,40,30,16,117,47,1*7B
$GBGSV,3,3,11,27,14,067,43,38,07,335,25,08,04,347,23,1*43
$GBGSV,3,1,09,36,74,003,30,22,57,248,44,45,38,264,41,46,30,061,34,5*7D
$GBGSV,3,2,09,21,28,313,25,19,28,180,47,30,16,117,38,27,14,067,37,5*70
$GBGSV,3,3,09,38,07,335,28,5*48
$GNGGA,123912.000,4005.097966,N,10513.208172,W,2,51,0.49,1582.930,M,-20.669,M,,*7C
$GPGSV,3,1,12,09,79,268,43,04,51,145,45,07,47,297,38,48,39,209,46,1*64
$GPGSV,3,2,12,27,38,087,40,08,37,135,45,16,34,048,44,30,17,282,38,1*63
$GPGSV,3,3,12,20,11,314,38,14,03,227,50,26,03,051,21,03,01,185,16,1*65
$GPGSV,2,1,08,09,79,268,43,04,51,145,48,27,38,087,38,08,37,135,44,8*67
$GPGSV,2,2,08,30,17,282,42,14,03,227,40,26,03,051,23,03,01,185,17,8*61
$GLGSV,3,1,09,80,60,289,42,70,53,310,26,69,49,179,49,79,45,032,42,1*77
$GLGSV,3,2,09,73,13,249,44,88,10,039,37,81,10,089,42,71,08,333,36,1*71
$GLGSV,3,3,09,68,03,162,43,1*4E
$GAGSV,2,1,06,24,87,078,39,05,79,283,41,09,42,144,45,25,37,225,46,7*76
$GAGSV,2,2,06,31,34,048,43,03,27,313,34,7*7B
$GAGSV,2,1,06,24,87,078,35,05,79,283,40,09,42,144,43,25,37,225,44,1*79
$GAGSV,2,2,06,31,34,048,36,03,27,313,37,1*7C
$GBGSV,3,1,11,57,82,280,,36,74,003,43,22,57,248,47,45,38,264,45,1*70
$GBGSV,3,2,11,46,30,061,44,19,28,180,49,21,28,313,40,30,16,117,47,1*7B
$GBGSV,3,3,11,27,14,067,43,38,07,335,26,08,04,347,21,1*42
$GBGSV,3,1,09,36,74,003,30,22,57,248,44,45,38,264,41,46,30,061,34,5*7D
$GBGSV,3,2,09,21,28,313,25,19,28,180,47,30,16,117,38,27,14,067,37,5*70
$GBGSV,3,3,09,38,07,335,28,5*48
$GNGGA,123917.000,4005.097966,N,10513.208172,W,2,51,0.49,1583.077,M,-20.670,M,,*7A
$GPGSV,3,1,12,09,79,268,43,04,51,145,45,07,47,297,38,48,39,209,46,1*64
$GPGSV,3,2,12,27,38,087,40,08,37,135,45,16,34,048,44,30,17,282,39,1*62
$GPGSV,3,3,12,20,11,314,39,14,03,227,51,26,03,051,20,03,01,185,14,1*66
$GPGSV,2,1,08,09,79,268,43,04,51,145,48,27,38,087,38,08,37,135,44,8*67
$GPGSV,2,2,08,30,17,282,42,14,03,227,42,26,03,051,22,03,01,185,17,8*62
$GLGSV,3,1,09,80,60,289,42,70,53,310,27,69,49,179,49,79,45,032,42,1*76
$GLGSV,3,2,09,73,13,249,44,88,10,039,36,81,10,089,42,71,08,333,36,1*70
$GLGSV,3,3,09,68,03,162,43,1*4E
$GAGSV,2,1,06,24,87,078,39,05,79,283,41,09,42,144,45,25,37,225,46,7*76
$GAGSV,2,2,06,31,33,048,43,03,27,313,34,7*7C
$GAGSV,2,1,06,24,87,078,35,05,79,283,40,09,42,144,43,25,37,225,44,1*79
$GAGSV,2,2,06,31,33,048,36,03,27,313,37,1*7B
$GBGSV,3,1,11,57,82,280,,36,74,003,43,22,57,248,47,45,38,264,45,1*70
$GBGSV,3,2,11,46,30,061,44,19,28,180,49,21,28,313,40,30,16,117,47,1*7B
$GBGSV,3,3,11,27,14,067,43,38,07,335,26,08,04,347,21,1*42
$GBGSV,3,1,09,36,74,003,30,22,57,248,44,45,38,264,41,46,30,061,35,5*7C
$GBGSV,3,2,09,21,28,313,25,19,28,180,47,30,16,117,38,27,14,067,36,5*71
$GBGSV,3,3,09,38,07,335,28,5*48
$GNGGA,123922.000,4005.097978,N,10513.208208,W,2,51,0.49,1583.201,M,-20.670,M,,*7E
$GPGSV,3,1,12,09,79,268,43,04,51,145,45,07,47,297,37,48,39,209,46,1*6B
$GPGSV,3,2,12,27,38,087,40,08,37,135,45,16,34,048,44,30,17,282,40,1*6C
$GPGSV,3,3,12,20,11,314,39,14,03,227,51,26,03,051,,03,01,185,13,1*63
$GPGSV,2,1,08,09,79,268,43,04,51,145,48,27,38,087,37,08,37,135,43,8*6F
$GPGSV,2,2,08,30,17,282,41,14,03,227,43,26,03,051,21,03,01,185,14,8*60
$GLGSV,3,1,09,80,60,289,42,70,53,310,28,69,49,179,49,79,45,032,43,1*78
$GLGSV,3,2,09,73,13,249,44,88,10,039,36,81,10,089,42,71,08,333,36,1*70
$GLGSV,3,3,09,68,02,162,43,1*4F
$GAGSV,2,1,06,24,87,078,39,05,79,283,41,09,42,144,45,25,37,225,46,7*76
$GAGSV,2,2,06,31,33,048,43,03,27,313,34,7*7C
$GAGSV,2,1,06,24,87,078,35,05,79,283,40,09,42,144,43,25,37,225,44,1*79
$GAGSV,2,2,06,31,33,048,36,03,27,313,38,1*74
$GBGSV,3,1,11,57,82,280,,36,74,003,43,22,57,248,47,45,38,264,45,1*70
$GBGSV,3,2,11,46,30,061,44,19,28,180,49,21,28,313,40,30,16,117,47,1*7B
$GBGSV,3,3,11,27,14,067,43,38,07,335,27,08,04,347,21,1*43
$GBGSV,3,1,09,36,74,003,30,22,57,248,44,45,38,264,41,46,30,061,35,5*7C
$GBGSV,3,2,09,21,28,313,26,19,28,180,46,30,16,117,39,27,14,067,36,5*72
$GBGSV,3,3,09,38,07,335,28,5*48
$GNGGA,123927.000,4005.097978,N,10513.208286,W,2,51,0.49,1583.226,M,-20.670,M,,*78
$GPGSV,3,1,12,09,79,268,43,04,51,145,45,07,47,297,37,48,39,209,46,1*6B
$GPGSV,3,2,12,27,38,087,40,08,37,135,45,16,34,048,44,30,17,282,40,1*6C
$GPGSV,3,3,12,20,11,314,39,14,03,227,51,26,03,051,21,03,01,185,13,1*60
$GPGSV,2,1,08,09,79,268,43,04,51,145,48,27,38,087,37,08,37,135,43,8*6F
$GPGSV,2,2,08,30,17,282,41,14,03,227,43,26,03,051,22,03,01,185,16,8*61
$GLGSV,3,1,09,80,60,289,42,70,54,308,28,69,47,179,49,79,45,032,43,1*78
$GLGSV,3,2,09,73,14,250,44,88,10,039,36,81,10,089,42,71,09,332,37,1*7E
$GLGSV,3,3,09,68,02,162,44,1*48
$GAGSV,2,1,06,24,87,078,39,05,79,283,41,09,42,144,45,25,37,225,46,7*76
$GAGSV,2,2,06,31,33,048,43,03,27,313,34,7*7C
$GAGSV,2,1,06,24,87,078,35,05,79,283,40,09,42,144,43,25,37,225,44,1*79
$GAGSV,2,2,06,31,33,048,36,03,27,313,38,1*74
$GBGSV,3,1,11,57,82,280,,36,74,003,43,22,57,248,47,45,38,264,45,1*70
$GBGSV,3,2,11,46,30,061,44,19,28,180,49,21,28,313,38,30,16,117,47,1*74
$GBGSV,3,3,11,27,14,067,43,38,07,335,29,08,04,347,21,1*4D
$GBGSV,3,1,09,36,74,003,30,22,57,248,44,45,38,264,41,46,30,061,35,5*7C
$GBGSV,3,2,09,21,28,313,28,19,28,180,46,30,16,117,39,27,14,067,36,5*7C
$GBGSV,3,3,09,38,07,335,28,5*48
$GNGGA,123932.000,4005.097984,N,10513.208358,W,2,51,0.49,1583.274,M,-20.670,M,,*7A
$GPGSV,3,1,12,09,79,268,43,04,51,145,46,07,47,297,37,48,39,209,46,1*68
$GPGSV,3,2,12,27,38,087,40,08,37,135,45,16,34,048,44,30,17,282,40,1*6C
$GPGSV,3,3,12,20,11,314,39,14,03,227,51,26,03,051,21,03,01,185,14,1*67
$GPGSV,2,1,08,09,79,268,43,04,51,145,48,27,38,087,37,08,37,135,43,8*6F
$GPGSV,2,2,08,30,17,282,41,14,03,227,43,26,03,051,22,03,01,185,14,8*63
$GLGSV,3,1,09,80,60,289,42,70,54,308,28,69,47,179,49,79,45,032,43,1*78
$GLGSV,3,2,09,73,14,250,45,88,10,039,36,81,10,089,42,71,09,332,37,1*7F
$GLGSV,3,3,09,68,02,162,44,1*48
$GAGSV,2,1,06,24,87,078,38,05,79,283,41,09,42,144,45,25,37,225,46,7*77
$GAGSV,2,2,06,31,33,048,43,03,27,313,34,7*7C
$GAGSV,2,1,06,24,87,078,35,05,79,283,40,09,42,144,43,25,37,225,44,1*79
$GAGSV,2,2,06,31,33,048,36,03,27,313,38,1*74
$GBGSV,3,1,11,57,82,280,,36,74,003,43,22,57,248,47,45,38,264,45,1*70
$GBGSV,3,2,11,46,30,061,44,19,28,180,49,21,28,313,37,30,16,117,46,1*7A
$GBGSV,3,3,11,27,14,067,43,38,07,335,29,08,04,347,21,1*4D
$GBGSV,3,1,09,36,74,003,30,22,57,248,44,45,38,264,41,46,30,061,36,5*7F
$GBGSV,3,2,09,21,28,313,28,19,28,180,46,30,16,117,39,27,14,067,36,5*7C
$GBGSV,3,3,09,38,07,335,28,5*48
$GNGGA,123937.000,4005.097978,N,10513.208400,W,2,51,0.49,1583.378,M,-20.670,M,,*7B
$GPGSV,3,1,12,09,79,268,43,04,51,145,46,07,47,297,37,48,39,209,46,1*68
$GPGSV,3,2,12,27,38,087,40,08,37,135,45,16,34,048,44,30,17,282,40,1*6C
$GPGSV,3,3,12,20,11,314,39,14,03,227,51,26,03,051,20,03,01,185,13,1*61
$GPGSV,2,1,07,09,79,268,43,04,51,145,48,27,38,087,37,08,37,135,43,8*60
$GPGSV,2,2,07,30,17,282,41,14,03,227,43,26,03,051,21,8*54
$GLGSV,3,1,09,80,61,292,42,70,54,308,28,69,47,179,48,79,43,034,43,1*72
$GLGSV,3,2,09,73,14,250,46,81,11,088,42,88,10,039,36,71,09,332,37,1*7C
$GLGSV,3,3,09,68,02,162,45,1*49
$GAGSV,2,1,06,24,87,078,38,05,79,283,41,09,42,144,45,25,37,225,46,7*77
$GAGSV,2,2,06,31,33,048,43,03,27,313,34,7*7C
$GAGSV,2,1,06,24,87,078,35,05,79,283,40,09,42,144,43,25,37,225,44,1*79
$GAGSV,2,2,06,31,33,048,36,03,27,313,37,1*7B
$GBGSV,3,1,11,57,82,280,,36,74,003,42,22,57,248,47,45,38,264,45,1*71
$GBGSV,3,2,11,46,30,061,44,19,28,180,49,21,28,313,35,30,16,117,46,1*78
$GBGSV,3,3,11,27,14,067,43,38,07,335,30,08,04,347,21,1*45
$GBGSV,3,1,09,36,74,003,30,22,57,248,44,45,38,264,41,46,30,061,36,5*7F
$GBGSV,3,2,09,21,28,313,28,19,28,180,46,30,16,117,39,27,14,067,36,5*7C
$GBGSV,3,3,09,38,07,335,28,5*48
$GNGGA,123942.000,4005.098026,N,10513.208376,W,2,51,0.49,1583.538,M,-20.670,M,,*70
$GPGSV,3,1,12,09,79,268,43,04,51,145,46,07,47,297,37,48,39,209,46,1*68
$GPGSV,3,2,12,27,38,087,40,08,37,135,45,16,34,048,44,30,17,282,40,1*6C
$GPGSV,3,3,12,20,11,314,39,14,03,227,51,26,03,051,20,03,01,185,13,1*61
$GPGSV,2,1,07,09,79,268,43,04,51,145,48,27,38,087,37,08,37,135,43,8*60
$GPGSV,2,2,07,30,17,282,41,14,03,227,44,26,03,051,21,8*53
$GLGSV,3,1,09,80,61,292,42,70,54,308,29,69,47,179,48,79,43,034,44,1*74
$GLGSV,3,2,09,73,14,250,46,81,11,088,41,88,10,038,36,71,09,332,37,1*7E
$GLGSV,3,3,09,68,02,162,47,1*4B
$GAGSV,2,1,06,24,87,078,38,05,79,283,41,09,42,144,45,25,37,225,46,7*77
$GAGSV,2,2,06,31,33,048,43,03,27,313,35,7*7D
$GAGSV,2,1,06,24,87,078,35,05,79,283,40,09,42,144,43,25,37,225,44,1*79
$GAGSV,2,2,06,31,33,048,36,03,27,313,37,1*7B
$GBGSV,3,1,11,57,82,280,,36,74,003,42,22,57,248,47,45,38,264,45,1*71
$GBGSV,3,2,11,46,30,061,43,19,28,180,49,21,28,313,35,30,16,117,45,1*7C
$GBGSV,3,3,11,27,14,067,43,38,07,335,32,08,04,347,22,1*44
$GBGSV,3,1,09,36,74,003,29,22,57,248,44,45,38,264,41,46,30,061,36,5*77
$GBGSV,3,2,09,21,28,313,28,19,28,180,46,30,16,117,39,27,14,067,36,5*7C
$GBGSV,3,3,09,38,07,335,28,5*48
$GNGGA,123947.000,4005.098086,N,10513.208388,W,2,51,0.49,1583.642,M,-20.670,M,,*70
$GPGSV,3,1,12,09,79,268,43,04,51,145,46,07,47,297,37,48,39,209,46,1*68
$GPGSV,3,2,12,27,38,087,40,08,37,135,45,16,34,048,44,30,17,282,40,1*6C
$GPGSV,3,3,12,20,11,314,39,14,03,227,51,26,03,051,21,03,01,185,13,1*60
$GPGSV,2,1,07,09,79,268,43,04,51,145,48,27,38,087,37,08,37,135,43,8*60
$GPGSV,2,2,07,30,17,282,41,14,03,227,44,26,03,051,20,8*52
$GLGSV,3,1,09,80,61,292,40,70,54,308,28,69,47,179,48,79,43,034,44,1*77
$GLGSV,3,2,09,73,14,250,45,81,11,088,41,88,10,038,36,71,09,332,37,1*7D
$GLGSV,3,3,09,68,02,162,47,1*4B
$GAGSV,2,1,06,24,87,078,38,05,79,283,40,09,42,144,45,25,37,225,46,7*76
$GAGSV,2,2,06,31,33,048,43,03,27,313,35,7*7D
$GAGSV,2,1,06,24,87,078,35,05,79,283,40,09,42,144,43,25,37,225,44,1*79
$GAGSV,2,2,06,31,33,048,37,03,27,313,36,1*7B
$GBGSV,3,1,11,57,82,280,,36,74,003,42,22,57,248,47,45,38,264,45,1*71
$GBGSV,3,2,11,46,30,061,43,19,28,180,49,21,28,313,35,30,16,117,45,1*7C
$GBGSV,3,3,11,27,14,067,43,38,07,335,32,08,04,347,21,1*47
$GBGSV,3,1,09,36,74,003,29,22,57,248,44,45,38,264,41,46,30,061,37,5*76
$GBGSV,3,2,09,21,28,313,28,19,28,180,46,30,16,117,40,27,14,067,36,5*72
$GBGSV,3,3,09,38,07,335,28,5*48
$GNGGA,123952.000,4005.098146,N,10513.208424,W,2,51,0.49,1583.834,M,-20.670,M,,*77
$GPGSV,3,1,12,09,79,268,43,04,51,145,46,07,47,297,37,48,39,209,46,1*68
$GPGSV,3,2,12,27,38,087,40,08,37,135,45,16,34,048,44,30,17,282,40,1*6C
$GPGSV,3,3,12,20,11,314,39,14,03,227,51,26,03,051,21,03,01,185,,1*62
$GPGSV,2,1,07,09,79,268,43,04,51,145,48,27,38,087,37,08,37,135,43,8*60
$GPGSV,2,2,07,30,17,282,41,14,03,227,44,26,03,051,19,8*58
$GLGSV,3,1,09,80,61,292,41,70,54,308,29,69,47,179,48,79,43,034,44,1*77
$GLGSV,3,2,09,73,14,250,45,81,11,088,41,88,10,038,37,71,09,332,35,1*7E
$GLGSV,3,3,09,68,02,162,47,1*4B
$GAGSV,2,1,06,24,87,078,38,05,79,283,40,09,42,144,45,25,37,225,46,7*76
$GAGSV,2,2,06,31,33,048,43,03,27,313,35,7*7D
$GAGSV,2,1,06,24,87,078,35,05,79,283,40,09,42,144,43,25,37,225,44,1*79
$GAGSV,2,2,06,31,33,048,37,03,27,313,36,1*7B
$GBGSV,3,1,11,57,82,280,,36,74,003,42,22,57,248,47,45,38,264,45,1*71
$GBGSV,3,2,11,46,30,061,43,19,28,180,49,21,28,313,35,30,16,117,45,1*7C
$GBGSV,3,3,11,27,14,067,43,38,07,335,32,08,04,347,21,1*47
$GBGSV,3,1,09,36,74,003,29,22,57,248,44,45,38,264,41,46,30,061,37,5*76
$GBGSV,3,2,09,21,28,313,29,19,28,180,46,30,16,117,40,27,14,067,36,5*73
$GBGSV,3,3,09,38,07,335,28,5*48
$GNGGA,123957.000,4005.098170,N,10513.208472,W,2,51,0.49,1584.081,M,-20.670,M,,*75
$GPGSV,3,1,12,09,79,268,43,04,51,145,46,07,47,297,37,48,39,209,46,1*68
$GPGSV,3,2,12,27,38,087,40,08,37,135,45,16,34,048,44,30,17,282,40,1*6C
$GPGSV,3,3,12,20,11,314,38,14,03,227,51,26,03,051,,03,01,185,,1*60
$GPGSV,2,1,07,09,79,268,43,04,51,145,48,27,38,087,37,08,37,135,43,8*60
$GPGSV,2,2,07,30,17,282,41,14,03,227,45,26,03,051,19,8*59
$GLGSV,3,1,09,80,61,292,41,70,54,308,29,69,47,179,48,79,43,034,44,1*77
$GLGSV,3,2,09,73,14,250,46,81,11,088,41,88,10,038,38,71,09,332,33,1*74
$GLGSV,3,3,09,68,02,162,49,1*45
$GAGSV,2,1,06,24,87,078,38,05,79,283,40,09,42,144,45,25,37,225,46,7*76
$GAGSV,2,2,06,31,33,048,43,03,27,313,35,7*7D
$GAGSV,2,1,06,24,87,078,35,05,79,283,40,09,42,144,44,25,37,225,44,1*7E
$GAGSV,2,2,06,31,33,048,37,03,27,313,36,1*7B
$GBGSV,3,1,11,57,82,280,,36,74,003,42,22,57,248,47,45,38,264,45,1*71
$GBGSV,3,2,11,46,30,061,43,19,28,180,49,21,28,313,37,30,16,117,45,1*7E
$GBGSV,3,3,11,27,14,067,43,38,07,335,32,08,04,347,23,1*45
$GBGSV,3,1,09,36,74,003,28,22,57,248,44,45,38,264,41,46,30,061,37,5*77
$GBGSV,3,2,09,21,28,313,31,19,28,180,45,30,16,117,40,27,14,067,36,5*79
$GBGSV,3,3,09,38,07,335,29,5*49
$GNGGA,124002.000,4005.098224,N,10513.208460,W,2,51,0.49,1584.391,M,-20.670,M,,*78
$GPGSV,3,1,12,09,79,268,43,04,51,145,46,07,47,297,37,48,39,209,46,1*68
$GPGSV,3,2,12,27,38,087,40,08,37,135,45,16,34,048,44,30,17,282,40,1*6C
$GPGSV,3,3,12,20,11,314,38,14,03,227,51,26,03,051,,03,01,185,,1*60
$GPGSV,2,1,07,09,79,268,43,04,51,145,48,27,38,087,37,08,37,135,43,8*60
$GPGSV,2,2,07,30,17,282,41,14,03,227,45,26,03,051,19,8*59
$GLGSV,3,1,09,80,61,292,43,70,54,308,29,69,47,179,48,79,43,034,44,1*75
$GLGSV,3,2,09,73,14,250,47,81,11,088,42,88,10,038,38,71,09,332,32,1*77
$GLGSV,3,3,09,68,02,162,49,1*45
$GAGSV,2,1,06,24,87,078,38,05,79,283,40,09,42,144,45,25,37,225,46,7*76
$GAGSV,2,2,06,31,33,048,43,03,27,313,35,7*7D
$GAGSV,2,1,06,24,87,078,35,05,79,283,40,09,42,144,44,25,37,225,44,1*7E
$GAGSV,2,2,06,31,33,048,37,03,27,313,34,1*79
$GBGSV,3,1,11,57,82,280,,36,74,003,42,22,57,248,47,45,38,264,45,1*71
$GBGSV,3,2,11,46,30,061,42,21,28,313,38,19,27,180,49,30,16,117,45,1*7F
$GBGSV,3,3,11,27,14,067,44,38,07,335,31,08,04,347,23,1*41
$GBGSV,3,1,09,36,74,003,28,22,57,248,44,45,38,264,41,46,30,061,37,5*77
$GBGSV,3,2,09,21,28,313,31,19,27,180,45,30,16,117,40,27,14,067,36,5*76
$GBGSV,3,3,09,38,07,335,28,5*48
$GNGGA,124007.000,4005.098314,N,10513.208412,W,2,51,0.49,1584.562,M,-20.670,M,,*70
$GPGSV,3,1,12,09,79,268,43,04,51,145,46,07,47,297,37,48,39,209,46,1*68
$GPGSV,3,2,12,27,38,087,40,08,37,135,45,16,34,048,44,30,17,282,41,1*6D
$GPGSV,3,3,12,20,11,314,37,14,03,227,51,26,03,051,,03,01,185,,1*6F
$GPGSV,2,1,07,09,79,268,43,04,51,145,48,27,38,087,37,08,37,135,44,8*67
$GPGSV,2,2,07,30,17,282,41,14,03,227,45,26,03,051,19,8*59
$GLGSV,3,1,09,80,61,292,43,70,54,308,29,69,47,179,48,79,43,034,44,1*75
$GLGSV,3,2,09,73,14,250,46,81,11,088,42,88,10,038,37,71,09,332,30,1*7B
$GLGSV,3,3,09,68,02,162,49,1*45
$GAGSV,2,1,06,24,87,078,38,05,79,283,40,09,42,144,45,25,37,225,46,7*76
$GAGSV,2,2,06,31,33,048,43,03,27,313,35,7*7D
$GAGSV,2,1,06,24,87,078,35,05,79,283,40,09,42,144,44,25,37,225,44,1*7E
$GAGSV,2,2,06,31,33,048,37,03,27,313,34,1*79
$GBGSV,3,1,11,57,82,280,,36,74,003,42,22,57,246,47,45,38,264,45,1*7F
$GBGSV,3,2,11,46,30,061,42,21,28,312,38,19,27,180,49,30,16,117,45,1*7E
$GBGSV,3,3,11,27,14,067,44,38,07,335,30,08,04,347,23,1*40
$GBGSV,3,1,09,36,74,003,28,22,57,246,44,45,38,264,41,46,30,061,37,5*79
$GBGSV,3,2,09,21,28,312,33,19,27,180,45,30,16,117,40,27,14,067,36,5*75
$GBGSV,3,3,09,38,07,335,28,5*48
$GNGGA,124012.000,4005.098350,N,10513.208400,W,2,51,0.49,1584.659,M,-20.670,M,,*7C
$GPGSV,3,1,12,09,79,268,43,04,51,145,46,07,47,297,37,48,39,209,46,1*68
$GPGSV,3,2,12,27,38,087,40,08,37,135,45,16,34,048,44,30,17,282,41,1*6D
$GPGSV,3,3,12,20,11,314,37,14,03,227,51,26,03,051,,03,01,185,,1*6F
$GPGSV,2,1,07,09,79,268,43,04,51,145,48,27,38,087,37,08,37,135,44,8*67
$GPGSV,2,2,07,30,17,282,41,14,03,227,46,26,03,051,18,8*5B
$GLGSV,3,1,09,80,61,292,43,70,54,308,29,69,47,179,48,79,43,034,44,1*75
$GLGSV,3,2,09,73,14,250,46,81,11,088,40,88,10,038,37,71,09,332,28,1*70
$GLGSV,3,3,09,68,02,162,49,1*45
$GAGSV,2,1,06,24,87,078,39,05,79,283,40,09,42,144,45,25,37,225,46,7*77
$GAGSV,2,2,06,31,33,048,43,03,27,313,35,7*7D
$GAGSV,2,1,06,24,87,078,35,05,79,283,40,09,42,144,44,25,37,225,44,1*7E
$GAGSV,2,2,06,31,33,048,37,03,27,313,33,1*7E
$GBGSV,3,1,11,57,82,280,,36,74,003,42,22,57,246,47,45,38,264,45,1*7F
$GBGSV,3,2,11,46,30,061,42,21,28,312,38,19,27,180,49,30,17,116,45,1*7E
$GBGSV,3,3,11,27,14,066,44,38,07,335,29,08,04,347,24,1*4E
$GBGSV,3,1,09,36,74,003,28,22,57,246,44,45,38,264,41,46,30,061,37,5*79
$GBGSV,3,2,09,21,28,312,33,19,27,180,45,30,17,116,40,27,14,066,36,5*74
$GBGSV,3,3,09,38,07,335,28,5*48
$GNGGA,124017.000,4005.098362,N,10513.208406,W,2,51,0.49,1584.589,M,-20.669,M,,*78
$GPGSV,3,1,12,09,79,268,43,04,51,145,46,07,47,297,37,48,39,209,46,1*68
$GPGSV,3,2,12,27,38,087,40,08,37,135,45,16,34,048,44,30,17,282,41,1*6D
$GPGSV,3,3,12,20,11,314,35,14,03,227,51,26,03,051,,03,01,185,,1*6D
$GPGSV,2,1,07,09,79,268,43,04,51,145,48,27,38,087,37,08,37,135,44,8*67
$GPGSV,2,2,07,30,17,282,41,14,03,227,47,26,03,051,18,8*5A
$GLGSV,3,1,09,80,61,292,42,70,54,308,29,69,47,179,48,79,43,034,44,1*74
$GLGSV,3,2,09,73,14,250,46,81,11,088,40,88,10,038,37,71,09,332,27,1*7F
$GLGSV,3,3,09,68,02,162,49,1*45
$GAGSV,2,1,06,24,87,078,39,05,79,283,40,09,42,144,45,25,37,225,46,7*77
$GAGSV,2,2,06,31,33,048,43,03,27,313,34,7*7C
$GAGSV,2,1,06,24,87,078,35,05,79,283,40,09,42,144,44,25,37,225,44,1*7E
$GAGSV,2,2,06,31,33,048,37,03,27,313,33,1*7E
$GBGSV,3,1,11,57,82,280,,36,74,003,42,22,57,246,47,45,38,264,45,1*7F
$GBGSV,3,2,11,46,30,061,41,21,28,312,38,19,27,180,49,30,17,116,45,1*7D
$GBGSV,3,3,11,27,14,066,44,38,07,335,27,08,04,347,24,1*40
$GBGSV,3,1,09,36,74,003,28,22,57,246,44,45,38,264,41,46,30,061,38,5*76
$GBGSV,3,2,09,21,28,312,33,19,27,180,45,30,17,116,40,27,14,066,36,5*74
$GBGSV,3,3,09,38,07,335,29,5*49
$GNGGA,124022.000,4005.098344,N,10513.208454,W,2,51,0.49,1584.559,M,-20.670,M,,*78
$GPGSV,3,1,12,09,79,268,44,04,51,145,46,07,47,297,37,48,39,209,46,1*6F
$GPGSV,3,2,12,27,38,087,40,08,37,135,45,16,34,048,44,30,17,282,41,1*6D
$GPGSV,3,3,12,20,11,314,35,14,03,227,51,26,03,051,,03,01,185,,1*6D
$GPGSV,2,1,07,09,79,268,43,04,51,145,48,27,38,087,37,08,37,135,44,8*67
$GPGSV,2,2,07,30,17,282,41,14,03,227,47,26,03,051,18,8*5A
$GLGSV,3,1,09,80,61,292,41,70,54,308,28,69,47,179,48,79,43,034,44,1*76
$GLGSV,3,2,09,73,14,250,46,81,11,088,40,88,10,038,36,71,09,332,26,1*7F
$GLGSV,3,3,09,68,02,162,49,1*45
$GAGSV,2,1,06,24,87,078,39,05,79,283,40,09,42,144,45,25,37,225,46,7*77
$GAGSV,2,2,06,31,33,048,43,03,27,313,34,7*7C
$GAGSV,2,1,06,24,87,078,35,05,79,283,41,09,42,144,44,25,37,225,44,1*7F
$GAGSV,2,2,06,31,33,048,38,03,27,313,33,1*71
$GBGSV,3,1,11,57,82,280,,36,74,006,42,22,57,246,47,45,38,264,45,1*7A
$GBGSV,3,2,11,46,30,061,41,21,28,312,38,19,27,180,49,30,17,116,45,1*7D
$GBGSV,3,3,11,27,14,066,43,38,07,335,27,08,04,347,24,1*47
$GBGSV,3,1,09,36,74,006,27,22,57,246,44,45,38,264,41,46,30,061,38,5*7C
$GBGSV,3,2,09,21,28,312,33,19,27,180,44,30,17,116,41,27,14,066,36,5*74
$GBGSV,3,3,09,38,07,335,29,5*49
$GNGGA,124027.000,4005.098326,N,10513.208478,W,2,51,0.49,1584.722,M,-20.670,M,,*79
$GPGSV,3,1,12,09,79,268,44,04,51,145,46,07,47,297,37,48,39,209,46,1*6F
$GPGSV,3,2,12,27,38,087,39,08,37,135,45,16,34,048,44,30,17,282,41,1*63
$GPGSV,3,3,12,20,11,314,35,14,03,227,51,26,03,051,,03,01,185,,1*6D
$GPGSV,2,1,07,09,79,268,43,04,51,145,48,27,38,087,37,08,37,135,44,8*67
$GPGSV,2,2,07,30,17,282,41,14,03,227,47,26,03,051,19,8*5B
$GLGSV,3,1,09,80,61,292,41,70,54,308,28,69,47,179,48,79,43,034,44,1*76
$GLGSV,3,2,09,73,14,250,46,81,11,088,40,88,10,038,36,71,09,332,26,1*7F
$GLGSV,3,3,09,68,02,162,50,1*4D
$GAGSV,2,1,06,24,87,078,39,05,79,283,40,09,42,144,45,25,37,225,46,7*77
$GAGSV,2,2,06,31,33,048,43,03,27,313,35,7*7D
$GAGSV,2,1,06,24,87,078,35,05,79,283,41,09,42,144,44,25,37,225,44,1*7F
$GAGSV,2,2,06,31,33,048,38,03,27,313,33,1*71
$GBGSV,3,1,11,57,82,280,,36,74,006,42,22,57,246,47,45,39,265,45,1*7A
$GBGSV,3,2,11,46,30,061,41,21,28,312,38,19,27,180,49,30,17,116,44,1*7C
$GBGSV,3,3,11,27,14,066,43,38,07,335,27,08,04,347,24,1*47
$GBGSV,3,1,09,36,74,006,27,22,57,246,44,45,39,265,41,46,30,061,38,5*7C
$GBGSV,3,2,09,21,28,312,34,19,27,180,44,30,17,116,41,27,14,066,36,5*73
$GBGSV,3,3,09,38,07,335,29,5*49
$GNGGA,124032.000,4005.098344,N,10513.208508,W,2,51,0.49,1584.964,M,-20.670,M,,*73
$GPGSV,3,1,12,09,79,268,44,04,51,145,46,07,47,297,37,48,39,209,46,1*6F
$GPGSV,3,2,12,27,38,087,39,08,37,135,45,16,34,048,44,30,17,282,42,1*60
$GPGSV,3,3,12,20,11,314,36,14,03,227,49,26,03,051,,03,01,185,,1*67
$GPGSV,2,1,07,09,79,268,43,04,51,145,47,27,38,087,37,08,37,135,44,8*68
$GPGSV,2,2,07,30,17,282,41,14,03,227,48,26,03,051,20,8*5E
$GLGSV,3,1,09,80,61,292,42,70,54,308,29,69,47,179,48,79,43,034,44,1*74
$GLGSV,3,2,09,73,14,250,47,81,11,088,40,88,10,038,36,71,09,332,26,1*7E
$GLGSV,3,3,09,68,02,162,50,1*4D
$GAGSV,2,1,06,24,87,078,39,05,79,283,40,09,42,144,45,25,37,225,46,7*77
$GAGSV,2,2,06,31,33,048,42,03,27,313,35,7*7C
$GAGSV,2,1,06,24,87,078,35,05,79,283,41,09,42,144,45,25,37,225,44,1*7E
$GAGSV,2,2,06,31,33,048,38,03,27,313,33,1*71
$GBGSV,3,1,11,57,82,280,,36,74,006,42,22,57,246,47,45,39,265,45,1*7A
$GBGSV,3,2,11,46,29,061,41,21,28,312,38,19,27,180,49,30,17,116,44,1*74
$GBGSV,3,3,11,27,14,066,43,38,07,335,26,08,04,347,24,1*46
$GBGSV,3,1,09,36,74,006,27,22,57,246,44,45,39,265,41,46,29,061,38,5*74
$GBGSV,3,2,09,21,28,312,34,19,27,180,44,30,17,116,41,27,14,066,36,5*73
$GBGSV,3,3,09,38,07,335,29,5*49
$GNGGA,124037.000,4005.098380,N,10513.208556,W,2,51,0.49,1585.154,M,-20.670,M,,*7F
$GPGSV,3,1,12,09,79,268,44,04,51,145,46,07,47,297,37,48,39,209,46,1*6F
$GPGSV,3,2,12,27,38,087,39,08,37,135,45,16,34,048,44,30,17,282,42,1*60
$GPGSV,3,3,12,20,11,314,36,14,03,227,49,26,03,051,,03,01,185,,1*67
$GPGSV,2,1,07,09,79,268,43,04,51,145,47,27,38,087,37,08,37,135,44,8*68
$GPGSV,2,2,07,30,17,282,41,14,03,227,48,26,03,051,21,8*5F
$GLGSV,3,1,09,80,61,292,42,70,54,308,30,69,47,179,48,79,43,034,44,1*7C
$GLGSV,3,2,09,73,14,250,47,81,11,088,40,88,10,038,34,71,09,332,26,1*7C
$GLGSV,3,3,09,68,02,162,50,1*4D
$GAGSV,2,1,06,24,87,078,39,05,79,283,40,09,42,144,45,25,37,225,46,7*77
$GAGSV,2,2,06,31,33,048,42,03,27,313,36,7*7F
$GAGSV,2,1,06,24,87,078,35,05,79,283,41,09,42,144,45,25,37,225,44,1*7E
$GAGSV,2,2,06,31,33,048,39,03,27,313,33,1*70
