$GNGGA,063637.000,4005.098710,N,10513.208448,W,2,56,0.45,1585.995,M,-20.670,M,,*76
$GPGSV,4,1,13,32,66,033,43,28,58,166,46,10,51,101,45,21,47,285,40,1*6E
$GPGSV,4,2,13,48,39,209,46,02,36,303,34,31,30,190,47,23,16,113,46,1*62
$GPGSV,4,3,13,25,14,092,40,19,08,062,,12,08,062,42,08,03,246,49,1*67
$GPGSV,4,4,13,03,02,301,,1*55
$GPGSV,2,1,06,32,66,033,28,28,58,166,45,10,51,101,44,23,16,113,35,8*62
$GPGSV,2,2,06,25,14,092,45,08,03,246,39,8*62
$GLGSV,3,1,09,67,48,311,41,66,47,039,44,82,46,272,39,76,37,084,39,1*77
$GLGSV,3,2,09,81,28,212,45,77,25,138,35,75,12,026,41,68,09,276,44,1*7C
$GLGSV,3,3,09,65,08,076,37,1*4F
$GAGSV,3,1,09,04,73,299,35,11,60,271,39,10,58,211,44,12,40,182,40,7*72
$GAGSV,3,2,09,19,36,055,37,09,26,256,45,36,22,319,38,21,13,078,40,7*70
$GAGSV,3,3,09,27,02,031,14,7*4A
$GAGSV,2,1,08,04,73,299,38,11,60,271,39,10,58,211,45,12,40,182,45,1*7D
$GAGSV,2,2,08,19,36,055,32,09,26,256,30,36,22,319,38,21,13,078,38,1*7E
$GBGSV,3,1,12,32,59,057,45,20,49,302,41,23,38,081,46,37,32,148,45,1*7A
$GBGSV,3,2,12,29,28,276,46,30,20,217,51,41,11,088,46,25,09,037,39,1*72
$GBGSV,3,3,12,19,05,281,40,40,03,321,18,63,,,27,58,,,26,1*70
$GBGSV,3,1,09,32,59,057,31,20,49,302,41,23,38,081,42,37,32,148,43,5*75
$GBGSV,3,2,09,29,28,276,37,30,20,217,45,41,11,088,40,25,09,037,23,5*72
$GBGSV,3,3,09,19,05,281,39,5*47
$PAIR001,062,0*3F
$PAIR001,062,0*3F
$PAIR001,062,0*3F
$PAIR001,062,0*3F
$PAIR001,062,0*3F
$PAIR001,062,0*3F
$PAIR001,062,0*3F
$PAIR001,062,0*3F
$PAIR001,062,0*3F
$GNGGA,063642.000,4005.098668,N,10513.208448,W,2,56,0.45,1586.129,M,-20.670,M,,*76
$GPGSV,4,1,13,32,66,033,43,28,58,166,46,10,51,101,45,21,47,285,40,1*6E
$GPGSV,4,2,13,48,39,209,46,02,36,303,36,31,30,190,47,23,15,114,46,1*64
$GPGSV,4,3,13,25,14,091,40,19,08,062,,12,08,062,42,08,03,246,49,1*64
$GPGSV,4,4,13,03,02,301,,1*55
$GPGSV,2,1,06,32,66,033,27,28,58,166,45,10,51,101,43,23,15,114,35,8*6E
$GPGSV,2,2,06,25,14,091,45,08,03,246,39,8*61
$GLGSV,3,1,09,67,48,311,41,66,47,039,44,82,46,272,39,76,37,084,39,1*77
$GLGSV,3,2,09,81,28,212,45,77,25,138,35,75,12,026,40,68,09,276,44,1*7D
$GLGSV,3,3,09,65,08,076,36,1*4E
$GAGSV,3,1,09,04,73,299,35,11,60,271,39,10,58,211,44,12,40,182,40,7*72
$GAGSV,3,2,09,19,36,055,37,09,26,256,45,36,22,319,38,21,13,078,41,7*71
$GAGSV,3,3,09,27,02,031,13,7*4D
$GAGSV,2,1,08,04,73,299,38,11,60,271,39,10,58,211,45,12,40,182,45,1*7D
$GAGSV,2,2,08,19,36,055,32,09,26,256,30,36,22,319,38,21,13,078,38,1*7E
$GBGSV,3,1,11,32,59,057,45,20,49,302,41,23,38,081,46,37,32,148,45,1*79
$GBGSV,3,2,11,29,28,276,46,30,20,217,51,41,11,088,46,25,09,037,39,1*71
$GBGSV,3,3,11,19,05,281,40,40,03,321,17,58,,,26,1*7C
$GBGSV,3,1,09,32,59,057,31,20,49,302,40,23,38,081,42,37,32,148,43,5*74
$GBGSV,3,2,09,29,28,276,37,30,20,217,45,41,11,088,40,25,09,037,24,5*75
$GBGSV,3,3,09,19,05,281,39,5*47
$GNGGA,063647.000,4005.098656,N,10513.208580,W,2,55,0.45,1585.959,M,-20.670,M,,*74
$GPGSV,4,1,13,32,65,034,43,28,59,165,46,10,51,101,45,21,47,285,40,1*68
$GPGSV,4,2,13,48,39,209,46,02,36,303,36,31,32,190,47,23,15,114,46,1*66
$GPGSV,4,3,13,25,14,091,40,19,08,062,,12,08,062,42,08,03,246,48,1*65
$GPGSV,4,4,13,03,02,301,,1*55
$GPGSV,2,1,06,32,65,034,27,28,59,165,45,10,51,101,43,23,15,114,35,8*68
$GPGSV,2,2,06,25,14,091,45,08,03,246,37,8*6F
$GLGSV,3,1,09,67,48,311,42,66,47,039,44,82,46,272,39,76,37,084,39,1*74
$GLGSV,3,2,09,81,28,212,45,77,25,138,35,75,12,026,40,68,09,276,44,1*7D
$GLGSV,3,3,09,65,08,076,33,1*4B
$GAGSV,3,1,09,04,73,299,36,11,60,271,39,10,58,211,44,12,40,182,40,7*71
$GAGSV,3,2,09,19,36,055,37,09,26,256,45,36,22,319,38,21,13,078,41,7*71
$GAGSV,3,3,09,27,02,031,08,7*47
$GAGSV,2,1,08,04,73,299,38,11,60,271,39,10,58,211,45,12,40,182,45,1*7D
$GAGSV,2,2,08,19,36,055,32,09,26,256,29,36,22,319,36,21,13,078,38,1*78
$GBGSV,3,1,11,32,59,057,45,20,49,302,41,23,38,081,46,37,32,148,45,1*79
$GBGSV,3,2,11,29,28,276,46,30,20,217,51,41,11,088,46,25,09,037,38,1*70
$GBGSV,3,3,11,19,05,281,41,40,03,321,16,58,,,27,1*7D
$GBGSV,3,1,09,32,59,057,31,20,49,302,40,23,38,081,42,37,32,148,43,5*74
$GBGSV,3,2,09,29,28,276,37,30,20,217,45,41,11,088,40,25,09,037,23,5*72
$GBGSV,3,3,09,19,05,281,39,5*47
$GNGGA,063652.000,4005.098650,N,10513.208712,W,2,56,0.45,1585.631,M,-20.670,M,,*7D
$GPGSV,4,1,13,32,65,034,43,28,59,165,46,10,51,101,45,21,47,285,40,1*68
$GPGSV,4,2,13,48,39,209,46,02,36,303,36,31,32,190,47,23,15,114,46,1*66
$GPGSV,4,3,13,25,14,091,40,19,08,062,,12,08,062,41,08,03,246,47,1*69
$GPGSV,4,4,13,03,02,301,,1*55
$GPGSV,2,1,06,32,65,034,27,28,59,165,45,10,51,101,43,23,15,114,35,8*68
$GPGSV,2,2,06,25,14,091,45,08,03,246,36,8*6E
$GLGSV,3,1,09,67,48,311,42,66,47,039,44,82,46,272,40,76,37,084,40,1*74
$GLGSV,3,2,09,81,28,212,45,77,25,138,35,75,12,026,40,68,09,276,44,1*7D
$GLGSV,3,3,09,65,08,076,33,1*4B
$GAGSV,3,1,09,04,73,299,36,11,60,271,39,10,58,211,44,12,40,182,40,7*71
$GAGSV,3,2,09,19,36,055,37,09,26,256,45,36,22,319,38,21,13,078,41,7*71
$GAGSV,3,3,09,27,02,031,07,7*48
$GAGSV,2,1,08,04,73,299,38,11,60,271,39,10,58,211,45,12,40,182,45,1*7D
$GAGSV,2,2,08,19,36,055,32,09,26,256,29,36,22,319,36,21,13,078,38,1*78
$GBGSV,3,1,11,32,59,057,45,20,49,302,41,23,38,081,46,37,32,148,45,1*79
$GBGSV,3,2,11,29,28,276,46,30,20,217,51,41,11,088,46,25,09,037,38,1*70
$GBGSV,3,3,11,19,05,281,42,40,03,321,16,58,,,27,1*7E
$GBGSV,3,1,09,32,59,057,31,20,49,302,40,23,38,081,42,37,32,148,43,5*74
$GBGSV,3,2,09,29,28,276,37,30,20,217,45,41,11,088,40,25,09,037,24,5*75
$GBGSV,3,3,09,19,05,281,39,5*47
$GNGGA,063657.000,4005.098650,N,10513.208742,W,2,55,0.45,1585.396,M,-20.670,M,,*76
$GPGSV,4,1,13,32,65,034,43,28,59,165,46,10,51,101,45,21,47,285,40,1*68
$GPGSV,4,2,13,48,39,209,46,02,36,303,36,31,32,190,47,23,15,114,46,1*66
$GPGSV,4,3,13,25,14,091,39,19,08,062,,12,08,062,41,08,03,246,46,1*66
$GPGSV,4,4,13,03,02,301,,1*55
$GPGSV,2,1,06,32,65,034,28,28,59,165,45,10,51,101,43,23,15,114,35,8*67
$GPGSV,2,2,06,25,14,091,45,08,03,246,36,8*6E
$GLGSV,3,1,09,67,48,311,42,66,47,039,43,82,46,272,41,76,37,084,37,1*72
$GLGSV,3,2,09,81,28,212,45,77,25,138,34,75,12,026,40,68,09,276,44,1*7C
$GLGSV,3,3,09,65,08,076,34,1*4C
$GAGSV,3,1,09,04,73,299,36,11,60,271,39,10,58,211,44,12,40,182,39,7*7F
$GAGSV,3,2,09,19,36,055,37,09,26,256,45,36,22,319,38,21,13,078,41,7*71
$GAGSV,3,3,09,27,02,031,06,7*49
$GAGSV,2,1,08,04,73,299,38,11,60,271,39,10,58,211,45,12,40,182,45,1*7D
$GAGSV,2,2,08,19,36,055,32,09,26,256,29,36,22,319,38,21,13,078,38,1*76
$GBGSV,3,1,11,32,59,057,45,20,49,302,41,23,38,081,46,37,32,148,45,1*79
$GBGSV,3,2,11,29,28,276,46,30,20,217,51,41,11,088,46,25,09,037,37,1*7F
$GBGSV,3,3,11,19,05,281,42,40,03,321,16,58,,,26,1*7F
$GBGSV,3,1,09,32,59,057,30,20,49,302,40,23,38,081,42,37,32,148,43,5*75
$GBGSV,3,2,09,29,28,276,37,30,20,217,45,41,11,088,41,25,09,037,25,5*75
$GBGSV,3,3,09,19,05,281,39,5*47
$GNGGA,063702.000,4005.098644,N,10513.208736,W,2,55,0.45,1585.112,M,-20.670,M,,*7F
$GPGSV,4,1,13,32,65,034,43,28,59,165,46,10,51,101,45,21,47,285,40,1*68
$GPGSV,4,2,13,48,39,209,46,02,36,303,35,31,32,190,47,23,15,114,46,1*65
$GPGSV,4,3,13,25,14,091,39,19,08,062,,12,08,062,41,08,03,246,45,1*65
$GPGSV,4,4,13,03,02,301,,1*55
$GPGSV,2,1,06,32,65,034,28,28,59,165,45,10,51,101,43,23,15,114,35,8*67
$GPGSV,2,2,06,25,14,091,45,08,03,246,34,8*6C
$GLGSV,3,1,09,67,48,311,42,66,47,039,42,82,46,272,41,76,37,084,38,1*7C
$GLGSV,3,2,09,81,28,212,45,77,25,138,34,75,12,026,40,68,09,276,44,1*7C
$GLGSV,3,3,09,65,08,076,36,1*4E
$GAGSV,3,1,09,04,73,302,36,11,60,271,39,10,58,211,44,12,40,182,39,7*7C
$GAGSV,3,2,09,19,36,055,36,09,26,256,45,36,22,319,38,21,13,078,41,7*70
$GAGSV,3,3,09,27,02,031,07,7*48
$GAGSV,3,1,09,04,73,302,38,11,60,271,39,10,58,211,45,12,40,182,45,1*7E
$GAGSV,3,2,09,19,36,055,32,09,26,256,29,36,22,319,39,21,13,078,38,1*77
$GAGSV,3,3,09,27,02,031,15,1*4D
$GBGSV,3,1,11,32,59,057,45,20,49,302,41,23,38,081,46,37,32,148,45,1*79
$GBGSV,3,2,11,29,28,276,47,30,20,217,51,41,11,088,46,25,09,037,37,1*7E
$GBGSV,3,3,11,19,05,281,42,40,03,321,16,58,,,26,1*7F
$GBGSV,3,1,09,32,59,057,31,20,49,302,40,23,38,081,42,37,32,148,43,5*74
$GBGSV,3,2,09,29,28,276,37,30,20,217,45,41,11,088,41,25,09,037,25,5*75
$GBGSV,3,3,09,19,05,281,39,5*47
$GNGGA,063707.000,4005.098524,N,10513.208688,W,2,56,0.45,1584.747,M,-20.670,M,,*7F
$GPGSV,4,1,13,32,65,034,43,28,59,165,46,10,51,101,45,21,47,285,41,1*69
$GPGSV,4,2,13,48,39,209,46,02,36,303,34,31,32,190,47,23,15,114,46,1*64
$GPGSV,4,3,13,25,14,091,39,19,08,062,,12,08,062,41,08,03,246,44,1*64
$GPGSV,4,4,13,03,02,301,,1*55
$GPGSV,2,1,06,32,65,034,28,28,59,165,45,10,51,101,43,23,15,114,36,8*64
$GPGSV,2,2,06,25,14,091,45,08,03,246,32,8*6A
$GLGSV,3,1,09,67,48,311,42,66,47,039,43,82,46,272,41,76,37,084,38,1*7D
$GLGSV,3,2,09,81,28,212,45,77,25,138,34,75,12,026,41,68,09,276,44,1*7D
$GLGSV,3,3,09,65,08,076,37,1*4F
$GAGSV,3,1,09,04,73,302,36,11,60,269,39,10,57,210,44,12,38,182,39,7*74
$GAGSV,3,2,09,19,36,055,36,09,27,256,45,36,22,319,38,21,13,078,41,7*71
$GAGSV,3,3,09,27,02,031,07,7*48
$GAGSV,2,1,08,04,73,302,38,11,60,269,39,10,57,210,45,12,38,182,45,1*76
$GAGSV,2,2,08,19,36,055,32,09,27,256,30,21,13,078,38,27,02,031,15,1*7B
$GBGSV,3,1,11,32,59,057,45,20,49,302,40,23,38,081,46,37,32,148,45,1*78
$GBGSV,3,2,11,29,28,276,47,30,20,217,51,41,11,088,46,25,09,037,36,1*7F
$GBGSV,3,3,11,19,05,281,42,40,03,321,16,58,,,27,1*7E
$GBGSV,3,1,09,32,59,057,31,20,49,302,40,23,38,081,42,37,32,148,43,5*74
$GBGSV,3,2,09,29,28,276,37,30,20,217,45,41,11,088,41,25,09,037,26,5*76
$GBGSV,3,3,09,19,05,281,39,5*47
$GNGGA,063712.000,4005.098452,N,10513.208622,W,2,55,0.45,1584.607,M,-20.670,M,,*7D
$GPGSV,4,1,13,32,65,034,43,28,59,165,46,10,51,101,45,21,47,285,41,1*69
$GPGSV,4,2,13,48,39,209,46,02,36,303,34,31,32,190,47,23,15,114,46,1*64
$GPGSV,4,3,13,25,14,091,39,19,08,062,,12,08,062,41,08,03,246,43,1*63
$GPGSV,4,4,13,03,02,301,,1*55
$GPGSV,2,1,06,32,65,034,29,28,59,165,45,10,51,101,43,23,15,114,36,8*65
$GPGSV,2,2,06,25,14,091,45,08,03,246,32,8*6A
$GLGSV,3,1,09,67,48,311,42,66,47,039,43,82,46,272,41,76,37,084,38,1*7D
$GLGSV,3,2,09,81,28,212,45,77,25,138,34,75,12,026,42,68,09,276,44,1*7E
$GLGSV,3,3,09,65,08,076,37,1*4F
$GAGSV,3,1,09,04,73,302,35,11,60,269,39,10,57,210,44,12,38,182,39,7*77
$GAGSV,3,2,09,19,36,055,35,09,27,256,45,36,22,319,38,21,13,078,41,7*72
$GAGSV,3,3,09,27,02,031,07,7*48
$GAGSV,2,1,07,04,73,302,38,11,60,269,39,10,57,210,45,12,38,182,45,1*79
$GAGSV,2,2,07,19,36,055,32,09,27,256,30,21,13,078,38,1*45
$GBGSV,3,1,11,32,59,057,45,20,49,302,40,23,38,081,47,37,32,148,45,1*79
$GBGSV,3,2,11,29,28,276,47,30,20,217,51,41,11,088,46,25,09,037,36,1*7F
$GBGSV,3,3,11,19,05,281,42,40,03,321,17,58,,,26,1*7E
$GBGSV,3,1,09,32,59,057,31,20,49,302,40,23,38,081,42,37,32,148,43,5*74
$GBGSV,3,2,09,29,28,276,37,30,20,217,45,41,11,088,41,25,09,037,26,5*76
$GBGSV,3,3,09,19,05,281,39,5*47
$GNGGA,063717.000,4005.098458,N,10513.208688,W,2,57,0.45,1584.617,M,-20.670,M,,*71
$GPGSV,4,1,13,32,65,034,43,28,59,165,46,10,51,101,45,21,47,285,41,1*69
$GPGSV,4,2,13,48,39,209,46,02,36,303,33,31,32,190,47,23,15,114,46,1*63
$GPGSV,4,3,13,25,14,091,38,19,08,062,,12,08,062,41,08,03,246,41,1*60
$GPGSV,4,4,13,03,02,301,,1*55
$GPGSV,2,1,06,32,65,034,29,28,59,165,45,10,51,101,43,23,15,114,37,8*64
$GPGSV,2,2,06,25,14,091,46,08,03,246,32,8*69
$GLGSV,3,1,09,67,48,311,42,66,47,039,43,82,46,272,41,76,37,084,38,1*7D
$GLGSV,3,2,09,81,28,212,44,77,25,138,34,75,12,026,42,68,09,276,44,1*7F
$GLGSV,3,3,09,65,08,076,37,1*4F
$GAGSV,3,1,09,04,73,302,35,11,60,269,39,10,57,210,44,12,38,182,39,7*77
$GAGSV,3,2,09,19,36,056,35,09,27,256,45,36,22,319,38,21,14,077,41,7*79
$GAGSV,3,3,09,27,02,031,08,7*47
$GAGSV,3,1,09,04,73,302,38,11,60,269,40,10,57,210,46,12,38,182,45,1*7B
$GAGSV,3,2,09,19,36,056,32,09,27,256,30,36,22,319,41,21,14,077,38,1*7A
$GAGSV,3,3,09,27,02,031,18,1*40
$GBGSV,3,1,11,32,59,057,45,20,49,302,40,23,38,081,47,37,32,148,45,1*79
$GBGSV,3,2,11,29,28,276,47,30,20,217,51,41,11,088,46,25,09,037,36,1*7F
$GBGSV,3,3,11,19,05,281,42,40,03,321,17,58,,,27,1*7F
$GBGSV,3,1,09,32,59,057,31,20,49,302,40,23,38,081,42,37,32,148,44,5*73
$GBGSV,3,2,09,29,28,276,37,30,20,217,46,41,11,088,41,25,09,037,27,5*74
$GBGSV,3,3,09,19,05,281,40,5*49
$GNGGA,063722.000,4005.098554,N,10513.208850,W,2,56,0.45,1584.607,M,-20.669,M,,*79
$GPGSV,4,1,13,32,65,034,43,28,59,165,46,10,51,101,45,21,47,285,39,1*66
$GPGSV,4,2,13,48,39,209,46,02,36,303,32,31,32,190,47,23,15,114,46,1*62
$GPGSV,4,3,13,25,14,091,37,19,08,062,,12,08,062,41,08,03,246,39,1*60
$GPGSV,4,4,13,03,02,301,,1*55
$GPGSV,2,1,06,32,65,034,29,28,59,165,45,10,51,101,43,23,15,114,37,8*64
$GPGSV,2,2,06,25,14,091,46,08,03,246,32,8*69
$GLGSV,3,1,09,67,48,311,42,66,47,039,43,82,46,272,41,76,37,084,39,1*7C
$GLGSV,3,2,09,81,28,212,44,77,25,138,35,75,12,026,43,68,09,276,43,1*78
$GLGSV,3,3,09,65,08,076,37,1*4F
$GAGSV,3,1,09,04,73,302,35,11,60,269,39,10,57,210,44,12,38,182,39,7*77
$GAGSV,3,2,09,19,36,056,34,09,27,256,45,36,22,319,38,21,14,077,41,7*78
$GAGSV,3,3,09,27,02,030,11,7*4E
$GAGSV,3,1,09,04,73,302,38,11,60,269,40,10,57,210,46,12,38,182,45,1*7B
$GAGSV,3,2,09,19,36,056,32,09,27,256,30,36,22,319,40,21,14,077,38,1*7B
$GAGSV,3,3,09,27,02,030,13,1*4A
$GBGSV,3,1,11,32,59,057,45,20,49,302,40,23,38,081,47,37,32,148,45,1*79
$GBGSV,3,2,11,29,28,276,47,30,20,217,51,41,11,088,46,25,09,037,36,1*7F
$GBGSV,3,3,11,19,05,281,41,40,03,321,17,58,,,27,1*7C
$GBGSV,3,1,09,32,59,057,31,20,49,302,40,23,38,081,42,37,32,148,44,5*73
$GBGSV,3,2,09,29,28,276,37,30,20,217,46,41,11,088,41,25,09,037,25,5*76
$GBGSV,3,3,09,19,05,281,39,5*47
$GNGGA,063727.000,4005.098638,N,10513.208982,W,2,57,0.45,1584.504,M,-20.670,M,,*72
$GPGSV,4,1,13,32,65,034,43,28,59,165,46,10,51,101,45,21,47,285,39,1*66
$GPGSV,4,2,13,48,39,209,46,02,36,303,33,31,32,190,47,23,15,114,46,1*63
$GPGSV,4,3,13,25,14,091,37,19,08,062,,12,08,062,41,08,03,246,38,1*61
$GPGSV,4,4,13,03,02,301,,1*55
$GPGSV,2,1,06,32,65,034,29,28,59,165,45,10,51,101,43,23,15,114,37,8*64
$GPGSV,2,2,06,25,14,091,46,08,03,246,30,8*6B
$GLGSV,3,1,09,67,48,311,42,66,47,039,41,82,46,272,41,76,37,084,39,1*7E
$GLGSV,3,2,09,81,28,212,44,77,25,138,35,75,12,026,43,68,09,276,43,1*78
$GLGSV,3,3,09,65,08,076,37,1*4F
$GAGSV,3,1,09,04,73,302,35,11,60,269,39,10,57,210,44,12,38,182,39,7*77
$GAGSV,3,2,09,19,36,056,34,09,27,256,45,36,22,319,38,21,14,077,41,7*78
$GAGSV,3,3,09,27,02,030,13,7*4C
$GAGSV,2,1,08,04,73,302,38,11,60,269,40,10,57,210,46,12,38,182,45,1*7B
$GAGSV,2,2,08,19,36,056,32,09,27,256,30,36,22,319,39,21,14,077,38,1*75
$GBGSV,3,1,11,32,59,057,45,20,49,302,40,23,38,081,47,37,32,148,45,1*79
$GBGSV,3,2,11,29,28,276,47,30,20,217,51,41,11,088,46,25,09,037,36,1*7F
$GBGSV,3,3,11,19,05,281,41,40,03,321,16,58,,,27,1*7D
$GBGSV,3,1,09,32,59,057,31,20,49,302,40,23,38,081,42,37,32,148,44,5*73
$GBGSV,3,2,09,29,28,276,37,30,20,217,45,41,11,088,41,25,09,037,25,5*75
$GBGSV,3,3,09,19,05,281,39,5*47
$GNGGA,063732.000,4005.098704,N,10513.208982,W,2,57,0.45,1584.421,M,-20.670,M,,*7E
$GPGSV,4,1,13,32,65,034,43,28,59,165,46,10,51,101,45,21,47,285,39,1*66
$GPGSV,4,2,13,48,39,209,46,02,36,303,34,31,32,190,48,23,15,114,46,1*6B
$GPGSV,4,3,13,25,14,091,36,19,08,062,,12,08,062,41,08,03,246,40,1*6F
$GPGSV,4,4,13,03,02,301,,1*55
$GPGSV,2,1,06,32,65,034,29,28,59,165,45,10,51,101,42,23,15,114,37,8*65
$GPGSV,2,2,06,25,14,091,46,08,03,246,30,8*6B
$GLGSV,3,1,09,67,48,311,42,66,47,041,41,82,46,272,41,76,37,084,40,1*7F
$GLGSV,3,2,09,81,28,212,44,77,25,138,35,75,12,026,43,68,09,276,43,1*78
$GLGSV,3,3,09,65,07,077,37,1*41
$GAGSV,3,1,09,04,73,302,35,11,60,269,39,10,57,210,44,12,38,182,39,7*77
$GAGSV,3,2,09,19,36,056,33,09,27,256,45,36,23,319,38,21,14,077,41,7*7E
$GAGSV,3,3,09,27,02,030,14,7*4B
$GAGSV,2,1,08,04,73,302,38,11,60,269,40,10,57,210,46,12,38,182,45,1*7B
$GAGSV,2,2,08,19,36,056,32,09,27,256,30,36,23,319,38,21,14,077,38,1*75
$GBGSV,3,1,11,32,59,057,44,20,49,302,40,23,38,081,47,37,32,148,45,1*78
$GBGSV,3,2,11,29,28,276,47,30,20,217,51,41,11,088,46,25,09,037,37,1*7E
$GBGSV,3,3,11,19,05,281,41,40,03,321,14,58,,,28,1*70
$GBGSV,3,1,09,32,59,057,31,20,49,302,40,23,38,081,42,37,32,148,44,5*73
$GBGSV,3,2,09,29,28,276,37,30,20,217,45,41,11,088,41,25,09,037,24,5*74
$GBGSV,3,3,09,19,05,281,39,5*47
$GNGGA,063737.000,4005.098788,N,10513.208892,W,2,57,0.45,1584.499,M,-20.670,M,,*7C
$GPGSV,4,1,13,32,65,034,43,28,59,165,46,10,51,101,45,21,47,285,40,1*68
$GPGSV,4,2,13,48,39,209,46,02,36,303,35,31,32,190,48,23,15,114,46,1*6A
$GPGSV,4,3,13,25,14,091,36,19,08,062,,12,08,062,41,08,03,246,39,1*61
$GPGSV,4,4,13,03,02,301,,1*55
$GPGSV,2,1,06,32,65,034,29,28,59,165,45,10,51,101,42,23,15,114,37,8*65
$GPGSV,2,2,06,25,14,091,46,08,03,246,30,8*6B
$GLGSV,3,1,09,67,48,313,42,66,47,041,41,82,46,272,41,76,37,084,39,1*73
$GLGSV,3,2,09,81,28,212,44,77,25,138,35,75,12,026,43,68,09,277,43,1*79
$GLGSV,3,3,09,65,07,077,36,1*40
$GAGSV,3,1,09,04,73,302,35,11,60,269,39,10,57,210,44,12,38,182,39,7*77
$GAGSV,3,2,09,19,36,056,33,09,27,256,45,36,23,319,39,21,14,077,41,7*7F
$GAGSV,3,3,09,27,02,030,15,7*4A
$GAGSV,2,1,08,04,73,302,38,11,60,269,40,10,57,210,46,12,38,182,45,1*7B
$GAGSV,2,2,08,19,36,056,32,09,27,256,30,36,23,319,37,21,14,077,38,1*7A
$GBGSV,3,1,11,32,59,057,44,20,49,302,40,23,38,081,47,37,32,148,45,1*78
$GBGSV,3,2,11,29,28,276,47,30,20,217,51,41,11,088,46,25,09,037,38,1*71
$GBGSV,3,3,11,19,05,281,41,40,03,321,17,58,,,28,1*73
$GBGSV,3,1,09,32,59,057,31,20,49,302,40,23,38,081,42,37,32,148,44,5*73
$GBGSV,3,2,09,29,28,276,37,30,20,217,45,41,11,088,41,25,09,037,22,5*72
$GBGSV,3,3,09,19,05,281,39,5*47
$GNGGA,063742.000,4005.098776,N,10513.208748,W,2,57,0.45,1584.541,M,-20.670,M,,*73
$GPGSV,4,1,13,32,65,034,43,28,59,165,46,10,51,101,44,21,47,285,41,1*68
$GPGSV,4,2,13,48,39,209,46,02,36,303,36,31,32,190,48,23,15,114,46,1*69
$GPGSV,4,3,13,25,14,091,36,19,08,062,,12,08,062,41,08,03,246,39,1*61
$GPGSV,4,4,13,03,02,301,,1*55
$GPGSV,2,1,06,32,65,034,29,28,59,165,45,10,51,101,42,23,15,114,38,8*6A
$GPGSV,2,2,06,25,14,091,45,08,03,246,29,8*60
$GLGSV,3,1,09,67,48,313,42,66,47,041,42,82,46,272,41,76,37,082,39,1*76
$GLGSV,3,2,09,81,28,212,44,77,25,138,35,75,11,025,43,68,09,277,43,1*79
$GLGSV,3,3,09,65,07,077,35,1*43
$GAGSV,3,1,09,04,73,302,35,11,60,269,39,10,57,210,44,12,38,182,39,7*77
$GAGSV,3,2,09,19,36,056,33,09,27,256,45,36,23,319,39,21,14,077,41,7*7F
$GAGSV,3,3,09,27,02,030,15,7*4A
$GAGSV,2,1,08,04,73,302,38,11,60,269,40,10,57,210,46,12,38,182,45,1*7B
$GAGSV,2,2,08,19,36,056,32,09,27,256,31,36,23,319,37,21,14,077,38,1*7B
$GBGSV,3,1,11,32,59,057,44,20,49,302,40,23,38,081,47,37,32,148,45,1*78
$GBGSV,3,2,11,29,28,276,47,30,20,217,51,41,11,088,46,25,09,037,38,1*71
$GBGSV,3,3,11,19,05,281,40,40,03,321,16,58,,,27,1*7C
$GBGSV,3,1,09,32,59,057,30,20,49,302,40,23,38,081,42,37,32,148,44,5*72
$GBGSV,3,2,09,29,28,276,36,30,20,217,45,41,11,088,41,25,09,037,21,5*70
$GBGSV,3,3,09,19,05,281,40,5*49
$GNGGA,063747.000,4005.098722,N,10513.208556,W,2,57,0.45,1584.460,M,-20.670,M,,*78
$GPGSV,4,1,13,32,65,034,43,28,59,165,46,10,51,101,44,21,47,285,41,1*68
$GPGSV,4,2,13,48,39,209,46,02,36,303,36,31,32,190,48,23,15,114,46,1*69
$GPGSV,4,3,13,25,14,091,37,19,08,062,,12,08,062,40,08,03,246,37,1*6F
$GPGSV,4,4,13,03,02,301,,1*55
$GPGSV,2,1,06,32,65,034,29,28,59,165,45,10,51,101,42,23,15,114,38,8*6A
$GPGSV,2,2,06,25,14,091,45,08,03,246,29,8*60
$GLGSV,3,1,09,67,48,313,42,66,47,041,42,82,46,272,41,76,37,082,36,1*79
$GLGSV,3,2,09,81,27,211,44,77,26,137,35,75,11,025,43,68,09,277,43,1*79
$GLGSV,3,3,09,65,07,077,35,1*43
$GAGSV,3,1,09,04,73,302,35,11,60,269,39,10,57,210,44,12,38,182,39,7*77
$GAGSV,3,2,09,19,36,056,33,09,27,256,45,36,23,319,40,21,14,077,41,7*71
$GAGSV,3,3,09,27,02,030,15,7*4A
$GAGSV,2,1,08,04,73,302,38,11,60,269,40,10,57,210,46,12,38,182,45,1*7B
$GAGSV,2,2,08,19,36,056,32,09,27,256,31,36,23,319,37,21,14,077,38,1*7B
$GBGSV,3,1,11,32,59,057,44,20,49,302,40,23,38,081,47,37,32,148,45,1*78
$GBGSV,3,2,11,29,28,276,47,30,20,217,51,41,11,088,46,25,09,037,38,1*71
$GBGSV,3,3,11,19,05,281,40,40,03,321,16,58,,,27,1*7C
$GBGSV,3,1,09,32,59,057,30,20,49,302,40,23,38,081,42,37,32,148,44,5*72
$GBGSV,3,2,09,29,28,276,36,30,20,217,45,41,11,088,41,25,09,037,20,5*71
$GBGSV,3,3,09,19,05,281,40,5*49
$GNGGA,063752.000,4005.098620,N,10513.208490,W,2,57,0.45,1584.463,M,-20.670,M,,*77
$GPGSV,4,1,13,32,65,034,43,28,59,165,46,10,51,101,44,21,47,285,41,1*68
$GPGSV,4,2,13,48,39,209,46,02,36,303,36,31,32,190,48,23,15,114,46,1*69
$GPGSV,4,3,13,25,14,091,37,19,08,062,,12,08,062,40,08,03,246,37,1*6F
$GPGSV,4,4,13,03,02,301,,1*55
$GPGSV,2,1,06,32,65,034,29,28,59,165,45,10,51,101,42,23,15,114,39,8*6B
$GPGSV,2,2,06,25,14,091,45,08,03,246,28,8*61
$GLGSV,3,1,09,67,48,313,42,66,47,041,43,82,46,270,42,76,37,082,36,1*79
$GLGSV,3,2,09,81,27,211,44,77,26,137,34,75,11,025,43,68,09,277,43,1*78
$GLGSV,3,3,09,65,07,077,35,1*43
$GAGSV,3,1,09,04,73,302,35,11,60,269,39,10,57,210,44,12,38,182,38,7*76
$GAGSV,3,2,09,19,36,056,33,09,27,256,45,36,23,319,40,21,14,077,41,7*71
$GAGSV,3,3,09,27,02,030,14,7*4B
$GAGSV,2,1,08,04,73,302,38,11,60,269,40,10,57,210,46,12,38,182,45,1*7B
$GAGSV,2,2,08,19,36,056,32,09,27,256,31,36,23,319,39,21,14,077,38,1*75
$GBGSV,3,1,11,32,59,057,44,20,49,302,40,23,38,081,47,37,32,148,45,1*78
$GBGSV,3,2,11,29,28,276,47,30,20,217,51,41,11,088,46,25,09,037,38,1*71
$GBGSV,3,3,11,19,05,281,40,40,03,321,16,58,,,27,1*7C
$GBGSV,3,1,09,32,59,057,30,20,49,302,39,23,38,081,42,37,32,148,44,5*7C
$GBGSV,3,2,09,29,28,276,36,30,20,217,45,41,11,088,41,25,09,037,19,5*7B
$GBGSV,3,3,09,19,05,281,40,5*49
$GNGGA,063757.000,4005.098536,N,10513.208520,W,2,57,0.45,1584.467,M,-20.670,M,,*78
$GPGSV,4,1,13,32,65,034,43,28,59,165,46,10,51,101,44,21,47,285,41,1*68
$GPGSV,4,2,13,48,39,209,46,02,36,303,37,31,32,190,48,23,15,114,46,1*68
$GPGSV,4,3,13,25,14,091,37,19,08,062,,12,08,062,40,08,03,246,36,1*6E
$GPGSV,4,4,13,03,02,301,,1*55
$GPGSV,2,1,06,32,65,034,29,28,59,165,45,10,51,101,42,23,15,114,39,8*6B
$GPGSV,2,2,06,25,14,091,45,08,03,246,26,8*6F
$GLGSV,3,1,09,67,48,313,42,66,47,041,43,82,46,270,43,76,37,082,38,1*76
$GLGSV,3,2,09,81,27,211,44,77,26,137,34,75,11,025,43,68,09,277,43,1*78
$GLGSV,3,3,09,65,07,077,36,1*40
$GAGSV,3,1,09,04,73,302,35,11,60,269,39,10,57,210,44,12,38,182,38,7*76
$GAGSV,3,2,09,19,36,056,33,09,27,256,45,36,23,319,40,21,14,077,41,7*71
$GAGSV,3,3,09,27,02,030,11,7*4E
$GAGSV,2,1,08,04,73,302,38,11,60,269,40,10,57,210,46,12,38,182,45,1*7B
$GAGSV,2,2,08,19,36,056,32,09,27,256,31,36,23,319,39,21,14,077,38,1*75
$GBGSV,3,1,11,32,59,057,44,20,49,302,40,23,38,081,47,37,32,148,45,1*78
$GBGSV,3,2,11,29,28,276,47,30,20,217,51,41,11,088,46,25,09,037,38,1*71
$GBGSV,3,3,11,19,05,281,40,40,03,321,16,58,,,26,1*7D
$GBGSV,3,1,09,32,59,057,30,20,49,302,39,23,38,081,42,37,32,148,44,5*7C
$GBGSV,3,2,09,29,28,276,36,30,20,217,45,41,11,088,41,25,09,037,19,5*7B
$GBGSV,3,3,09,19,05,281,39,5*47
$GNGGA,063802.000,4005.098500,N,10513.208646,W,2,57,0.45,1584.509,M,-20.670,M,,*78
$GPGSV,4,1,13,32,65,034,43,28,59,165,46,10,51,101,44,21,47,285,40,1*69
$GPGSV,4,2,13,48,39,209,46,02,36,303,37,31,32,190,48,23,15,114,46,1*68
$GPGSV,4,3,13,25,14,091,37,19,08,062,,12,08,062,40,08,03,246,35,1*6D
$GPGSV,4,4,13,03,02,301,,1*55
$GPGSV,2,1,06,32,65,034,29,28,59,165,45,10,51,101,42,23,15,114,39,8*6B
$GPGSV,2,2,06,25,14,091,45,08,03,246,23,8*6A
$GLGSV,3,1,09,67,48,313,42,66,47,041,43,82,46,270,43,76,37,082,39,1*77
$GLGSV,3,2,09,81,27,211,45,77,26,137,35,75,11,025,43,68,09,277,43,1*78
$GLGSV,3,3,09,65,07,077,36,1*40
$GAGSV,3,1,09,04,73,302,35,11,60,269,39,10,57,210,43,12,38,182,38,7*71
$GAGSV,3,2,09,19,36,056,32,09,27,256,45,36,23,319,40,21,14,077,41,7*70
$GAGSV,3,3,09,27,02,030,11,7*4E
$GAGSV,2,1,08,04,73,302,38,11,60,269,40,10,57,210,46,12,38,182,45,1*7B
$GAGSV,2,2,08,19,36,056,32,09,27,256,31,36,23,319,39,21,14,077,38,1*75
$GBGSV,3,1,11,32,59,057,44,20,49,302,40,23,38,081,47,37,32,148,45,1*78
$GBGSV,3,2,11,29,28,276,47,30,20,217,51,41,11,088,46,25,09,037,38,1*71
$GBGSV,3,3,11,19,05,281,41,40,03,321,13,58,,,27,1*78
$GBGSV,3,1,09,32,59,057,30,20,49,302,39,23,38,081,42,37,32,148,44,5*7C
$GBGSV,3,2,09,29,28,276,36,30,20,217,45,41,11,088,41,25,09,037,19,5*7B
$GBGSV,3,3,09,19,05,281,39,5*47
$GNGGA,063807.000,4005.098536,N,10513.208796,W,2,57,0.45,1584.466,M,-20.670,M,,*7C
$GPGSV,4,1,13,32,65,034,43,28,59,165,46,10,51,101,44,21,47,285,40,1*69
$GPGSV,4,2,13,48,39,209,46,02,36,303,36,31,32,190,48,23,15,114,46,1*69
$GPGSV,4,3,13,25,14,091,37,19,08,062,,12,08,062,40,08,03,246,24,1*6D
$GPGSV,4,4,13,03,02,301,,1*55
$GPGSV,2,1,06,32,65,034,29,28,59,165,45,10,51,101,42,23,15,114,39,8*6B
$GPGSV,2,2,06,25,14,091,45,08,03,246,20,8*69
$GLGSV,3,1,09,67,48,313,42,66,47,041,43,82,46,270,43,76,37,082,40,1*79
$GLGSV,3,2,09,81,27,211,45,77,26,137,35,75,11,025,42,68,09,277,43,1*79
$GLGSV,3,3,09,65,07,077,36,1*40
$GAGSV,3,1,09,04,73,302,35,11,60,269,39,10,57,210,43,12,38,182,38,7*71
$GAGSV,3,2,09,19,36,056,33,09,27,256,45,36,23,319,40,21,14,077,41,7*71
$GAGSV,3,3,09,27,02,030,09,7*47
$GAGSV,3,1,09,04,73,302,38,11,60,269,40,10,57,210,46,12,38,182,45,1*7B
$GAGSV,3,2,09,19,36,056,31,09,27,256,32,36,23,319,39,21,14,077,38,1*75
$GAGSV,3,3,09,27,02,030,16,1*4F
$GBGSV,3,1,11,32,59,057,44,20,49,302,40,23,38,081,47,37,32,148,46,1*7B
$GBGSV,3,2,11,29,28,276,47,30,20,217,51,41,11,088,46,25,09,037,37,1*7E
$GBGSV,3,3,11,19,05,281,41,40,03,321,12,58,,,26,1*78
$GBGSV,3,1,09,32,59,057,30,20,49,302,39,23,38,081,42,37,32,148,44,5*7C
$GBGSV,3,2,09,29,28,276,36,30,20,217,45,41,11,088,41,25,09,037,19,5*7B
$GBGSV,3,3,09,19,05,281,39,5*47
$GNGGA,063812.000,4005.098632,N,10513.208868,W,2,57,0.45,1584.355,M,-20.669,M,,*7E
$GPGSV,4,1,13,32,65,034,43,28,59,165,46,10,51,101,44,21,47,285,39,1*67
$GPGSV,4,2,13,48,39,209,46,02,36,303,36,31,32,190,49,23,15,114,46,1*68
$GPGSV,4,3,13,25,14,091,37,19,08,062,,12,08,062,41,08,03,246,24,1*6C
$GPGSV,4,4,13,03,02,301,,1*55
$GPGSV,2,1,06,32,65,034,29,28,59,165,45,10,51,101,42,23,15,114,40,8*65
$GPGSV,2,2,06,25,14,091,45,08,03,246,19,8*63
$GLGSV,3,1,09,67,48,313,41,66,47,041,43,82,46,270,44,76,37,082,40,1*7D
$GLGSV,3,2,09,81,27,211,45,77,26,137,36,75,11,025,42,68,09,277,43,1*7A
$GLGSV,3,3,09,65,07,077,36,1*40
$GAGSV,3,1,09,04,73,302,35,11,60,269,39,10,57,210,43,12,38,182,38,7*71
$GAGSV,3,2,09,19,36,056,33,09,27,256,45,36,23,319,40,21,14,077,41,7*71
$GAGSV,3,3,09,27,02,030,11,7*4E
$GAGSV,3,1,09,04,73,302,38,11,60,269,40,10,57,210,46,12,38,182,45,1*7B
$GAGSV,3,2,09,19,36,056,31,09,27,256,32,36,23,319,37,21,14,077,39,1*7A
$GAGSV,3,3,09,27,02,030,19,1*40
$GBGSV,3,1,11,32,59,057,44,20,49,302,41,23,38,081,47,37,32,148,46,1*7A
$GBGSV,3,2,11,29,28,276,47,30,20,217,50,41,11,088,46,25,09,037,36,1*7E
$GBGSV,3,3,11,19,05,281,42,40,03,321,14,58,,,26,1*7D
$GBGSV,3,1,09,32,59,057,30,20,49,302,39,23,38,081,42,37,32,148,44,5*7C
$GBGSV,3,2,09,29,28,276,36,30,20,217,45,41,11,088,41,25,09,037,20,5*71
$GBGSV,3,3,09,19,05,281,39,5*47
$GNGGA,063817.000,4005.098686,N,10513.208880,W,2,57,0.45,1584.375,M,-20.670,M,,*78
$GPGSV,4,1,13,32,65,034,43,28,59,165,46,10,51,101,44,21,47,285,39,1*67
$GPGSV,4,2,13,48,39,209,46,02,36,303,36,31,32,190,49,23,15,114,46,1*68
$GPGSV,4,3,13,25,14,091,37,19,08,062,,12,08,062,41,08,03,246,28,1*60
$GPGSV,4,4,13,03,02,301,,1*55
$GPGSV,2,1,06,32,65,034,28,28,59,165,45,10,51,101,42,23,15,114,40,8*64
$GPGSV,2,2,06,25,14,091,45,08,03,246,20,8*69
$GLGSV,3,1,09,67,48,313,41,66,47,041,43,82,46,270,44,76,37,082,38,1*72
$GLGSV,3,2,09,81,27,211,45,77,26,137,36,75,11,025,41,68,09,277,43,1*79
$GLGSV,3,3,09,65,07,077,36,1*40
$GAGSV,3,1,09,04,73,302,35,11,60,269,39,10,57,210,43,12,38,182,38,7*71
$GAGSV,3,2,09,19,36,056,33,09,27,256,45,36,23,319,40,21,14,077,41,7*71
$GAGSV,3,3,09,27,02,030,12,7*4D
$GAGSV,3,1,09,04,73,302,38,11,60,269,40,10,57,210,46,12,38,182,45,1*7B
$GAGSV,3,2,09,19,36,056,31,09,27,256,32,36,23,319,35,21,14,077,40,1*76
$GAGSV,3,3,09,27,02,030,19,1*40
$GBGSV,3,1,11,32,59,057,44,20,50,303,41,23,38,080,47,37,32,148,46,1*72
$GBGSV,3,2,11,29,28,276,47,30,20,217,50,41,11,088,46,25,09,037,36,1*7E
$GBGSV,3,3,11,19,06,281,43,40,03,321,11,58,,,26,1*7A
$GBGSV,3,1,09,32,59,057,29,20,50,303,39,23,38,080,42,37,32,148,44,5*7C
$GBGSV,3,2,09,29,28,276,36,30,20,217,45,41,11,088,41,25,09,037,21,5*70
$GBGSV,3,3,09,19,06,281,39,5*44
$GNGGA,063822.000,4005.098704,N,10513.208892,W,2,57,0.45,1584.304,M,-20.670,M,,*70
$GPGSV,4,1,13,32,65,034,43,28,59,165,46,10,51,101,44,21,47,285,39,1*67
$GPGSV,4,2,13,48,39,209,46,02,36,303,36,31,32,190,49,23,15,114,46,1*68
$GPGSV,4,3,13,25,14,091,36,19,08,062,,12,08,062,41,08,03,246,29,1*60
$GPGSV,4,4,13,03,02,301,,1*55
$GPGSV,2,1,06,32,65,034,28,28,59,165,45,10,51,101,42,23,15,114,41,8*65
$GPGSV,2,2,06,25,14,091,45,08,03,246,21,8*68
$GLGSV,3,1,09,67,48,313,41,66,47,041,43,82,46,270,44,76,37,082,38,1*72
$GLGSV,3,2,09,81,27,211,45,77,26,137,36,75,11,025,42,68,09,277,43,1*7A
$GLGSV,3,3,09,65,07,077,36,1*40
$GAGSV,3,1,09,04,73,302,35,11,60,269,39,10,57,210,43,12,38,182,38,7*71
$GAGSV,3,2,09,19,36,056,33,09,27,256,45,36,23,319,40,21,14,077,41,7*71
$GAGSV,3,3,09,27,02,030,13,7*4C
$GAGSV,3,1,09,04,73,302,38,11,60,269,40,10,57,210,46,12,38,182,45,1*7B
$GAGSV,3,2,09,19,36,056,31,09,27,256,33,36,23,319,34,21,14,077,40,1*76
$GAGSV,3,3,09,27,02,030,19,1*40
$GBGSV,3,1,10,32,59,057,44,20,50,303,41,23,38,080,46,37,32,148,46,1*72
$GBGSV,3,2,10,29,28,276,47,30,20,217,50,41,11,088,46,25,09,036,36,1*7E
$GBGSV,3,3,10,19,06,281,44,40,03,321,11,1*75
$GBGSV,3,1,09,32,59,057,29,20,50,303,39,23,38,080,42,37,32,148,45,5*7D
$GBGSV,3,2,09,29,28,276,36,30,20,217,45,41,11,088,41,25,09,036,22,5*72
$GBGSV,3,3,09,19,06,281,39,5*44
$GNGGA,063827.000,4005.098704,N,10513.208886,W,2,57,0.45,1584.244,M,-20.670,M,,*75
$GPGSV,4,1,13,32,65,034,43,28,59,165,46,10,51,101,44,21,47,285,39,1*67
$GPGSV,4,2,13,48,39,209,46,02,36,303,36,31,32,190,49,23,15,114,46,1*68
$GPGSV,4,3,13,25,14,091,35,19,08,062,,12,08,062,41,08,03,246,30,1*6B
$GPGSV,4,4,13,03,02,301,,1*55
$GPGSV,2,1,06,32,65,034,28,28,59,165,45,10,51,101,41,23,15,114,41,8*66
$GPGSV,2,2,06,25,14,091,45,08,03,246,20,8*69
$GLGSV,3,1,09,67,48,313,40,66,47,041,43,82,46,270,44,76,37,082,38,1*73
$GLGSV,3,2,09,81,27,211,46,77,26,137,35,75,11,025,42,68,09,277,43,1*7A
$GLGSV,3,3,09,65,07,077,36,1*40
$GAGSV,3,1,09,04,73,302,35,11,60,269,39,10,57,210,43,12,38,182,38,7*71
$GAGSV,3,2,09,19,36,056,32,09,27,256,45,36,23,319,40,21,14,077,41,7*70
$GAGSV,3,3,09,27,02,030,14,7*4B
$GAGSV,3,1,09,04,73,302,38,11,60,269,40,10,57,210,46,12,38,182,45,1*7B
$GAGSV,3,2,09,19,36,056,31,09,27,256,33,36,23,319,34,21,14,077,40,1*76
$GAGSV,3,3,09,27,02,030,19,1*40
$GBGSV,3,1,10,32,58,059,44,20,50,303,42,23,38,080,46,37,32,148,46,1*7E
$GBGSV,3,2,10,29,28,274,47,30,19,216,49,41,11,088,46,25,09,036,36,1*7F
$GBGSV,3,3,10,19,06,281,44,40,03,321,12,1*76
$GBGSV,3,1,09,32,58,059,29,20,50,303,39,23,38,080,42,37,32,148,45,5*72
$GBGSV,3,2,09,29,28,274,36,30,19,216,45,41,11,088,41,25,09,036,21,5*78
$GBGSV,3,3,09,19,06,281,39,5*44
$GNGGA,063832.000,4005.098680,N,10513.208838,W,2,57,0.45,1584.171,M,-20.670,M,,*7C
$GPGSV,4,1,13,32,65,034,43,28,59,165,46,10,51,101,44,21,47,285,39,1*67
$GPGSV,4,2,13,48,39,209,46,02,36,303,36,31,32,190,49,23,15,114,46,1*68
$GPGSV,4,3,13,25,14,091,35,19,08,062,,12,08,062,41,08,03,246,32,1*69
$GPGSV,4,4,13,03,02,301,,1*55
$GPGSV,2,1,06,32,65,034,28,28,59,165,45,10,51,101,41,23,15,114,41,8*66
$GPGSV,2,2,06,25,14,091,45,08,03,246,22,8*6B
$GLGSV,3,1,09,67,48,313,40,66,47,041,43,82,46,270,44,76,37,082,39,1*72
$GLGSV,3,2,09,81,27,211,46,77,26,137,35,75,11,025,42,68,09,277,43,1*7A
$GLGSV,3,3,09,65,07,077,36,1*40
$GAGSV,3,1,09,04,73,302,35,11,60,269,39,10,57,210,43,12,38,182,38,7*71
$GAGSV,3,2,09,19,36,056,32,09,27,256,45,36,23,319,40,21,14,077,41,7*70
$GAGSV,3,3,09,27,02,030,17,7*48
$GAGSV,3,1,09,04,73,302,38,11,60,269,40,10,57,210,46,12,38,182,45,1*7B
$GAGSV,3,2,09,19,36,056,30,09,27,256,33,36,23,319,36,21,14,077,40,1*75
$GAGSV,3,3,09,27,02,030,19,1*40
$GBGSV,3,1,10,32,58,059,44,20,50,303,42,23,38,080,46,37,33,147,46,1*70
$GBGSV,3,2,10,29,28,274,47,30,19,216,49,41,11,088,46,25,09,036,37,1*7E
$GBGSV,3,3,10,19,06,281,45,40,03,321,11,1*74
$GBGSV,3,1,09,32,58,059,29,20,50,303,39,23,38,080,42,37,33,147,45,5*7C
$GBGSV,3,2,09,29,28,274,36,30,19,216,45,41,11,088,41,25,09,036,23,5*7A
$GBGSV,3,3,09,19,06,281,39,5*44
$GNGGA,063837.000,4005.098692,N,10513.208808,W,2,57,0.45,1584.371,M,-20.670,M,,*7B
$GPGSV,4,1,13,32,65,034,43,28,59,165,46,10,51,101,44,21,47,285,39,1*67
$GPGSV,4,2,13,48,39,209,46,02,36,303,36,31,32,190,49,23,15,114,46,1*68
$GPGSV,4,3,13,25,14,091,35,19,08,062,,12,08,062,41,08,03,246,34,1*6F
$GPGSV,4,4,13,03,02,301,,1*55
$GPGSV,2,1,06,32,65,034,27,28,59,165,45,10,51,101,41,23,15,114,41,8*69
$GPGSV,2,2,06,25,14,091,45,08,03,246,23,8*6A
$GLGSV,3,1,09,67,48,313,40,66,47,041,42,82,46,270,44,76,37,082,38,1*72
$GLGSV,3,2,09,81,27,211,47,77,26,137,35,75,11,025,42,68,09,277,43,1*7B
$GLGSV,3,3,09,65,07,077,36,1*40
$GAGSV,3,1,09,04,73,302,35,11,60,269,39,10,57,210,42,12,38,182,38,7*70
$GAGSV,3,2,09,19,36,056,32,09,27,256,45,36,23,319,40,21,14,077,41,7*70
$GAGSV,3,3,09,27,02,030,17,7*48
$GAGSV,3,1,09,04,73,302,38,11,60,269,40,10,57,210,46,12,38,182,45,1*7B
$GAGSV,3,2,09,19,36,056,29,09,27,256,33,36,23,319,36,21,14,077,40,1*7D
$GAGSV,3,3,09,27,02,030,18,1*41
$GBGSV,3,1,10,32,58,059,44,20,50,303,42,23,38,080,46,37,33,147,46,1*70
$GBGSV,3,2,10,29,28,274,47,30,19,216,49,41,10,089,46,25,09,036,38,1*71
$GBGSV,3,3,10,19,06,281,45,40,02,321,14,1*70
$GBGSV,3,1,09,32,58,059,29,20,50,303,39,23,38,080,42,37,33,147,45,5*7C
$GBGSV,3,2,09,29,28,274,36,30,19,216,45,41,10,089,41,25,09,036,23,5*7A
$GBGSV,3,3,09,19,06,281,39,5*44
$GNGGA,063842.000,4005.098686,N,10513.208766,W,2,57,0.45,1584.626,M,-20.670,M,,*7C
$GPGSV,4,1,13,32,65,034,43,28,59,165,46,10,51,101,44,21,47,285,39,1*67
$GPGSV,4,2,13,48,39,209,46,02,36,303,36,31,32,190,49,23,15,114,46,1*68
$GPGSV,4,3,13,25,14,091,35,19,08,062,,12,08,062,41,08,03,246,33,1*68
$GPGSV,4,4,13,03,02,301,,1*55
$GPGSV,2,1,06,32,65,034,27,28,59,165,45,10,51,101,41,23,15,114,41,8*69
$GPGSV,2,2,06,25,14,091,45,08,03,246,21,8*68
$GLGSV,3,1,09,67,48,313,40,66,47,041,43,82,46,270,44,76,37,082,38,1*73
$GLGSV,3,2,09,81,27,211,47,77,26,137,35,75,11,025,42,68,09,277,43,1*7B
$GLGSV,3,3,09,65,07,077,36,1*40
$GAGSV,3,1,09,04,73,302,35,11,60,269,39,10,57,210,42,12,38,182,38,7*70
$GAGSV,3,2,09,19,36,056,32,09,27,256,45,36,23,319,39,21,14,077,41,7*7E
$GAGSV,3,3,09,27,02,030,16,7*49
$GAGSV,3,1,09,04,73,302,37,11,60,269,40,10,57,210,46,12,38,182,45,1*74
$GAGSV,3,2,09,19,36,056,29,09,27,256,33,36,23,319,37,21,14,077,40,1*7C
$GAGSV,3,3,09,27,02,030,18,1*41
$GBGSV,3,1,10,32,58,059,44,20,50,303,42,23,38,080,46,37,33,147,46,1*70
$GBGSV,3,2,10,29,28,274,47,30,19,216,49,41,10,089,46,25,09,036,38,1*71
$GBGSV,3,3,10,19,06,281,45,40,02,321,15,1*71
$GBGSV,3,1,09,32,58,059,29,20,50,303,39,23,38,080,42,37,33,147,45,5*7C
$GBGSV,3,2,09,29,28,274,36,30,19,216,45,41,10,089,41,25,09,036,24,5*7D
$GBGSV,3,3,09,19,06,281,39,5*44
$GNGGA,063847.000,4005.098722,N,10513.208748,W,2,57,0.45,1584.783,M,-20.670,M,,*74
$GPGSV,4,1,13,32,65,034,43,28,59,165,47,10,51,101,44,21,47,285,39,1*66
$GPGSV,4,2,13,48,39,209,46,02,36,303,36,31,32,190,49,23,15,114,45,1*6B
$GPGSV,4,3,13,25,14,091,35,19,08,062,,12,08,062,41,08,03,246,31,1*6A
$GPGSV,4,4,13,03,02,301,,1*55
$GPGSV,2,1,06,32,65,034,27,28,59,165,44,10,51,101,41,23,15,114,41,8*68
$GPGSV,2,2,06,25,14,091,45,08,03,246,20,8*69
$GLGSV,3,1,09,67,48,313,41,66,47,041,43,82,46,270,45,76,37,082,39,1*72
$GLGSV,3,2,09,81,27,211,47,77,26,137,36,75,11,025,42,68,09,277,42,1*79
$GLGSV,3,3,09,65,07,077,35,1*43
$GAGSV,3,1,09,04,73,302,35,11,60,269,39,10,57,210,42,12,38,182,38,7*70
$GAGSV,3,2,09,19,36,056,31,09,27,256,45,36,23,319,38,21,14,077,41,7*7C
$GAGSV,3,3,09,27,02,030,17,7*48
$GAGSV,3,1,09,04,73,302,37,11,60,269,40,10,57,210,46,12,38,182,45,1*74
$GAGSV,3,2,09,19,36,056,28,09,27,256,34,36,23,319,37,21,14,077,40,1*7A
$GAGSV,3,3,09,27,02,030,18,1*41
$GBGSV,3,1,10,32,58,059,44,20,50,303,42,23,38,080,46,37,33,147,46,1*70
$GBGSV,3,2,10,29,28,274,47,30,19,216,49,41,10,089,46,25,09,036,39,1*70
$GBGSV,3,3,10,19,06,281,45,40,02,321,13,1*77
$GBGSV,3,1,09,32,58,059,29,20,50,303,39,23,38,080,42,37,33,147,45,5*7C
$GBGSV,3,2,09,29,28,274,36,30,19,216,45,41,10,089,41,25,09,036,25,5*7C
$GBGSV,3,3,09,19,06,281,39,5*44
$GNGGA,063852.000,4005.098734,N,10513.208760,W,2,57,0.45,1584.802,M,-20.670,M,,*7B
$GPGSV,4,1,13,32,65,034,43,28,59,165,47,10,51,101,44,21,47,285,39,1*66
$GPGSV,4,2,13,48,39,209,46,02,36,303,35,31,32,190,49,23,15,114,45,1*68
$GPGSV,4,3,13,25,14,091,35,19,08,062,,12,08,062,41,08,03,246,30,1*6B
$GPGSV,4,4,13,03,02,301,,1*55
$GPGSV,2,1,06,32,65,034,27,28,59,165,44,10,51,101,41,23,15,114,42,8*6B
$GPGSV,2,2,06,25,14,091,45,08,03,246,18,8*62
$GLGSV,3,1,09,67,48,313,40,66,47,041,43,82,46,270,45,76,37,082,40,1*7D
$GLGSV,3,2,09,81,27,211,47,77,26,137,36,75,11,025,43,68,09,277,42,1*78
$GLGSV,3,3,09,65,07,077,33,1*45
$GAGSV,3,1,09,04,73,302,35,11,60,269,39,10,57,210,42,12,38,182,38,7*70
$GAGSV,3,2,09,19,36,056,31,09,27,256,45,36,23,319,36,21,14,077,41,7*72
$GAGSV,3,3,09,27,02,030,16,7*49
$GAGSV,3,1,09,04,73,302,37,11,60,269,40,10,57,210,46,12,38,182,45,1*74
$GAGSV,3,2,09,19,36,056,27,09,27,256,34,36,23,319,37,21,14,077,40,1*75
$GAGSV,3,3,09,27,02,030,17,1*4E
$GBGSV,3,1,10,32,58,059,44,20,50,303,42,23,38,080,47,37,33,147,46,1*71
$GBGSV,3,2,10,29,28,274,47,30,19,216,49,41,10,089,46,25,09,036,40,1*7E
$GBGSV,3,3,10,19,06,281,45,40,02,321,12,1*76
$GBGSV,3,1,09,32,58,059,29,20,50,303,39,23,38,080,42,37,33,147,45,5*7C
$GBGSV,3,2,09,29,28,274,36,30,19,216,45,41,10,089,41,25,09,036,26,5*7F
$GBGSV,3,3,09,19,06,281,39,5*44
$GNGGA,063857.000,4005.098722,N,10513.208784,W,2,57,0.45,1584.821,M,-20.669,M,,*7A
$GPGSV,4,1,13,32,65,034,43,28,59,165,47,10,51,101,44,21,47,285,39,1*66
$GPGSV,4,2,13,48,39,209,46,02,36,303,37,31,32,190,49,23,15,114,45,1*6A
$GPGSV,4,3,13,25,14,091,34,19,08,062,,12,08,062,41,08,03,246,28,1*63
$GPGSV,4,4,13,03,02,301,,1*55
$GPGSV,2,1,06,32,65,034,28,28,59,165,44,10,51,101,41,23,15,114,42,8*64
$GPGSV,2,2,06,25,14,091,45,08,03,246,18,8*62
$GLGSV,3,1,09,67,48,313,40,66,47,041,42,82,46,270,44,76,37,082,39,1*73
$GLGSV,3,2,09,81,27,211,47,77,26,137,36,75,11,025,44,68,09,277,41,1*7C
$GLGSV,3,3,09,65,07,077,35,1*43
$GAGSV,3,1,09,04,73,302,35,11,60,269,38,10,57,210,42,12,38,182,38,7*71
$GAGSV,3,2,09,19,36,056,31,09,27,256,45,36,23,319,36,21,14,077,41,7*72
$GAGSV,3,3,09,27,02,030,16,7*49
$GAGSV,3,1,09,04,73,302,37,11,60,269,40,10,57,210,46,12,38,182,45,1*74
$GAGSV,3,2,09,19,36,056,26,09,27,256,34,36,23,319,36,21,14,077,40,1*75
$GAGSV,3,3,09,27,02,030,16,1*4F
$GBGSV,3,1,10,32,58,059,44,20,50,303,42,23,38,080,47,37,33,147,46,1*71
$GBGSV,3,2,10,29,28,274,47,30,19,216,49,41,10,089,46,25,09,036,40,1*7E
$GBGSV,3,3,10,19,06,281,45,40,02,321,12,1*76
$GBGSV,3,1,09,32,58,059,29,20,50,303,38,23,38,080,42,37,33,147,45,5*7D
$GBGSV,3,2,09,29,28,274,36,30,19,216,45,41,10,089,41,25,09,036,27,5*7E
$GBGSV,3,3,09,19,06,281,39,5*44
$GNGGA,063902.000,4005.098722,N,10513.208748,W,2,57,0.45,1584.895,M,-20.669,M,,*74
$GPGSV,4,1,13,32,65,034,43,28,59,165,47,10,51,101,44,21,47,285,39,1*66
$GPGSV,4,2,13,48,39,209,46,02,36,302,37,31,32,190,50,23,15,114,45,1*63
$GPGSV,4,3,13,25,14,091,34,19,08,062,,12,08,062,41,03,03,302,,1*63
$GPGSV,4,4,13,08,03,246,24,1*5B
$GPGSV,2,1,06,32,65,034,28,28,59,165,44,10,51,101,41,23,15,114,42,8*64
$GPGSV,2,2,06,25,14,091,45,08,03,246,18,8*62
$GLGSV,3,1,09,67,48,313,40,66,47,041,42,82,46,270,44,76,37,082,37,1*7D
$GLGSV,3,2,09,81,27,211,48,77,26,137,35,75,11,025,44,68,09,277,41,1*70
$GLGSV,3,3,09,65,07,077,36,1*40
$GAGSV,3,1,09,04,73,302,36,11,60,269,38,10,57,210,42,12,38,182,38,7*72
$GAGSV,3,2,09,19,36,056,30,09,27,256,45,36,23,319,36,21,14,077,41,7*73
$GAGSV,3,3,09,27,02,030,16,7*49
$GAGSV,3,1,09,04,73,302,37,11,60,269,40,10,57,210,46,12,38,182,45,1*74
$GAGSV,3,2,09,19,36,056,26,09,27,256,34,36,23,319,33,21,14,077,40,1*70
$GAGSV,3,3,09,27,02,030,13,1*4A
$GBGSV,3,1,10,32,58,059,44,20,50,303,41,23,38,080,47,37,33,147,46,1*72
$GBGSV,3,2,10,29,28,274,47,30,19,216,49,41,10,089,46,25,09,036,41,1*7F
$GBGSV,3,3,10,19,06,281,45,40,02,321,14,1*70
$GBGSV,3,1,09,32,58,059,28,20,50,303,38,23,38,080,42,37,33,147,45,5*7C
$GBGSV,3,2,09,29,28,274,35,30,19,216,44,41,10,089,41,25,09,036,28,5*73
$GBGSV,3,3,09,19,06,281,38,5*45
$GNGGA,063907.000,4005.098704,N,10513.208718,W,2,57,0.45,1584.964,M,-20.669,M,,*7F
$GPGSV,4,1,13,32,65,034,43,28,59,165,47,10,50,102,44,21,47,285,39,1*64
$GPGSV,4,2,13,48,39,209,46,02,36,302,37,31,32,190,50,23,15,114,45,1*63
$GPGSV,4,3,13,25,14,091,34,19,08,062,,12,08,062,41,03,03,302,,1*63
$GPGSV,4,4,13,08,03,245,11,1*5E
$GPGSV,2,1,06,32,65,034,28,28,59,165,44,10,50,102,41,23,15,114,42,8*66
$GPGSV,2,2,06,25,14,091,45,08,03,245,14,8*6D
$GLGSV,3,1,09,67,48,313,40,66,47,041,42,82,46,270,44,76,37,082,37,1*7D
$GLGSV,3,2,09,81,27,211,48,77,26,137,36,75,11,025,44,68,09,277,42,1*70
$GLGSV,3,3,09,65,07,077,35,1*43
$GAGSV,3,1,09,04,73,302,36,11,60,269,38,10,57,210,42,12,38,182,38,7*72
$GAGSV,3,2,09,19,36,056,30,09,27,256,45,36,23,319,36,21,14,077,41,7*73
$GAGSV,3,3,09,27,02,030,16,7*49
$GAGSV,2,1,08,04,73,302,37,11,60,269,40,10,57,210,46,12,38,182,45,1*74
$GAGSV,2,2,08,19,36,056,25,09,27,256,35,36,23,319,32,21,14,077,40,1*73
$GBGSV,3,1,10,32,58,059,44,20,50,303,41,23,38,080,47,37,33,147,46,1*72
$GBGSV,3,2,10,29,28,274,47,30,19,216,49,41,10,089,46,25,09,036,41,1*7F
$GBGSV,3,3,10,19,06,281,45,40,02,321,16,1*72
$GBGSV,3,1,09,32,58,059,29,20,50,303,38,23,38,080,42,37,33,147,45,5*7D
$GBGSV,3,2,09,29,28,274,35,30,19,216,44,41,10,089,41,25,09,036,29,5*72
$GBGSV,3,3,09,19,06,281,38,5*45
$GNGGA,063912.000,4005.098626,N,10513.208766,W,2,57,0.45,1584.897,M,-20.670,M,,*76
$GPGSV,4,1,13,32,65,034,43,28,59,165,47,10,50,102,44,21,47,285,39,1*64
$GPGSV,4,2,13,48,39,209,47,02,36,302,36,31,32,190,50,23,15,114,45,1*63
$GPGSV,4,3,13,25,14,091,34,12,09,061,41,19,08,062,,03,03,302,,1*61
$GPGSV,4,4,13,08,03,245,18,1*57
$GPGSV,2,1,05,32,65,034,28,28,59,165,44,10,50,102,41,23,15,114,42,8*65
$GPGSV,2,2,05,25,14,091,45,8*53
$GLGSV,3,1,09,67,48,313,41,66,47,041,42,82,46,270,45,76,37,082,38,1*72
$GLGSV,3,2,09,81,27,211,48,77,26,137,36,75,11,025,43,68,09,277,42,1*77
$GLGSV,3,3,09,65,07,077,35,1*43
$GAGSV,3,1,09,04,73,302,36,11,60,269,38,10,57,210,42,12,38,182,38,7*72
$GAGSV,3,2,09,19,36,056,29,09,27,256,45,36,23,319,37,21,14,077,41,7*7A
$GAGSV,3,3,09,27,02,030,17,7*48
$GAGSV,2,1,08,04,73,302,37,11,60,269,40,10,57,210,46,12,38,182,45,1*74
$GAGSV,2,2,08,19,36,056,26,09,27,256,35,36,23,319,33,21,14,077,40,1*71
$GBGSV,3,1,10,32,58,059,44,20,50,303,41,23,38,080,47,37,33,147,46,1*72
$GBGSV,3,2,10,29,28,274,47,30,19,216,48,41,10,089,46,25,09,036,41,1*7E
$GBGSV,3,3,10,19,06,281,45,40,02,321,14,1*70
$GBGSV,3,1,09,32,58,059,28,20,50,303,38,23,38,080,42,37,33,147,45,5*7C
$GBGSV,3,2,09,29,28,274,35,30,19,216,44,41,10,089,41,25,09,036,29,5*72
$GBGSV,3,3,09,19,06,281,37,5*4A
$GNGGA,063917.000,4005.098590,N,10513.208814,W,2,57,0.45,1584.657,M,-20.670,M,,*75
$GPGSV,4,1,13,32,65,034,43,28,59,165,47,10,50,102,44,21,47,285,39,1*64
$GPGSV,4,2,13,48,39,209,47,02,36,302,36,31,32,190,50,23,15,114,44,1*62
$GPGSV,4,3,13,25,14,091,32,19,09,061,,12,09,061,41,03,03,302,,1*65
$GPGSV,4,4,13,08,03,245,18,1*57
$GPGSV,2,1,05,32,65,034,28,28,59,165,44,10,50,102,41,23,15,114,43,8*64
$GPGSV,2,2,05,25,14,091,45,8*53
$GLGSV,3,1,09,67,48,313,41,66,47,041,42,82,46,270,45,76,37,082,39,1*73
$GLGSV,3,2,09,81,27,211,49,77,26,137,36,75,11,025,43,68,09,277,42,1*76
$GLGSV,3,3,09,65,07,077,35,1*43
$GAGSV,3,1,09,04,73,302,36,11,60,269,38,10,57,210,42,12,38,182,38,7*72
$GAGSV,3,2,09,19,36,056,28,09,27,256,45,36,23,319,37,21,14,077,40,7*7A
$GAGSV,3,3,09,27,02,030,17,7*48
$GAGSV,2,1,08,04,73,302,37,11,60,269,40,10,57,210,46,12,38,182,45,1*74
$GAGSV,2,2,08,19,36,056,25,09,27,256,35,36,23,319,34,21,14,077,40,1*75
$GBGSV,3,1,10,32,58,059,44,20,50,303,41,23,38,080,47,37,33,147,47,1*73
$GBGSV,3,2,10,29,28,274,47,30,19,216,48,41,10,089,46,25,09,036,41,1*7E
$GBGSV,3,3,10,19,06,281,45,40,02,321,13,1*77
$GBGSV,3,1,09,32,58,059,29,20,50,303,38,23,38,080,42,37,33,147,46,5*7E
$GBGSV,3,2,09,29,28,274,35,30,19,216,44,41,10,089,40,25,09,036,30,5*7B
$GBGSV,3,3,09,19,06,281,37,5*4A
$GNGGA,063922.000,4005.098566,N,10513.208844,W,2,57,0.45,1584.431,M,-20.670,M,,*7D
$GPGSV,4,1,13,32,65,034,43,28,59,165,47,10,50,102,44,21,47,283,40,1*6C
$GPGSV,4,2,13,48,39,209,47,02,36,302,35,31,32,190,50,25,15,090,31,1*68
$GPGSV,4,3,13,23,15,115,44,19,09,061,,12,09,061,41,03,03,302,,1*6E
$GPGSV,4,4,13,08,03,245,18,1*57
$GPGSV,2,1,05,32,65,034,28,28,59,165,44,10,50,102,41,25,15,090,45,8*69
$GPGSV,2,2,05,23,15,115,43,8*5F
$GLGSV,3,1,09,67,48,313,41,66,47,041,41,82,46,270,44,76,37,082,39,1*71
$GLGSV,3,2,09,81,27,211,49,77,26,137,36,75,11,025,45,68,09,277,42,1*70
$GLGSV,3,3,09,65,07,077,35,1*43
$GAGSV,3,1,09,04,73,302,36,11,60,269,38,10,57,210,42,12,38,182,38,7*72
$GAGSV,3,2,09,19,36,056,28,09,27,256,45,36,23,319,37,21,14,077,40,7*7A
$GAGSV,3,3,09,27,02,030,17,7*48
$GAGSV,2,1,08,04,73,302,36,11,60,269,40,10,57,210,46,12,38,182,45,1*75
$GAGSV,2,2,08,19,36,056,24,09,27,256,35,36,23,319,36,21,14,077,40,1*76
$GBGSV,3,1,10,32,58,059,44,20,50,303,41,23,38,080,47,37,33,147,47,1*73
$GBGSV,3,2,10,29,28,274,47,30,19,216,48,41,10,089,46,25,09,036,41,1*7E
$GBGSV,3,3,10,19,06,281,45,40,02,321,13,1*77
$GBGSV,3,1,09,32,58,059,29,20,50,303,38,23,38,080,42,37,33,147,46,5*7E
$GBGSV,3,2,09,29,28,274,35,30,19,216,44,41,10,089,40,25,09,036,30,5*7B
$GBGSV,3,3,09,19,06,281,36,5*4B
$GNGGA,063927.000,4005.098536,N,10513.208778,W,2,57,0.45,1584.253,M,-20.670,M,,*7F
$GPGSV,4,1,13,32,65,034,43,28,61,164,47,10,50,102,43,21,47,283,40,1*61
$GPGSV,4,2,13,48,39,209,47,02,36,302,35,31,32,190,50,25,15,090,31,1*68
$GPGSV,4,3,13,23,15,115,44,19,09,061,,12,09,061,41,03,03,302,,1*6E
$GPGSV,4,4,13,08,03,245,22,1*5E
$GPGSV,2,1,05,32,65,034,28,28,61,164,44,10,50,102,41,25,15,090,45,8*63
$GPGSV,2,2,05,23,15,115,43,8*5F
$GLGSV,3,1,09,67,48,313,41,66,47,041,41,82,46,270,44,76,37,082,37,1*7F
$GLGSV,3,2,09,81,27,211,49,77,26,137,36,75,11,025,45,68,09,277,42,1*70
$GLGSV,3,3,09,65,07,077,36,1*40
$GAGSV,3,1,09,04,73,302,36,11,60,269,38,10,57,210,42,12,38,182,39,7*73
$GAGSV,3,2,09,19,36,056,28,09,27,256,45,36,23,319,37,21,14,077,40,7*7A
$GAGSV,3,3,09,27,02,030,17,7*48
$GAGSV,2,1,08,04,73,302,36,11,60,269,40,10,57,210,46,12,38,182,45,1*75
$GAGSV,2,2,08,19,36,056,23,09,27,256,35,36,23,319,36,21,14,077,40,1*71
$GBGSV,3,1,10,32,58,059,44,20,50,303,41,23,38,080,46,37,33,147,47,1*72
$GBGSV,3,2,10,29,28,274,47,30,19,216,48,41,10,089,46,25,09,036,41,1*7E
$GBGSV,3,3,10,19,06,281,45,40,02,321,13,1*77
$GBGSV,3,1,09,32,58,059,29,20,50,303,37,23,38,080,42,37,33,147,46,5*71
$GBGSV,3,2,09,29,28,274,34,30,19,216,43,41,10,089,40,25,09,036,31,5*7C
$GBGSV,3,3,09,19,06,281,36,5*4B
$GNGGA,063932.000,4005.098476,N,10513.208646,W,2,57,0.45,1584.158,M,-20.670,M,,*7A
$GPGSV,4,1,13,32,64,036,43,28,61,164,47,10,50,102,43,21,47,283,40,1*62
$GPGSV,4,2,13,48,39,209,47,02,36,302,36,31,33,190,50,25,15,090,33,1*68
$GPGSV,4,3,13,23,15,115,44,19,09,061,,12,09,061,40,03,03,302,,1*6F
$GPGSV,4,4,13,08,03,245,20,1*5C
$GPGSV,2,1,05,32,64,036,28,28,61,164,43,10,50,102,41,25,15,090,45,8*67
$GPGSV,2,2,05,23,15,115,43,8*5F
$GLGSV,3,1,09,67,48,313,41,66,47,041,41,82,46,270,45,76,37,082,36,1*7F
$GLGSV,3,2,09,81,27,211,49,77,26,137,36,75,11,025,45,68,09,277,42,1*70
$GLGSV,3,3,09,65,07,077,36,1*40
$GAGSV,3,1,09,04,73,302,35,11,60,269,38,10,57,210,42,12,38,182,39,7*70
$GAGSV,3,2,09,19,36,056,29,09,27,256,45,36,23,319,36,21,14,077,41,7*7B
$GAGSV,3,3,09,27,02,030,17,7*48
$GAGSV,2,1,08,04,73,302,36,11,60,269,40,10,57,210,46,12,38,182,45,1*75
$GAGSV,2,2,08,19,36,056,23,09,27,256,35,36,23,319,37,21,14,077,40,1*70
$GBGSV,3,1,10,32,58,059,44,20,50,303,40,23,38,080,46,37,33,147,47,1*73
$GBGSV,3,2,10,29,28,274,47,30,19,216,48,41,10,089,46,25,09,036,41,1*7E
$GBGSV,3,3,10,19,06,281,45,40,02,321,14,1*70
$GBGSV,3,1,09,32,58,059,29,20,50,303,37,23,38,080,42,37,33,147,46,5*71
$GBGSV,3,2,09,29,28,274,34,30,19,216,43,41,10,089,40,25,09,036,31,5*7C
$GBGSV,3,3,09,19,06,281,35,5*48
$GNGGA,063937.000,4005.098434,N,10513.208538,W,2,57,0.45,1584.161,M,-20.670,M,,*79
$GPGSV,4,1,13,32,64,036,43,28,61,164,46,10,50,102,43,21,47,283,40,1*63
$GPGSV,4,2,13,48,39,209,47,02,36,302,37,31,33,190,50,25,15,090,33,1*69
$GPGSV,4,3,13,23,15,115,43,19,09,061,,12,09,061,40,03,03,302,25,1*6F
$GPGSV,4,4,13,08,03,245,20,1*5C
$GPGSV,2,1,06,32,64,036,28,28,61,164,43,10,50,102,41,23,15,115,43,8*68
$GPGSV,2,2,06,25,15,090,45,03,03,302,30,8*62
$GLGSV,3,1,09,67,48,313,41,66,47,041,41,82,46,270,44,76,37,082,35,1*7D
$GLGSV,3,2,09,81,27,211,49,77,26,137,36,75,11,025,45,68,09,277,41,1*73
$GLGSV,3,3,09,65,07,077,34,1*42
$GAGSV,3,1,09,04,73,302,35,11,60,269,38,10,57,210,42,12,38,182,39,7*70
$GAGSV,3,2,09,19,36,056,29,09,27,256,45,36,23,319,36,21,14,077,41,7*7B
$GAGSV,3,3,09,27,02,030,16,7*49
$GAGSV,2,1,08,04,73,302,36,11,60,269,40,10,57,210,46,12,38,182,45,1*75
$GAGSV,2,2,08,19,36,056,22,09,27,256,35,36,23,319,36,21,14,077,40,1*70
$GBGSV,3,1,10,32,58,059,44,20,50,303,40,23,38,080,46,37,33,147,47,1*73
$GBGSV,3,2,10,29,28,274,47,30,19,216,48,41,10,089,46,25,09,036,39,1*71
$GBGSV,3,3,10,19,06,281,45,40,02,321,15,1*71
$GBGSV,3,1,09,32,58,059,29,20,50,303,37,23,38,080,42,37,33,147,46,5*71
$GBGSV,3,2,09,29,28,274,34,30,19,216,43,41,10,089,40,25,09,036,31,5*7C
$GBGSV,3,3,09,19,06,281,35,5*48
$GNGGA,063942.000,4005.098410,N,10513.208514,W,2,57,0.45,1584.152,M,-20.670,M,,*73
$GPGSV,4,1,13,32,64,036,43,28,61,164,46,10,50,102,43,21,47,283,40,1*63
$GPGSV,4,2,13,48,39,209,47,02,36,302,38,31,33,190,50,25,15,090,33,1*66
$GPGSV,4,3,13,23,15,115,43,19,09,061,,12,09,061,40,03,03,302,27,1*6D
$GPGSV,4,4,13,08,03,245,20,1*5C
$GPGSV,2,1,06,32,64,036,28,28,61,164,43,10,50,102,41,23,15,115,43,8*68
$GPGSV,2,2,06,25,15,090,45,03,03,302,30,8*62
$GLGSV,3,1,09,67,48,313,41,66,47,041,41,82,46,270,44,76,37,082,36,1*7E
$GLGSV,3,2,09,81,27,211,50,77,26,137,36,75,11,025,45,68,09,277,41,1*7B
$GLGSV,3,3,09,65,07,077,32,1*44
$GAGSV,3,1,09,04,73,306,36,11,60,269,38,10,57,210,42,12,38,182,39,7*77
$GAGSV,3,2,09,19,36,056,29,09,27,256,45,36,23,319,37,21,14,077,41,7*7A
$GAGSV,3,3,09,27,02,030,17,7*48
$GAGSV,2,1,08,04,73,306,36,11,60,269,40,10,57,210,46,12,38,182,45,1*71
$GAGSV,2,2,08,19,36,056,22,09,27,256,35,36,23,319,34,21,14,077,40,1*72
$GBGSV,3,1,10,32,58,059,44,20,50,303,40,23,38,080,46,37,33,147,47,1*73
$GBGSV,3,2,10,29,28,274,47,30,19,216,48,41,10,089,45,25,09,036,37,1*7C
$GBGSV,3,3,10,19,06,281,45,40,02,321,17,1*73
$GBGSV,3,1,09,32,58,059,29,20,50,303,37,23,38,080,42,37,33,147,46,5*71
$GBGSV,3,2,09,29,28,274,34,30,19,216,43,41,10,089,40,25,09,036,31,5*7C
$GBGSV,3,3,09,19,06,281,35,5*48
$GNGGA,063947.000,4005.098398,N,10513.208496,W,2,57,0.45,1584.068,M,-20.670,M,,*72
$GPGSV,4,1,13,32,64,036,43,28,61,164,46,10,50,102,42,21,47,283,40,1*62
$GPGSV,4,2,13,48,39,209,47,02,36,302,39,31,33,190,50,25,15,090,33,1*67
$GPGSV,4,3,13,23,15,115,42,19,09,061,,12,09,061,40,03,03,302,29,1*62
$GPGSV,4,4,13,08,03,245,22,1*5E
$GPGSV,2,1,06,32,64,036,28,28,61,164,43,10,50,102,41,23,15,115,43,8*68
$GPGSV,2,2,06,25,15,090,45,03,03,302,32,8*60
$GLGSV,3,1,09,67,48,313,40,66,47,041,41,82,46,270,44,76,37,082,37,1*7E
$GLGSV,3,2,09,81,27,211,50,77,26,137,36,75,11,025,43,68,09,277,40,1*7C
$GLGSV,3,3,09,65,07,077,31,1*47
$GAGSV,3,1,09,04,73,306,36,11,60,267,38,10,56,209,42,12,38,182,39,7*70
$GAGSV,3,2,09,19,36,056,30,09,28,257,45,36,23,319,37,21,14,077,41,7*7C
$GAGSV,3,3,09,27,02,030,17,7*48
$GAGSV,2,1,08,04,73,306,36,11,60,267,40,10,56,209,46,12,38,182,45,1*76
$GAGSV,2,2,08,19,36,056,21,09,28,257,35,36,23,319,32,21,14,077,40,1*79
$GBGSV,3,1,10,32,58,059,44,20,50,303,40,23,38,080,47,37,33,147,47,1*72
$GBGSV,3,2,10,29,28,274,47,30,19,216,48,41,10,089,45,25,09,036,36,1*7D
$GBGSV,3,3,10,19,06,281,45,40,02,321,17,1*73
$GBGSV,3,1,09,32,58,059,29,20,50,303,37,23,38,080,42,37,33,147,46,5*71
$GBGSV,3,2,09,29,28,274,34,30,19,216,43,41,10,089,40,25,09,036,31,5*7C
$GBGSV,3,3,09,19,06,281,35,5*48
$GNGGA,063952.000,4005.098368,N,10513.208400,W,2,57,0.45,1583.845,M,-20.669,M,,*7E
$GPGSV,4,1,13,32,64,036,43,28,61,164,46,10,50,102,42,21,47,283,40,1*62
$GPGSV,4,2,13,48,39,209,47,02,36,302,39,31,33,190,50,25,15,090,31,1*65
$GPGSV,4,3,13,23,15,115,42,19,09,061,,12,09,061,40,03,03,302,31,1*6B
$GPGSV,4,4,13,08,03,245,24,1*58
$GPGSV,2,1,06,32,64,036,27,28,61,164,43,10,50,102,41,23,15,115,43,8*67
$GPGSV,2,2,06,25,15,090,45,03,03,302,33,8*61
$GLGSV,3,1,09,67,48,313,39,66,47,041,41,82,46,270,45,76,37,082,38,1*7E
$GLGSV,3,2,09,81,27,211,50,77,26,137,36,75,11,025,42,68,09,277,40,1*7D
$GLGSV,3,3,09,65,07,077,33,1*45
$GAGSV,3,1,09,04,73,306,36,11,60,267,38,10,56,209,42,12,37,182,40,7*71
$GAGSV,3,2,09,19,36,056,31,09,28,257,45,36,23,319,36,21,14,077,41,7*7C
$GAGSV,3,3,09,27,02,030,17,7*48
$GAGSV,2,1,08,04,73,306,36,11,60,267,40,10,56,209,46,12,37,182,45,1*79
$GAGSV,2,2,08,19,36,056,20,09,28,257,36,36,23,319,30,21,14,077,40,1*79
$GBGSV,3,1,10,32,58,059,44,20,50,303,40,23,38,080,47,37,33,147,47,1*72
$GBGSV,3,2,10,29,28,274,47,30,19,216,48,41,10,089,45,25,09,036,36,1*7D
$GBGSV,3,3,10,19,06,281,45,40,02,321,17,1*73
$GBGSV,3,1,09,32,58,059,29,20,50,303,37,23,38,080,42,37,33,147,46,5*71
$GBGSV,3,2,09,29,28,274,34,30,19,216,43,41,10,089,40,25,09,036,32,5*7F
$GBGSV,3,3,09,19,06,281,35,5*48
$GNGGA,063957.000,4005.098368,N,10513.208436,W,2,57,0.45,1583.757,M,-20.670,M,,*7A
$GPGSV,4,1,13,32,64,036,43,28,61,164,46,10,50,102,42,21,47,283,40,1*62
$GPGSV,4,2,13,48,39,209,47,02,36,302,39,31,33,190,50,25,15,090,29,1*6C
$GPGSV,4,3,13,23,15,115,42,19,09,061,,12,09,061,40,03,03,302,32,1*68
$GPGSV,4,4,13,08,03,245,32,1*5F
$GPGSV,2,1,06,32,64,036,26,28,61,164,43,10,50,102,40,23,15,115,43,8*67
$GPGSV,2,2,06,25,15,090,45,03,03,302,33,8*61
$GLGSV,3,1,09,67,48,313,40,66,47,041,41,82,46,270,45,76,37,082,36,1*7E
$GLGSV,3,2,09,81,27,211,50,77,26,137,36,75,11,025,42,68,09,277,40,1*7D
$GLGSV,3,3,09,65,07,077,33,1*45
$GAGSV,3,1,09,04,73,306,36,11,60,267,38,10,56,209,42,12,37,182,40,7*71
$GAGSV,3,2,09,19,35,056,31,09,28,257,45,36,23,319,34,21,14,076,41,7*7C
$GAGSV,3,3,09,27,02,030,17,7*48
$GAGSV,2,1,08,04,73,306,36,11,60,267,39,10,56,209,46,12,37,182,45,1*77
$GAGSV,2,2,08,19,35,056,19,09,28,257,36,36,23,319,30,21,14,076,40,1*71
$GBGSV,3,1,10,32,58,059,44,20,50,303,40,23,38,080,47,37,33,147,47,1*72
$GBGSV,3,2,10,29,28,274,47,30,19,216,48,41,10,089,45,25,09,036,37,1*7C
$GBGSV,3,3,10,19,06,281,45,40,02,321,17,1*73
$GBGSV,3,1,09,32,58,059,29,20,50,303,36,23,38,080,42,37,33,147,46,5*70
$GBGSV,3,2,09,29,28,274,33,30,19,216,42,41,10,089,40,25,09,036,31,5*7A
$GBGSV,3,3,09,19,06,281,35,5*48
$GNGGA,064002.000,4005.098350,N,10513.208526,W,2,57,0.45,1583.752,M,-20.670,M,,*7A
$GPGSV,4,1,13,32,64,036,43,28,61,164,46,10,50,102,42,21,47,283,40,1*62
$GPGSV,4,2,13,48,39,209,47,02,36,302,39,31,33,190,50,25,15,090,25,1*60
$GPGSV,4,3,13,23,15,115,42,19,09,061,,12,09,061,40,03,03,302,33,1*69
$GPGSV,4,4,13,08,03,245,32,1*5F
$GPGSV,2,1,06,32,64,036,26,28,61,164,43,10,50,102,40,23,15,115,43,8*67
$GPGSV,2,2,06,25,15,090,44,03,03,302,34,8*67
$GLGSV,3,1,09,67,48,313,41,66,47,041,41,82,46,270,44,76,37,082,37,1*7F
$GLGSV,3,2,09,81,27,211,50,77,26,137,36,75,11,025,42,68,09,277,38,1*72
$GLGSV,3,3,09,65,07,077,34,1*42
$GAGSV,3,1,09,04,73,306,36,11,60,267,39,10,56,209,42,12,37,182,40,7*70
$GAGSV,3,2,09,19,35,056,32,09,28,257,45,36,23,319,34,21,14,076,41,7*7F
$GAGSV,3,3,09,27,02,030,14,7*4B
$GAGSV,2,1,08,04,73,306,36,11,60,267,39,10,56,209,46,12,37,182,45,1*77
$GAGSV,2,2,08,19,35,056,18,09,28,257,36,36,23,319,31,21,14,076,40,1*71
$GBGSV,3,1,10,32,58,059,44,20,50,303,40,23,38,080,47,37,33,147,47,1*72
$GBGSV,3,2,10,29,28,274,47,30,19,216,48,41,10,089,45,25,09,036,37,1*7C
$GBGSV,3,3,10,19,06,281,44,40,02,321,18,1*7D
$GBGSV,3,1,09,32,58,059,29,20,50,303,36,23,38,080,42,37,33,147,46,5*70
$GBGSV,3,2,09,29,28,274,32,30,19,216,42,41,10,089,40,25,09,036,31,5*7B
$GBGSV,3,3,09,19,06,281,35,5*48
$GNGGA,064007.000,4005.098338,N,10513.208604,W,2,57,0.45,1583.626,M,-20.670,M,,*70
$GPGSV,4,1,13,32,64,036,44,28,61,164,46,10,50,102,42,21,47,283,40,1*65
$GPGSV,4,2,13,48,39,209,47,02,36,302,38,31,33,190,50,25,15,090,27,1*63
$GPGSV,4,3,13,23,15,115,42,19,09,061,,12,09,061,40,03,03,302,33,1*69
$GPGSV,4,4,13,08,03,245,29,1*55
$GPGSV,2,1,06,32,64,036,25,28,61,164,43,10,50,102,40,23,15,115,43,8*64
$GPGSV,2,2,06,25,15,090,44,03,03,302,34,8*67
$GLGSV,3,1,09,67,48,313,41,66,47,041,41,82,46,270,44,76,37,082,37,1*7F
$GLGSV,3,2,09,81,27,211,49,77,26,137,36,75,11,025,42,68,09,277,37,1*75
$GLGSV,3,3,09,65,07,077,34,1*42
$GAGSV,3,1,09,04,73,306,36,11,60,267,39,10,56,209,42,12,37,182,40,7*70
$GAGSV,3,2,09,19,35,056,32,09,28,257,45,36,23,319,34,21,14,076,41,7*7F
$GAGSV,3,3,09,27,02,029,09,7*4F
$GAGSV,2,1,08,04,73,306,36,11,60,267,39,10,56,209,45,12,37,182,45,1*74
$GAGSV,2,2,08,19,35,056,17,09,28,257,36,36,23,319,32,21,14,076,40,1*7D
$GBGSV,3,1,10,32,58,059,44,20,50,303,40,23,38,080,46,37,33,147,47,1*73
$GBGSV,3,2,10,29,28,274,47,30,19,216,48,41,10,089,44,25,09,036,38,1*72
$GBGSV,3,3,10,19,06,281,43,40,02,321,18,1*7A
$GBGSV,3,1,09,32,58,059,29,20,50,303,36,23,38,080,42,37,33,147,46,5*70
$GBGSV,3,2,09,29,28,274,32,30,19,216,42,41,10,089,40,25,09,036,30,5*7A
$GBGSV,3,3,09,19,06,281,35,5*48
$GNGGA,064012.000,4005.098332,N,10513.208598,W,2,57,0.45,1583.482,M,-20.670,M,,*74
$GPGSV,4,1,13,32,64,036,44,28,61,164,46,10,50,102,42,21,47,283,40,1*65
$GPGSV,4,2,13,48,39,209,47,02,36,302,38,31,33,190,50,25,15,090,28,1*6C
$GPGSV,4,3,13,23,15,115,40,19,09,061,,12,09,061,40,03,03,302,34,1*6C
$GPGSV,4,4,13,08,03,245,26,1*5A
$GPGSV,2,1,06,32,64,036,25,28,61,164,42,10,50,102,39,23,15,115,43,8*6B
$GPGSV,2,2,06,25,15,090,43,03,03,302,34,8*60
$GLGSV,3,1,09,67,48,313,41,66,47,041,41,82,46,270,44,76,37,082,37,1*7F
$GLGSV,3,2,09,81,27,211,49,77,26,137,36,75,11,025,41,68,09,277,36,1*77
$GLGSV,3,3,09,65,07,077,35,1*43
$GAGSV,3,1,09,04,73,306,36,11,60,267,39,10,56,209,42,12,37,182,40,7*70
$GAGSV,3,2,09,19,35,056,33,09,28,257,45,36,24,319,35,21,14,076,41,7*78
$GAGSV,3,3,09,27,02,029,09,7*4F
$GAGSV,2,1,08,04,73,306,36,11,60,267,39,10,56,209,45,12,37,182,44,1*75
$GAGSV,2,2,08,19,35,056,16,09,28,257,36,36,24,319,33,21,14,076,40,1*7A
$GBGSV,3,1,10,32,58,059,44,20,50,303,40,23,38,080,46,37,33,147,47,1*73
$GBGSV,3,2,10,29,28,274,47,30,19,216,48,41,10,089,44,25,09,036,38,1*72
$GBGSV,3,3,10,19,06,281,43,40,02,321,18,1*7A
$GBGSV,3,1,09,32,58,059,29,20,50,303,35,23,38,080,41,37,33,147,46,5*70
$GBGSV,3,2,09,29,28,274,32,30,19,216,41,41,10,089,40,25,09,036,30,5*79
$GBGSV,3,3,09,19,06,281,35,5*48
$GNGGA,064017.000,4005.098320,N,10513.208634,W,2,57,0.45,1583.202,M,-20.669,M,,*71
$GPGSV,4,1,13,32,64,036,43,28,61,164,46,10,50,102,42,21,47,283,40,1*62
$GPGSV,4,2,13,48,39,209,47,02,36,302,38,31,33,190,50,25,15,090,29,1*6D
$GPGSV,4,3,13,23,15,115,40,19,09,061,,12,09,061,39,03,03,302,34,1*62
$GPGSV,4,4,13,08,03,245,18,1*57
$GPGSV,2,1,06,32,64,036,26,28,61,164,43,10,50,102,40,23,15,115,44,8*60
$GPGSV,2,2,06,25,15,090,44,03,03,302,35,8*66
$GLGSV,3,1,09,67,49,315,40,82,46,270,44,66,46,043,41,76,37,082,37,1*7A
$GLGSV,3,2,09,81,27,211,49,77,26,137,36,75,11,025,41,68,10,279,36,1*71
$GLGSV,3,3,09,65,07,078,35,1*4C
$GAGSV,3,1,09,04,73,306,36,11,60,267,39,10,56,209,42,12,37,182,40,7*70
$GAGSV,3,2,09,19,35,056,33,09,28,257,45,36,24,319,36,21,14,076,41,7*7B
$GAGSV,3,3,09,27,02,029,07,7*41
$GAGSV,2,1,08,04,73,306,37,11,60,267,39,10,56,209,45,12,37,182,44,1*74
$GAGSV,2,2,08,19,35,056,15,09,28,257,37,36,24,319,35,21,14,076,41,1*7F
$GBGSV,3,1,10,32,58,059,44,20,50,303,40,23,38,080,46,37,33,147,48,1*7C
$GBGSV,3,2,10,29,28,274,47,30,19,216,48,41,10,089,44,25,09,036,38,1*72
$GBGSV,3,3,10,19,06,281,43,40,02,321,16,1*74
$GBGSV,3,1,09,32,58,059,30,20,50,303,35,23,38,080,42,37,33,147,46,5*7B
$GBGSV,3,2,09,29,28,274,33,30,19,216,41,41,10,089,40,25,09,036,30,5*78
$GBGSV,3,3,09,19,06,281,36,5*4B
$GNGGA,064022.000,4005.098308,N,10513.208670,W,2,56,0.45,1583.204,M,-20.670,M,,*72
$GPGSV,4,1,13,32,64,036,43,28,61,164,46,10,50,102,42,21,47,283,40,1*62
