$GNRMC,003637.000,A,4005.098836,N,10513.208202,W,0.00,327.49,030424,,,D,V*17
$GNVTG,327.49,T,,M,0.00,N,0.01,K,D*2C
$GNGGA,003637.000,4005.098836,N,10513.208202,W,2,55,0.45,1584.588,M,-20.670,M,,*71
$GNGSA,A,3,29,05,18,15,13,20,23,26,25,11,,,0.76,0.45,0.61,1*07
$GNGSA,A,3,71,86,72,87,70,77,78,85,,,,,0.76,0.45,0.61,2*02
$GNGSA,A,3,33,26,31,07,24,12,08,13,,,,,0.76,0.45,0.61,3*0A
$GNGSA,A,3,28,33,14,43,42,41,27,11,46,,,,0.76,0.45,0.61,4*0F
$GPGSV,4,1,14,29,87,212,42,05,56,047,36,18,42,294,35,48,39,209,46,1*6E
$GPGSV,4,2,14,15,38,148,45,13,32,103,43,20,23,051,36,23,22,227,50,1*63
$GPGSV,4,3,14,26,19,300,37,25,16,204,43,11,07,084,36,16,04,328,30,1*6B
$GPGSV,4,4,14,19,01,180,,12,01,180,45,1*6B
$GPGSV,2,1,05,18,42,294,40,23,22,227,43,26,19,300,31,25,16,204,46,8*67
$GPGSV,2,2,05,11,07,084,39,8*59
$GLGSV,3,1,09,71,59,069,39,86,52,067,41,72,48,164,46,87,48,333,37,1*7D
$GLGSV,3,2,09,70,17,030,32,77,15,262,34,78,13,320,36,85,11,103,38,1*7B
$GLGSV,3,3,09,76,01,222,,1*43
$GAGSV,3,1,09,33,60,317,37,26,52,061,39,31,35,268,42,07,35,078,39,7*7B
$GAGSV,3,2,09,24,15,318,30,12,13,280,35,08,07,033,35,13,05,086,38,7*76
$GAGSV,3,3,09,19,04,179,35,7*4F
$GAGSV,3,1,09,33,60,317,37,26,52,061,30,31,35,268,35,07,35,078,38,1*75
$GAGSV,3,2,09,24,15,318,40,12,13,280,34,08,07,033,36,13,05,086,31,1*7C
$GAGSV,3,3,09,19,04,179,45,1*4E
$GBGSV,3,1,10,28,74,338,43,33,68,125,45,14,54,066,45,43,38,112,42,1*77
$GBGSV,3,2,10,42,31,047,45,41,31,194,48,27,28,306,41,11,14,113,38,1*75
$GBGSV,3,3,10,46,06,293,33,37,04,244,51,1*7D
$GBGSV,2,1,08,28,74,338,36,33,68,125,42,43,38,112,38,41,31,194,46,5*7F
$GBGSV,2,2,08,42,31,047,30,27,28,306,24,46,06,293,38,37,04,244,37,5*73
$GNGLL,4005.098836,N,10513.208202,W,003637.000,A,D*50
$GNRMC,003638.000,A,4005.098848,N,10513.208202,W,0.01,327.49,030424,,,D,V*10
$GNVTG,327.49,T,,M,0.01,N,0.01,K,D*2D
$GNGGA,003638.000,4005.098848,N,10513.208202,W,2,55,0.45,1584.613,M,-20.670,M,,*76
$GNGSA,A,3,29,05,18,15,13,20,23,26,25,11,,,0.76,0.45,0.61,1*07
$GNGSA,A,3,71,86,72,87,70,77,78,85,,,,,0.76,0.45,0.61,2*02
$GNGSA,A,3,33,26,31,07,24,12,08,13,,,,,0.76,0.45,0.61,3*0A
$GNGSA,A,3,28,33,14,43,42,41,27,11,46,,,,0.76,0.45,0.61,4*0F
$GPGSV,4,1,14,29,87,212,42,05,56,047,36,18,42,294,35,48,39,209,46,1*6E
$GPGSV,4,2,14,15,38,148,45,13,32,103,43,20,23,051,36,23,22,227,50,1*63
$GPGSV,4,3,14,26,19,300,37,25,16,204,43,11,07,084,37,16,04,328,30,1*6A
$GPGSV,4,4,14,19,01,180,,12,01,180,44,1*6A
$GPGSV,2,1,05,18,42,294,40,23,22,227,43,26,19,300,31,25,16,204,46,8*67
$GPGSV,2,2,05,11,07,084,39,8*59
$GLGSV,3,1,09,71,59,069,39,86,52,067,41,72,48,164,46,87,48,333,37,1*7D
$GLGSV,3,2,09,70,17,030,32,77,15,262,34,78,13,320,36,85,11,103,38,1*7B
$GLGSV,3,3,09,76,01,222,,1*43
$GAGSV,3,1,09,33,60,317,37,26,52,061,39,31,35,268,42,07,35,078,39,7*7B
$GAGSV,3,2,09,24,15,318,29,12,13,280,35,08,07,033,35,13,05,086,38,7*7E
$GAGSV,3,3,09,19,04,179,35,7*4F
$GAGSV,3,1,09,33,60,317,37,26,52,061,30,31,35,268,35,07,35,078,38,1*75
$GAGSV,3,2,09,24,15,318,40,12,13,280,34,08,07,033,36,13,05,086,31,1*7C
$GAGSV,3,3,09,19,04,179,45,1*4E
$GBGSV,3,1,10,28,74,338,43,33,68,125,45,14,54,066,45,43,38,112,42,1*77
$GBGSV,3,2,10,42,31,047,45,41,31,194,48,27,28,306,41,11,14,113,38,1*75
$GBGSV,3,3,10,46,06,293,33,37,04,244,51,1*7D
$GBGSV,2,1,08,28,74,338,36,33,68,125,42,43,38,112,38,41,31,194,46,5*7F
$GBGSV,2,2,08,42,31,047,30,27,28,306,24,46,06,293,38,37,04,244,37,5*73
$GNGLL,4005.098848,N,10513.208202,W,003638.000,A,D*56
$GNRMC,003639.000,A,4005.098866,N,10513.208202,W,0.00,327.49,030424,,,D,V*1C
$GNVTG,327.49,T,,M,0.00,N,0.01,K,D*2C
$GNGGA,003639.000,4005.098866,N,10513.208202,W,2,55,0.45,1584.659,M,-20.670,M,,*75
$GNGSA,A,3,29,05,18,15,13,20,23,26,25,11,,,0.76,0.45,0.61,1*07
$GNGSA,A,3,71,86,72,87,70,77,78,85,,,,,0.76,0.45,0.61,2*02
$GNGSA,A,3,33,26,31,07,24,12,08,13,,,,,0.76,0.45,0.61,3*0A
$GNGSA,A,3,28,33,14,43,42,41,27,11,46,,,,0.76,0.45,0.61,4*0F
$GPGSV,4,1,14,29,87,212,42,05,56,047,36,18,42,294,35,48,39,209,46,1*6E
$GPGSV,4,2,14,15,38,148,45,13,32,103,43,20,23,051,36,23,22,227,50,1*63
$GPGSV,4,3,14,26,19,300,37,25,16,204,43,11,07,084,37,16,04,328,30,1*6A
$GPGSV,4,4,14,19,01,180,,12,01,180,44,1*6A
$GPGSV,2,1,05,18,42,294,40,23,22,227,43,26,19,300,31,25,16,204,46,8*67
$GPGSV,2,2,05,11,07,084,39,8*59
$GLGSV,3,1,09,71,59,069,39,86,52,067,41,72,48,164,46,87,48,333,37,1*7D
$GLGSV,3,2,09,70,17,030,32,77,15,262,34,78,13,320,36,85,11,103,38,1*7B
$GLGSV,3,3,09,76,01,222,,1*43
$GAGSV,3,1,09,33,60,317,37,26,52,061,39,31,35,268,42,07,35,078,39,7*7B
$GAGSV,3,2,09,24,15,318,29,12,13,280,35,08,07,033,35,13,05,086,38,7*7E
$GAGSV,3,3,09,19,04,179,35,7*4F
$GAGSV,3,1,09,33,60,317,37,26,52,061,30,31,35,268,35,07,35,078,38,1*75
$GAGSV,3,2,09,24,15,318,40,12,13,280,34,08,07,033,36,13,05,086,31,1*7C
$GAGSV,3,3,09,19,04,179,45,1*4E
$GBGSV,3,1,10,28,74,338,43,33,68,122,45,14,54,066,45,43,38,112,42,1*70
$GBGSV,3,2,10,42,31,047,45,41,31,194,48,27,28,306,41,11,14,113,38,1*75
$GBGSV,3,3,10,46,06,293,33,37,04,244,51,1*7D
$GBGSV,2,1,08,28,74,338,36,33,68,122,42,43,38,112,38,41,31,194,46,5*78
$GBGSV,2,2,08,42,31,047,30,27,28,306,24,46,06,293,38,37,04,244,37,5*73
$GNGLL,4005.098866,N,10513.208202,W,003639.000,A,D*5B
$GNRMC,003640.000,A,4005.098878,N,10513.208190,W,0.01,327.49,030424,,,D,V*14
$GNVTG,327.49,T,,M,0.01,N,0.01,K,D*2D
$GNGGA,003640.000,4005.098878,N,10513.208190,W,2,55,0.45,1584.695,M,-20.670,M,,*7C
$GNGSA,A,3,29,05,18,15,13,20,23,26,25,11,,,0.76,0.45,0.61,1*07
$GNGSA,A,3,71,86,72,87,70,77,78,85,,,,,0.76,0.45,0.61,2*02
$GNGSA,A,3,33,26,31,07,24,12,08,13,,,,,0.76,0.45,0.61,3*0A
$GNGSA,A,3,28,33,14,43,42,41,27,11,46,,,,0.76,0.45,0.61,4*0F
$GPGSV,4,1,14,29,87,212,42,05,56,047,36,18,42,294,35,48,39,209,46,1*6E
$GPGSV,4,2,14,15,38,148,45,13,32,103,43,20,23,051,36,23,22,227,50,1*63
$GPGSV,4,3,14,26,19,300,37,25,16,204,43,11,07,084,37,16,04,328,30,1*6A
$GPGSV,4,4,14,12,01,180,44,19,01,180,,1*6A
$GPGSV,2,1,05,18,42,294,40,23,22,227,43,26,19,300,31,25,16,204,46,8*67
$GPGSV,2,2,05,11,07,084,39,8*59
$GLGSV,3,1,10,71,59,069,39,86,52,067,41,72,48,164,46,87,48,333,37,1*75
$GLGSV,3,2,10,70,17,030,32,77,15,262,35,78,13,320,36,85,11,103,38,1*72
$GLGSV,3,3,10,88,03,301,,76,01,222,,1*7A
$GAGSV,3,1,09,33,60,317,37,26,52,061,39,31,35,268,42,07,35,078,39,7*7B
$GAGSV,3,2,09,24,15,318,29,12,13,280,35,08,07,033,35,13,05,086,38,7*7E
$GAGSV,3,3,09,19,04,179,35,7*4F
$GAGSV,3,1,09,33,60,317,37,26,52,061,30,31,35,268,35,07,35,078,38,1*75
$GAGSV,3,2,09,24,15,318,40,12,13,280,34,08,07,033,36,13,05,086,31,1*7C
$GAGSV,3,3,09,19,04,179,45,1*4E
$GBGSV,3,1,10,28,74,338,43,33,68,122,45,14,54,066,45,43,38,112,42,1*70
$GBGSV,3,2,10,42,31,047,45,41,31,194,48,27,28,306,41,11,14,113,38,1*75
$GBGSV,3,3,10,46,06,293,33,37,04,244,51,1*7D
$GBGSV,2,1,08,28,74,338,36,33,68,122,42,43,38,112,38,41,31,194,46,5*78
$GBGSV,2,2,08,42,31,047,30,27,28,306,24,46,06,293,38,37,04,244,37,5*73
$GNGLL,4005.098878,N,10513.208190,W,003640.000,A,D*52
$PAIR001,062,0*3F
$PAIR001,062,0*3F
$PAIR001,062,0*3F
$PAIR001,062,0*3F
$PAIR001,062,0*3F
$PAIR001,062,0*3F
$PAIR001,062,0*3F
$PAIR001,062,0*3F
$PAIR001,062,0*3F
$GNGGA,003642.000,4005.098914,N,10513.208178,W,2,55,0.45,1584.800,M,-20.670,M,,*71
$GPGSV,4,1,14,29,87,212,42,05,56,047,36,18,42,294,35,48,39,209,46,1*6E
$GPGSV,4,2,14,15,38,148,45,13,32,103,43,20,23,051,36,23,22,227,50,1*63
$GPGSV,4,3,14,26,19,300,37,25,16,204,43,11,07,084,37,16,04,328,29,1*62
$GPGSV,4,4,14,12,01,180,43,19,01,180,,1*6D
$GPGSV,2,1,05,18,42,294,41,23,22,227,43,26,19,300,31,25,16,204,46,8*66
$GPGSV,2,2,05,11,07,084,39,8*59
$GLGSV,3,1,10,71,59,069,39,86,52,067,41,72,48,164,46,87,48,333,37,1*75
$GLGSV,3,2,10,70,17,030,32,77,15,262,34,78,13,320,37,85,11,103,38,1*72
$GLGSV,3,3,10,88,03,301,,76,01,222,,1*7A
$GAGSV,3,1,09,33,60,317,37,26,52,061,39,31,35,268,42,07,35,078,39,7*7B
$GAGSV,3,2,09,24,15,318,29,12,13,280,34,08,07,033,35,13,05,086,38,7*7F
$GAGSV,3,3,09,19,04,179,35,7*4F
$GAGSV,3,1,09,33,60,317,37,26,52,061,30,31,35,268,36,07,35,078,38,1*76
$GAGSV,3,2,09,24,15,318,40,12,13,280,34,08,07,033,36,13,05,086,31,1*7C
$GAGSV,3,3,09,19,04,179,45,1*4E
$GBGSV,3,1,10,28,74,338,43,33,68,122,45,14,54,066,45,43,38,112,42,1*70
$GBGSV,3,2,10,42,31,047,45,41,31,194,48,27,28,306,41,11,14,113,38,1*75
$GBGSV,3,3,10,46,06,293,32,37,04,244,51,1*7C
$GBGSV,2,1,08,28,74,338,36,33,68,122,42,43,38,112,38,41,31,194,46,5*78
$GBGSV,2,2,08,42,31,047,30,27,28,306,25,46,06,293,38,37,04,244,37,5*72
$GNGGA,003647.000,4005.098974,N,10513.208172,W,2,55,0.45,1585.074,M,-20.670,M,,*72
$GPGSV,4,1,14,29,87,212,42,05,56,047,36,18,42,294,35,48,39,209,47,1*6F
$GPGSV,4,2,14,15,38,148,45,13,32,103,43,20,23,051,36,23,22,227,50,1*63
$GPGSV,4,3,14,26,19,300,37,25,16,204,43,11,07,084,37,16,04,328,27,1*6C
$GPGSV,4,4,14,19,01,180,,12,01,180,40,1*6E
$GPGSV,2,1,05,18,42,294,41,23,22,227,44,26,19,300,32,25,16,204,46,8*62
$GPGSV,2,2,05,11,07,084,39,8*59
$GLGSV,3,1,09,71,59,069,39,86,52,067,40,72,48,164,46,87,48,333,37,1*7C
$GLGSV,3,2,09,70,17,030,32,77,15,262,35,78,13,320,38,85,11,103,39,1*75
$GLGSV,3,3,09,76,01,222,,1*43
$GAGSV,3,1,09,33,60,317,36,26,52,061,39,31,35,268,42,07,35,078,39,7*7A
$GAGSV,3,2,09,24,15,318,28,12,13,280,33,08,07,033,35,13,05,086,38,7*79
$GAGSV,3,3,09,19,04,179,35,7*4F
$GAGSV,3,1,09,33,60,317,37,26,52,061,30,31,35,268,36,07,35,078,38,1*76
$GAGSV,3,2,09,24,15,318,40,12,13,280,34,08,07,033,37,13,05,086,32,1*7E
$GAGSV,3,3,09,19,04,179,45,1*4E
$GBGSV,3,1,10,28,74,338,43,33,68,122,45,14,54,066,45,43,38,112,42,1*70
$GBGSV,3,2,10,41,33,194,48,42,31,047,45,27,28,306,41,11,14,113,38,1*77
$GBGSV,3,3,10,46,06,293,31,37,03,243,51,1*7F
$GBGSV,2,1,08,28,74,338,36,33,68,122,42,43,38,112,39,41,33,194,47,5*7A
$GBGSV,2,2,08,42,31,047,30,27,28,306,27,46,06,293,38,37,03,243,37,5*70
$GNGGA,003652.000,4005.099022,N,10513.208190,W,2,55,0.45,1585.320,M,-20.670,M,,*73
$GPGSV,4,1,14,29,87,212,42,05,56,047,37,18,42,294,35,48,39,209,47,1*6E
$GPGSV,4,2,14,15,38,148,45,13,32,103,44,20,23,051,36,23,22,227,50,1*64
$GPGSV,4,3,14,26,19,300,35,25,16,204,43,11,07,084,37,16,04,328,27,1*6E
$GPGSV,4,4,14,19,01,180,,12,01,180,39,1*60
$GPGSV,2,1,05,18,42,294,41,23,22,227,44,26,19,300,32,25,16,204,46,8*62
$GPGSV,2,2,05,11,07,084,39,8*59
$GLGSV,3,1,09,71,59,069,39,86,52,067,41,72,48,164,46,87,48,333,37,1*7D
$GLGSV,3,2,09,70,17,030,32,77,15,262,34,78,13,320,38,85,11,103,39,1*74
$GLGSV,3,3,09,76,01,222,,1*43
$GAGSV,3,1,09,33,60,317,36,26,52,061,39,31,35,268,42,07,35,078,39,7*7A
$GAGSV,3,2,09,24,15,318,26,12,13,280,33,08,07,033,35,13,05,086,38,7*77
$GAGSV,3,3,09,19,04,179,32,7*48
$GAGSV,3,1,09,33,60,317,37,26,52,061,29,31,35,268,36,07,35,078,38,1*7E
$GAGSV,3,2,09,24,15,318,40,12,13,280,34,08,07,033,37,13,05,086,31,1*7D
$GAGSV,3,3,09,19,04,179,45,1*4E
$GBGSV,3,1,10,28,74,338,43,33,68,122,45,14,54,066,45,43,37,113,42,1*7E
$GBGSV,3,2,10,41,33,194,48,42,30,046,45,27,28,306,41,11,14,113,38,1*77
$GBGSV,3,3,10,46,06,292,30,37,03,243,51,1*7F
$GBGSV,2,1,08,28,74,338,36,33,68,122,42,43,37,113,39,41,33,194,47,5*74
$GBGSV,2,2,08,42,30,046,29,27,28,306,26,46,06,292,38,37,03,243,37,5*78
$GNGGA,003657.000,4005.098992,N,10513.208166,W,2,54,0.45,1585.435,M,-20.670,M,,*7E
$GPGSV,4,1,14,29,87,212,42,05,56,047,37,18,42,294,35,48,39,209,47,1*6E
$GPGSV,4,2,14,15,38,148,45,13,32,103,44,20,23,051,36,23,22,227,50,1*64
$GPGSV,4,3,14,26,19,300,35,25,16,204,43,11,07,084,36,16,04,328,23,1*6B
$GPGSV,4,4,14,19,01,180,,12,01,180,38,1*61
$GPGSV,2,1,05,18,42,294,41,23,22,227,44,26,19,300,32,25,16,204,46,8*62
$GPGSV,2,2,05,11,07,084,40,8*57
$GLGSV,3,1,09,71,59,069,39,86,52,067,41,72,48,164,46,87,48,333,37,1*7D
$GLGSV,3,2,09,70,17,030,31,77,15,262,34,78,13,320,36,85,11,103,39,1*79
$GLGSV,3,3,09,76,01,222,,1*43
$GAGSV,3,1,09,33,60,317,36,26,52,061,39,31,35,268,42,07,35,078,39,7*7A
$GAGSV,3,2,09,24,15,318,26,12,13,280,33,08,07,033,35,13,05,086,38,7*77
$GAGSV,3,3,09,19,04,179,32,7*48
$GAGSV,3,1,09,33,60,317,37,26,52,061,29,31,35,268,36,07,35,078,38,1*7E
$GAGSV,3,2,09,24,15,318,40,12,13,280,34,08,07,033,37,13,05,086,31,1*7D
$GAGSV,3,3,09,19,04,179,45,1*4E
$GBGSV,3,1,10,28,74,338,43,33,68,122,45,14,54,066,45,43,37,113,42,1*7E
$GBGSV,3,2,10,41,33,194,48,42,30,046,45,27,28,306,41,11,14,113,38,1*77
$GBGSV,3,3,10,46,06,292,31,37,03,243,51,1*7E
$GBGSV,2,1,08,28,74,338,36,33,68,122,42,43,37,113,39,41,33,194,47,5*74
$GBGSV,2,2,08,42,30,046,29,27,28,306,27,46,06,292,38,37,03,243,37,5*79
$GNGGA,003702.000,4005.098968,N,10513.208166,W,2,54,0.45,1585.393,M,-20.670,M,,*71
$GPGSV,4,1,14,29,87,212,42,05,56,047,37,18,42,294,33,48,39,209,47,1*68
$GPGSV,4,2,14,15,38,148,45,13,32,103,44,20,23,051,35,23,22,227,50,1*67
$GPGSV,4,3,14,26,19,300,36,25,16,204,43,11,07,084,35,16,04,328,19,1*62
$GPGSV,4,4,14,19,01,180,,12,01,180,37,1*6E
$GPGSV,2,1,05,18,42,294,41,23,22,227,44,26,19,300,33,25,16,204,46,8*63
$GPGSV,2,2,05,11,07,084,40,8*57
$GLGSV,3,1,09,71,59,069,39,86,52,067,41,72,48,164,46,87,48,333,37,1*7D
$GLGSV,3,2,09,70,17,030,30,77,15,262,33,78,13,320,35,85,11,103,40,1*72
$GLGSV,3,3,09,76,01,222,,1*43
$GAGSV,3,1,09,33,60,317,37,26,52,061,39,31,35,268,42,07,35,078,39,7*7B
$GAGSV,3,2,09,24,15,318,26,12,13,280,33,08,07,033,35,13,05,086,38,7*77
$GAGSV,3,3,09,19,04,179,33,7*49
$GAGSV,3,1,09,33,60,317,38,26,52,061,29,31,35,268,36,07,35,078,38,1*71
$GAGSV,3,2,09,24,15,318,40,12,13,280,34,08,07,033,37,13,05,086,31,1*7D
$GAGSV,3,3,09,19,04,179,45,1*4E
$GBGSV,3,1,10,28,74,338,42,33,68,122,45,14,54,066,45,43,37,113,42,1*7F
$GBGSV,3,2,10,41,33,194,48,42,30,046,45,27,28,306,41,11,14,113,37,1*78
$GBGSV,3,3,10,46,06,292,33,37,03,243,51,1*7C
$GBGSV,2,1,08,28,74,338,36,33,68,122,42,43,37,113,39,41,33,194,47,5*74
$GBGSV,2,2,08,42,30,046,29,27,28,306,28,46,06,292,38,37,03,243,37,5*76
$GNGGA,003707.000,4005.098968,N,10513.208184,W,2,55,0.45,1585.418,M,-20.670,M,,*7D
$GPGSV,4,1,14,29,87,212,42,05,56,047,38,18,42,294,33,48,39,209,46,1*66
$GPGSV,4,2,14,15,38,148,45,13,32,103,44,20,23,051,35,23,22,227,50,1*67
$GPGSV,4,3,14,26,19,300,36,25,16,204,43,11,07,084,34,16,04,328,16,1*6C
$GPGSV,4,4,14,19,01,180,,12,01,180,36,1*6F
$GPGSV,2,1,05,18,42,294,41,23,22,227,45,26,19,300,33,25,16,204,46,8*62
$GPGSV,2,2,05,11,07,084,40,8*57
$GLGSV,3,1,09,71,59,069,39,86,52,067,42,72,48,164,46,87,48,333,37,1*7E
$GLGSV,3,2,09,70,17,030,31,77,15,262,33,78,13,320,35,85,11,103,40,1*73
$GLGSV,3,3,09,76,01,222,,1*43
$GAGSV,3,1,09,33,60,317,37,26,52,061,39,31,35,268,42,07,35,078,39,7*7B
$GAGSV,3,2,09,24,15,318,27,12,13,280,31,08,07,033,35,13,05,086,38,7*74
$GAGSV,3,3,09,19,04,179,32,7*48
$GAGSV,3,1,09,33,60,317,38,26,52,061,29,31,35,268,36,07,35,078,38,1*71
$GAGSV,3,2,09,24,15,318,40,12,13,280,35,08,07,033,37,13,05,086,31,1*7C
$GAGSV,3,3,09,19,04,179,45,1*4E
$GBGSV,3,1,10,28,74,338,42,33,68,122,45,14,54,066,45,43,37,113,42,1*7F
$GBGSV,3,2,10,41,33,194,48,42,30,046,45,27,28,306,41,11,14,113,35,1*7A
$GBGSV,3,3,10,46,06,292,33,37,03,243,51,1*7C
$GBGSV,2,1,08,28,74,338,36,33,68,122,42,43,37,113,39,41,33,194,47,5*74
$GBGSV,2,2,08,42,30,046,28,27,28,306,28,46,06,292,38,37,03,243,35,5*75
$GNGGA,003712.000,4005.099004,N,10513.208160,W,2,54,0.45,1585.527,M,-20.670,M,,*7D
$GPGSV,4,1,14,29,87,212,42,05,56,047,38,18,42,294,33,48,39,209,47,1*67
$GPGSV,4,2,14,15,38,148,45,13,32,103,44,20,23,051,35,23,22,227,50,1*67
$GPGSV,4,3,14,26,19,300,36,25,16,204,43,11,07,084,34,16,04,328,19,1*63
$GPGSV,4,4,14,19,01,180,,12,01,180,34,1*6D
$GPGSV,2,1,05,18,42,294,41,23,22,227,45,26,19,300,33,25,16,204,46,8*62
$GPGSV,2,2,05,11,07,084,40,8*57
$GLGSV,3,1,09,71,59,069,39,86,52,067,42,72,48,164,46,87,48,333,37,1*7E
$GLGSV,3,2,09,70,17,030,32,77,15,262,34,78,13,320,33,85,11,103,41,1*70
$GLGSV,3,3,09,76,01,222,,1*43
$GAGSV,3,1,09,33,60,317,37,26,52,061,39,31,35,268,42,07,35,078,39,7*7B
$GAGSV,3,2,09,24,15,318,27,12,13,280,31,08,07,033,35,13,05,086,38,7*74
$GAGSV,3,3,09,19,04,179,33,7*49
$GAGSV,3,1,09,33,60,317,38,26,52,061,28,31,35,268,36,07,35,078,38,1*70
$GAGSV,3,2,09,24,15,318,40,12,13,280,35,08,07,033,37,13,05,086,31,1*7C
$GAGSV,3,3,09,19,04,179,45,1*4E
$GBGSV,3,1,10,28,74,338,42,33,68,122,45,14,54,066,45,43,37,113,43,1*7E
$GBGSV,3,2,10,41,33,194,48,42,30,046,45,27,28,306,41,11,14,113,35,1*7A
$GBGSV,3,3,10,46,06,292,34,37,03,243,51,1*7B
$GBGSV,2,1,08,28,74,338,36,33,68,122,42,43,37,113,39,41,33,194,47,5*74
$GBGSV,2,2,08,42,30,046,27,27,28,306,29,46,06,292,39,37,03,243,34,5*7B
$GNGGA,003717.000,4005.099034,N,10513.208178,W,2,55,0.45,1585.755,M,-20.669,M,,*7C
$GPGSV,4,1,14,29,87,212,41,05,55,047,39,18,42,294,35,48,39,209,47,1*60
$GPGSV,4,2,14,15,38,148,45,13,32,103,44,20,23,051,35,23,22,227,50,1*67
$GPGSV,4,3,14,26,19,300,36,25,16,204,44,11,07,084,34,16,04,328,19,1*64
$GPGSV,4,4,14,19,01,180,,12,01,180,32,1*6B
$GPGSV,2,1,05,18,42,294,41,23,22,227,45,26,19,300,32,25,16,204,46,8*63
$GPGSV,2,2,05,11,07,084,40,8*57
$GLGSV,3,1,09,71,59,069,40,86,52,067,40,72,48,164,46,87,48,333,37,1*72
$GLGSV,3,2,09,70,17,030,32,77,15,262,33,78,13,320,32,85,11,103,41,1*76
$GLGSV,3,3,09,76,01,222,,1*43
$GAGSV,3,1,09,33,60,317,37,26,52,061,39,31,35,268,42,07,35,078,39,7*7B
$GAGSV,3,2,09,24,15,318,25,12,13,280,31,08,07,033,35,13,05,086,38,7*76
$GAGSV,3,3,09,19,04,179,33,7*49
$GAGSV,3,1,09,33,60,317,38,26,52,061,27,31,35,268,36,07,35,078,38,1*7F
$GAGSV,3,2,09,24,15,318,40,12,13,280,34,08,07,033,37,13,05,086,30,1*7C
$GAGSV,3,3,09,19,04,179,45,1*4E
$GBGSV,3,1,10,28,74,338,42,33,68,122,45,14,54,066,45,43,37,113,43,1*7E
$GBGSV,3,2,10,41,33,194,48,42,30,046,45,27,28,306,40,11,14,113,34,1*7A
$GBGSV,3,3,10,46,06,292,28,37,03,243,51,1*76
$GBGSV,2,1,08,28,74,338,36,33,68,122,42,43,37,113,39,41,33,194,47,5*74
$GBGSV,2,2,08,42,30,046,26,27,28,306,29,46,06,292,39,37,03,243,33,5*7D
$GNGGA,003722.000,4005.099022,N,10513.208154,W,2,54,0.45,1585.632,M,-20.670,M,,*7A
$GPGSV,4,1,13,29,87,212,41,05,55,047,39,18,42,294,35,48,39,209,47,1*67
$GPGSV,4,2,13,15,38,148,45,13,32,102,44,20,23,051,35,23,22,227,50,1*61
$GPGSV,4,3,13,26,19,300,34,25,16,204,44,11,06,085,34,16,04,328,,1*69
$GPGSV,4,4,13,19,01,180,,1*56
$GPGSV,2,1,05,18,42,294,41,23,22,227,45,26,19,300,32,25,16,204,46,8*63
$GPGSV,2,2,05,11,06,085,40,8*57
$GLGSV,3,1,10,71,59,069,41,86,52,067,39,87,48,333,37,72,48,164,45,1*76
$GLGSV,3,2,10,70,17,030,32,77,15,262,33,78,13,320,32,85,11,103,41,1*7E
$GLGSV,3,3,10,88,03,301,,76,01,222,,1*7A
$GAGSV,3,1,09,33,60,317,37,26,52,061,39,31,35,268,42,07,35,078,39,7*7B
$GAGSV,3,2,09,24,15,318,25,12,13,280,31,08,07,033,35,13,05,086,38,7*76
$GAGSV,3,3,09,19,04,179,33,7*49
$GAGSV,3,1,09,33,60,317,38,26,52,061,27,31,35,268,36,07,35,078,38,1*7F
$GAGSV,3,2,09,24,15,318,40,12,13,280,34,08,07,033,37,13,05,086,30,1*7C
$GAGSV,3,3,09,19,04,179,45,1*4E
$GBGSV,3,1,10,28,74,338,42,33,68,122,45,14,54,066,45,43,37,113,43,1*7E
$GBGSV,3,2,10,41,33,194,48,42,30,046,45,27,28,306,39,11,14,113,36,1*76
$GBGSV,3,3,10,46,06,292,23,37,03,243,51,1*7D
$GBGSV,2,1,08,28,74,338,36,33,68,122,42,43,37,113,39,41,33,194,47,5*74
$GBGSV,2,2,08,42,30,046,26,27,28,306,29,46,06,292,39,37,03,243,31,5*7F
$GNGGA,003727.000,4005.099004,N,10513.208214,W,2,56,0.44,1585.393,M,-20.669,M,,*79
$GPGSV,4,1,13,29,87,212,42,05,55,047,39,18,43,295,35,48,39,209,47,1*64
$GPGSV,4,2,13,15,39,147,45,13,32,102,44,20,23,051,35,23,22,227,50,1*6F
$GPGSV,4,3,13,26,19,300,34,25,16,204,44,11,06,085,34,16,05,328,24,1*6E
$GPGSV,4,4,13,19,01,180,,1*56
$GPGSV,2,1,05,18,43,295,41,23,22,227,45,26,19,300,32,25,16,204,46,8*63
$GPGSV,2,2,05,11,06,085,40,8*57
$GLGSV,3,1,10,71,59,069,40,86,52,067,40,87,48,333,38,72,48,164,45,1*76
$GLGSV,3,2,10,70,17,030,31,77,15,262,33,78,13,320,33,85,11,103,40,1*7D
$GLGSV,3,3,10,88,03,301,,76,01,222,,1*7A
$GAGSV,3,1,09,33,60,317,37,26,52,061,39,31,35,268,42,07,35,078,40,7*75
$GAGSV,3,2,09,24,15,318,24,12,13,280,32,08,07,033,34,13,05,086,38,7*75
$GAGSV,3,3,09,19,04,179,35,7*4F
$GAGSV,3,1,09,33,60,317,38,26,52,061,27,31,35,268,36,07,35,078,37,1*70
$GAGSV,3,2,09,24,15,318,40,12,13,280,34,08,07,033,37,13,05,086,30,1*7C
$GAGSV,3,3,09,19,04,179,45,1*4E
$GBGSV,3,1,10,28,74,338,42,33,68,122,45,14,54,066,46,43,37,113,43,1*7D
$GBGSV,3,2,10,41,33,194,48,42,30,046,45,27,28,306,39,11,14,113,37,1*77
$GBGSV,3,3,10,46,06,292,26,37,03,243,50,1*79
$GBGSV,2,1,08,28,74,338,36,33,68,122,42,43,37,113,40,41,33,194,47,5*7A
$GBGSV,2,2,08,42,30,046,25,27,28,306,29,46,06,292,39,37,03,243,31,5*7C
$GNGGA,003732.000,4005.098950,N,10513.208304,W,2,56,0.44,1585.231,M,-20.670,M,,*75
$GPGSV,3,1,12,29,87,212,42,05,55,047,40,18,43,295,35,48,39,209,47,1*6C
$GPGSV,3,2,12,15,39,147,45,13,32,102,44,23,24,228,50,20,22,052,36,1*61
$GPGSV,3,3,12,26,19,300,35,25,16,204,44,11,06,085,31,16,05,328,22,1*6A
$GPGSV,2,1,05,18,43,295,41,23,24,228,45,26,19,300,32,25,16,204,46,8*6A
$GPGSV,2,2,05,11,06,085,40,8*57
$GLGSV,3,1,09,71,59,069,39,86,52,067,41,87,48,333,38,72,48,164,45,1*71
$GLGSV,3,2,09,70,17,030,31,77,15,262,33,78,13,320,35,85,11,103,41,1*72
$GLGSV,3,3,09,76,01,222,,1*43
$GAGSV,3,1,09,33,60,317,36,26,52,061,39,07,35,078,40,31,35,268,42,7*74
$GAGSV,3,2,09,24,15,318,23,12,13,280,32,08,07,033,32,13,05,086,39,7*75
$GAGSV,3,3,09,19,04,179,34,7*4E
$GAGSV,3,1,09,33,60,317,38,26,52,061,27,31,35,268,36,07,35,078,37,1*70
$GAGSV,3,2,09,24,15,318,40,12,13,280,35,08,07,033,37,13,05,086,30,1*7D
$GAGSV,3,3,09,19,04,179,45,1*4E
$GBGSV,3,1,10,28,74,338,42,33,68,122,45,14,54,066,46,43,37,113,44,1*7A
$GBGSV,3,2,10,41,33,194,49,42,30,046,45,27,28,306,39,11,14,113,37,1*76
$GBGSV,3,3,10,46,06,292,29,37,03,243,49,1*7E
$GBGSV,2,1,08,28,74,338,36,33,68,122,42,43,37,113,40,41,33,194,47,5*7A
$GBGSV,2,2,08,42,30,046,25,27,28,306,29,46,06,292,39,37,03,243,29,5*75
$GNGGA,003737.000,4005.098866,N,10513.208388,W,2,55,0.44,1585.065,M,-20.670,M,,*70
$GPGSV,3,1,12,29,87,212,42,05,55,047,41,18,43,295,35,48,39,209,47,1*6D
$GPGSV,3,2,12,15,39,147,44,13,32,102,44,23,24,228,50,20,22,052,37,1*61
$GPGSV,3,3,12,26,19,299,35,25,15,203,45,11,06,085,30,16,05,328,27,1*6A
$GPGSV,2,1,05,18,43,295,41,23,24,228,45,26,19,299,31,25,15,203,46,8*6C
$GPGSV,2,2,05,11,06,085,39,8*59
$GLGSV,3,1,09,71,59,069,40,86,52,067,41,87,48,333,37,72,48,164,45,1*70
$GLGSV,3,2,09,70,17,030,31,77,15,262,33,78,13,320,34,85,11,103,41,1*73
$GLGSV,3,3,09,76,01,222,,1*43
$GAGSV,3,1,09,33,60,317,36,26,52,061,39,07,35,078,40,31,35,268,42,7*74
$GAGSV,3,2,09,24,15,318,22,12,13,280,32,08,07,033,31,13,05,086,39,7*77
$GAGSV,3,3,09,19,04,179,36,7*4C
$GAGSV,3,1,09,33,60,317,38,26,52,061,26,31,35,268,37,07,35,078,37,1*70
$GAGSV,3,2,09,24,15,318,40,12,13,280,35,08,07,033,37,13,05,086,30,1*7D
$GAGSV,3,3,09,19,04,179,45,1*4E
$GBGSV,3,1,10,28,74,338,43,33,68,122,45,14,54,066,46,43,37,113,44,1*7B
$GBGSV,3,2,10,41,33,194,49,42,30,046,45,27,28,306,39,11,14,113,37,1*76
$GBGSV,3,3,10,46,06,292,31,37,03,243,48,1*76
$GBGSV,2,1,08,28,74,338,36,33,68,122,42,43,37,113,40,41,33,194,47,5*7A
$GBGSV,2,2,08,42,30,046,26,27,28,306,30,46,06,292,39,37,03,243,27,5*70
$GNGGA,003742.000,4005.098812,N,10513.208394,W,2,56,0.44,1584.857,M,-20.670,M,,*77
$GPGSV,3,1,12,29,86,195,42,05,55,047,41,18,43,295,34,48,39,209,47,1*61
$GPGSV,3,2,12,15,39,147,44,13,32,102,44,23,24,228,50,20,22,052,37,1*61
$GPGSV,3,3,12,26,19,299,35,25,15,203,45,11,06,085,32,16,05,328,27,1*68
$GPGSV,2,1,05,18,43,295,41,23,24,228,45,26,19,299,31,25,15,203,46,8*6C
$GPGSV,2,2,05,11,06,085,39,8*59
$GLGSV,3,1,09,71,59,069,41,86,52,067,42,87,48,333,37,72,48,164,45,1*72
$GLGSV,3,2,09,70,17,030,31,77,15,262,33,78,13,320,34,85,11,103,42,1*70
$GLGSV,3,3,09,76,01,222,,1*43
$GAGSV,3,1,09,33,60,317,36,26,52,061,39,07,35,078,40,31,35,268,42,7*74
$GAGSV,3,2,09,24,15,318,24,12,13,280,32,08,07,033,31,13,05,086,39,7*71
$GAGSV,3,3,09,19,04,179,36,7*4C
$GAGSV,3,1,09,33,60,317,38,26,52,061,27,31,35,268,37,07,35,078,37,1*71
$GAGSV,3,2,09,24,15,318,40,12,13,280,35,08,07,033,36,13,05,086,30,1*7C
$GAGSV,3,3,09,19,04,179,45,1*4E
$GBGSV,3,1,10,28,74,338,44,33,68,122,46,14,54,066,46,43,37,113,44,1*7F
$GBGSV,3,2,10,41,33,194,49,42,30,046,45,27,28,306,39,11,14,113,37,1*76
$GBGSV,3,3,10,46,06,292,31,37,03,243,46,1*78
$GBGSV,2,1,08,28,74,338,36,33,68,122,42,43,37,113,40,41,33,194,47,5*7A
$GBGSV,2,2,08,42,30,046,27,27,28,306,31,46,06,292,39,37,03,243,26,5*71
$GNGGA,003747.000,4005.098770,N,10513.208388,W,2,55,0.44,1584.593,M,-20.670,M,,*72
$GPGSV,3,1,12,29,86,195,42,05,55,047,42,18,43,295,34,48,39,209,47,1*62
$GPGSV,3,2,12,15,39,147,43,13,32,102,44,23,24,228,50,20,22,052,37,1*66
$GPGSV,3,3,12,26,19,299,36,25,15,203,45,11,06,085,33,16,05,328,28,1*65
$GPGSV,2,1,05,18,43,295,41,23,24,228,45,26,19,299,29,25,15,203,46,8*65
$GPGSV,2,2,05,11,06,085,39,8*59
$GLGSV,3,1,09,71,59,069,41,86,52,067,42,87,48,333,36,72,48,164,45,1*73
$GLGSV,3,2,09,70,17,030,31,77,15,262,31,78,13,320,35,85,11,103,42,1*73
$GLGSV,3,3,09,76,01,222,,1*43
$GAGSV,3,1,09,33,60,317,36,26,52,061,39,07,35,078,40,31,35,268,43,7*75
$GAGSV,3,2,09,24,15,318,27,12,13,280,31,08,07,033,32,13,05,086,39,7*72
$GAGSV,3,3,09,19,04,179,37,7*4D
$GAGSV,3,1,09,33,60,317,38,26,52,061,26,31,35,268,37,07,35,078,37,1*70
$GAGSV,3,2,09,24,15,318,39,12,13,280,35,08,07,033,36,13,05,086,30,1*72
$GAGSV,3,3,09,19,04,179,45,1*4E
$GBGSV,3,1,10,28,74,338,44,33,68,122,46,14,54,066,46,43,37,113,44,1*7F
$GBGSV,3,2,10,41,33,194,49,42,30,046,45,27,28,306,39,11,14,113,37,1*76
$GBGSV,3,3,10,46,06,292,32,37,03,243,46,1*7B
$GBGSV,2,1,08,28,74,338,36,33,68,122,42,43,37,113,40,41,33,194,47,5*7A
$GBGSV,2,2,08,42,30,046,27,27,28,306,30,46,06,292,39,37,03,243,23,5*75
$GNGGA,003752.000,4005.098812,N,10513.208364,W,2,55,0.44,1584.449,M,-20.669,M,,*71
$GPGSV,3,1,12,29,86,195,42,05,55,047,42,18,43,295,34,48,39,209,47,1*62
$GPGSV,3,2,12,15,39,147,43,13,32,102,44,23,24,228,50,20,22,052,38,1*69
$GPGSV,3,3,12,26,19,299,37,25,15,203,45,11,06,085,35,16,05,328,28,1*62
$GPGSV,2,1,05,18,43,295,41,23,24,228,45,26,19,299,29,25,15,203,46,8*65
$GPGSV,2,2,05,11,06,085,40,8*57
$GLGSV,3,1,09,71,59,069,41,86,52,067,42,87,48,333,35,72,48,164,45,1*70
$GLGSV,3,2,09,70,17,030,30,77,15,262,32,78,13,320,36,85,11,103,42,1*72
$GLGSV,3,3,09,76,01,222,,1*43
$GAGSV,3,1,09,33,60,317,36,26,52,061,39,07,35,078,40,31,35,268,43,7*75
$GAGSV,3,2,09,24,15,318,30,12,13,280,31,08,07,033,33,13,05,086,39,7*75
$GAGSV,3,3,09,19,04,179,37,7*4D
$GAGSV,3,1,09,33,60,317,39,26,52,061,26,31,35,268,37,07,35,078,38,1*7E
$GAGSV,3,2,09,24,15,318,39,12,13,280,35,08,07,033,35,13,05,086,30,1*71
$GAGSV,3,3,09,19,04,179,45,1*4E
$GBGSV,3,1,10,28,74,338,44,33,68,122,46,14,54,066,46,43,37,113,44,1*7F
$GBGSV,3,2,10,41,33,194,49,42,30,046,46,27,28,306,39,11,14,113,37,1*75
$GBGSV,3,3,10,46,06,292,28,37,03,243,45,1*73
$GBGSV,2,1,08,28,74,338,36,33,68,122,42,43,37,113,41,41,33,194,47,5*7B
$GBGSV,2,2,08,42,30,046,27,27,28,306,31,46,06,292,39,37,03,243,22,5*75
$GNGGA,003757.000,4005.098908,N,10513.208334,W,2,55,0.44,1584.547,M,-20.670,M,,*7C
$GPGSV,3,1,12,29,86,195,42,05,55,047,42,18,43,295,36,48,39,209,46,1*61
$GPGSV,3,2,12,15,39,147,43,13,32,102,44,23,24,228,50,20,22,052,38,1*69
$GPGSV,3,3,12,26,19,299,37,25,15,203,46,11,06,085,35,16,05,328,29,1*60
$GPGSV,2,1,05,18,43,295,41,23,24,228,45,26,19,299,29,25,15,203,46,8*65
$GPGSV,2,2,05,11,06,085,40,8*57
$GLGSV,3,1,09,71,59,069,40,86,52,067,41,87,48,333,34,72,48,164,45,1*73
$GLGSV,3,2,09,70,17,030,29,77,15,262,33,78,13,320,37,85,11,103,42,1*7A
$GLGSV,3,3,09,76,01,222,,1*43
$GAGSV,3,1,09,33,60,317,36,26,52,061,39,07,35,077,40,31,35,268,43,7*7A
$GAGSV,3,2,09,24,15,318,30,12,13,280,31,08,07,032,33,13,05,086,39,7*74
$GAGSV,3,3,09,19,04,179,38,7*42
$GAGSV,3,1,09,33,60,317,39,26,52,061,26,31,35,268,37,07,35,077,38,1*71
$GAGSV,3,2,09,24,15,318,39,12,13,280,35,08,07,032,35,13,05,086,30,1*70
$GAGSV,3,3,09,19,04,179,45,1*4E
$GBGSV,3,1,10,28,74,338,44,33,68,122,46,14,54,066,46,43,37,113,45,1*7E
$GBGSV,3,2,10,41,33,194,49,42,30,046,46,27,28,306,39,11,14,113,38,1*7A
$GBGSV,3,3,10,46,06,292,17,37,03,243,43,1*79
$GBGSV,2,1,08,28,74,338,36,33,68,122,42,43,37,113,41,41,33,194,47,5*7B
$GBGSV,2,2,08,42,30,046,27,27,28,306,31,46,06,292,39,37,03,243,21,5*76
$GNGGA,003802.000,4005.098926,N,10513.208352,W,2,53,0.45,1584.693,M,-20.670,M,,*72
$GPGSV,3,1,12,29,86,195,42,05,55,047,42,18,43,295,36,48,39,209,46,1*61
$GPGSV,3,2,12,15,39,147,43,13,32,102,44,23,24,228,50,20,22,052,38,1*69
$GPGSV,3,3,12,26,19,299,37,25,15,203,46,11,06,085,34,16,05,328,28,1*60
$GPGSV,2,1,05,18,43,295,41,23,24,228,46,26,19,299,29,25,15,203,46,8*66
$GPGSV,2,2,05,11,06,085,40,8*57
$GLGSV,3,1,09,71,59,069,40,86,52,067,40,87,48,333,35,72,48,164,43,1*75
$GLGSV,3,2,09,70,17,030,29,77,15,262,32,78,13,320,37,85,11,103,41,1*78
$GLGSV,3,3,09,76,01,222,,1*43
$GAGSV,3,1,09,33,60,317,36,26,52,061,38,07,35,077,39,31,35,268,43,7*75
$GAGSV,3,2,09,24,15,318,31,12,14,281,28,08,07,032,33,13,04,087,39,7*7B
$GAGSV,3,3,09,19,04,179,38,7*42
$GAGSV,3,1,09,33,60,317,39,26,52,061,26,31,35,268,38,07,35,077,38,1*7E
$GAGSV,3,2,09,24,15,318,39,12,14,281,35,08,07,032,34,13,04,087,31,1*76
$GAGSV,3,3,09,19,04,179,45,1*4E
$GBGSV,3,1,10,28,74,338,44,33,68,122,46,14,54,066,46,43,37,113,45,1*7E
$GBGSV,3,2,10,41,33,194,49,42,30,046,46,27,28,306,40,11,14,113,39,1*75
$GBGSV,3,3,10,46,06,292,25,37,03,243,43,1*78
$GBGSV,2,1,08,28,74,338,36,33,68,122,42,43,37,113,41,41,33,194,47,5*7B
$GBGSV,2,2,08,42,30,046,27,27,28,306,31,46,06,292,39,37,03,243,19,5*7D
$GNGGA,003807.000,4005.098908,N,10513.208340,W,2,54,0.45,1584.885,M,-20.669,M,,*7E
$GPGSV,3,1,12,29,86,195,42,05,55,047,42,18,43,295,36,48,39,209,47,1*60
$GPGSV,3,2,12,15,39,147,43,13,32,102,44,23,24,228,50,20,22,052,38,1*69
$GPGSV,3,3,12,26,19,299,37,25,15,203,46,11,06,085,32,16,05,328,28,1*66
$GPGSV,2,1,05,18,43,295,41,23,24,228,46,26,19,299,29,25,15,203,46,8*66
$GPGSV,2,2,05,11,06,085,40,8*57
$GLGSV,3,1,09,71,59,069,41,86,52,067,40,87,48,333,35,72,48,164,43,1*74
$GLGSV,3,2,09,70,17,030,29,77,15,262,32,78,13,320,37,85,11,103,41,1*78
$GLGSV,3,3,09,76,01,222,,1*43
$GAGSV,3,1,09,33,60,317,36,26,52,061,38,07,35,077,39,31,35,268,43,7*75
$GAGSV,3,2,09,24,15,318,31,12,14,281,30,08,07,032,33,19,05,179,39,7*79
$GAGSV,3,3,09,13,04,087,39,7*49
$GAGSV,3,1,09,33,60,317,39,26,52,061,26,31,35,268,38,07,35,077,38,1*7E
$GAGSV,3,2,09,24,15,318,39,12,14,281,35,08,07,032,33,19,05,179,45,1*79
$GAGSV,3,3,09,13,04,087,31,1*47
$GBGSV,3,1,10,28,74,338,44,33,68,122,46,14,54,066,46,43,37,113,45,1*7E
$GBGSV,3,2,10,41,33,194,49,42,30,046,46,27,28,306,40,11,14,113,39,1*75
$GBGSV,3,3,10,46,06,292,27,37,03,243,42,1*7B
$GBGSV,2,1,08,28,74,338,36,33,68,122,42,43,37,113,41,41,33,194,47,5*7B
$GBGSV,2,2,08,42,30,046,27,27,28,306,32,46,06,292,39,37,03,243,17,5*70
$GNGGA,003812.000,4005.098944,N,10513.208364,W,2,55,0.43,1584.940,M,-20.670,M,,*73
$GPGSV,3,1,12,29,86,195,42,05,55,047,42,18,43,295,35,15,39,147,43,1*66
$GPGSV,3,2,12,48,39,209,47,13,32,102,44,23,24,228,50,20,22,052,38,1*6C
$GPGSV,3,3,12,26,19,299,37,25,15,203,47,11,06,085,33,16,05,328,28,1*66
$GPGSV,2,1,05,18,43,295,41,23,24,228,46,26,19,299,30,25,15,203,46,8*6E
$GPGSV,2,2,05,11,06,085,40,8*57
$GLGSV,3,1,10,71,59,069,40,86,52,067,41,72,48,164,43,87,48,333,34,1*7D
$GLGSV,3,2,10,70,17,030,29,77,15,262,31,78,13,320,38,85,11,103,42,1*7F
$GLGSV,3,3,10,88,03,301,25,76,01,222,,1*7D
$GAGSV,3,1,09,33,60,317,35,26,52,061,38,31,35,268,43,07,35,077,39,7*76
$GAGSV,3,2,09,24,15,317,30,12,14,281,31,08,07,032,33,19,05,179,39,7*76
$GAGSV,3,3,09,13,04,087,39,7*49
$GAGSV,3,1,09,33,60,317,39,26,52,061,26,31,35,268,38,07,35,077,38,1*7E
$GAGSV,3,2,09,24,15,317,39,12,14,281,35,08,07,032,33,19,05,179,45,1*76
$GAGSV,3,3,09,13,04,087,30,1*46
$GBGSV,3,1,10,28,74,338,44,33,68,122,46,14,54,066,46,43,37,113,46,1*7D
$GBGSV,3,2,10,41,33,194,49,42,30,046,46,27,28,306,40,11,14,113,39,1*75
$GBGSV,3,3,10,46,06,292,22,37,03,243,41,1*7D
$GBGSV,2,1,08,28,74,338,36,33,68,122,42,43,37,113,41,41,33,194,47,5*7B
$GBGSV,2,2,08,42,30,046,27,27,28,306,32,46,06,292,40,37,03,243,17,5*7E
$GNGGA,003817.000,4005.098962,N,10513.208310,W,2,55,0.43,1584.811,M,-20.670,M,,*74
$GPGSV,3,1,12,29,86,195,42,05,55,047,42,18,43,295,35,15,39,147,43,1*66
$GPGSV,3,2,12,48,39,209,47,13,32,102,44,23,24,228,50,20,22,052,38,1*6C
$GPGSV,3,3,12,26,19,299,37,25,15,203,47,11,06,085,33,16,05,328,29,1*67
$GPGSV,2,1,05,18,43,295,41,23,24,228,46,26,19,299,32,25,15,203,46,8*6C
$GPGSV,2,2,05,11,06,085,40,8*57
$GLGSV,3,1,10,71,59,069,41,86,52,067,41,72,48,164,43,87,48,333,34,1*7C
$GLGSV,3,2,10,70,17,030,28,77,15,262,31,78,13,320,38,85,11,103,42,1*7E
$GLGSV,3,3,10,88,03,301,27,76,01,222,,1*7F
$GAGSV,3,1,09,33,60,317,35,26,51,062,38,31,35,268,43,07,35,077,39,7*76
$GAGSV,3,2,09,24,15,317,26,12,14,281,31,08,07,032,34,19,05,179,39,7*76
$GAGSV,3,3,09,13,04,087,40,7*47
$GAGSV,3,1,09,33,60,317,39,26,51,062,26,31,35,268,38,07,35,077,38,1*7E
$GAGSV,3,2,09,24,15,317,39,12,14,281,35,08,07,032,33,19,05,179,45,1*76
$GAGSV,3,3,09,13,04,087,30,1*46
$GBGSV,3,1,10,28,74,338,44,33,68,122,46,14,54,066,46,43,37,113,46,1*7D
$GBGSV,3,2,10,41,33,194,49,42,30,046,46,27,28,306,39,11,14,113,39,1*7B
$GBGSV,3,3,10,46,06,292,19,37,03,243,40,1*74
$GBGSV,2,1,08,28,74,338,36,33,68,122,42,43,37,113,41,41,33,194,47,5*7B
$GBGSV,2,2,08,42,30,046,27,27,28,306,33,46,06,292,40,37,03,243,16,5*7E
$GNGGA,003822.000,4005.098944,N,10513.208142,W,2,55,0.43,1584.899,M,-20.670,M,,*73
$GPGSV,3,1,12,29,86,195,42,05,55,047,42,18,43,295,36,15,39,147,43,1*65
$GPGSV,3,2,12,48,39,209,46,13,32,102,44,23,24,228,49,20,22,052,39,1*64
$GPGSV,3,3,12,26,19,299,35,25,15,203,47,11,06,085,32,16,05,328,30,1*6C
$GPGSV,2,1,05,18,43,295,41,23,24,228,46,26,19,299,33,25,15,203,46,8*6D
$GPGSV,2,2,05,11,06,085,40,8*57
$GLGSV,3,1,10,71,59,069,41,86,52,067,40,72,48,164,43,87,48,333,34,1*7D
$GLGSV,3,2,10,70,17,030,27,77,15,262,31,78,13,320,39,85,11,103,42,1*70
$GLGSV,3,3,10,88,03,301,26,76,01,222,,1*7E
$GAGSV,3,1,09,33,61,319,35,26,51,062,38,31,35,266,43,07,35,077,39,7*77
$GAGSV,3,2,09,24,15,317,25,12,14,281,31,08,07,032,34,19,05,179,40,7*7B
$GAGSV,3,3,09,13,04,087,40,7*47
$GAGSV,3,1,09,33,61,319,39,26,51,062,25,31,35,266,38,07,35,077,38,1*7C
$GAGSV,3,2,09,24,15,317,39,12,14,281,35,08,07,032,32,19,05,179,45,1*77
$GAGSV,3,3,09,13,04,087,30,1*46
$GBGSV,3,1,10,28,74,338,44,33,68,122,46,14,54,066,46,43,37,113,46,1*7D
$GBGSV,3,2,10,41,33,194,49,42,30,046,45,27,28,306,38,11,14,113,39,1*79
$GBGSV,3,3,10,46,06,292,20,37,03,243,39,1*70
$GBGSV,2,1,08,28,74,338,36,33,68,122,42,43,37,113,41,41,33,194,47,5*7B
$GBGSV,2,2,08,42,30,046,26,27,28,306,33,46,06,292,40,37,03,243,14,5*7D
$GNGGA,003827.000,4005.098914,N,10513.207968,W,2,55,0.43,1585.054,M,-20.670,M,,*74
$GPGSV,3,1,12,29,86,195,42,05,55,047,41,18,43,295,38,15,39,147,43,1*68
$GPGSV,3,2,12,48,39,209,47,13,32,102,44,23,24,228,49,20,22,052,39,1*65
$GPGSV,3,3,12,26,19,299,34,25,15,203,47,11,06,085,32,16,05,328,30,1*6D
$GPGSV,2,1,05,18,43,295,41,23,24,228,46,26,19,299,33,25,15,203,45,8*6E
$GPGSV,2,2,05,11,06,085,40,8*57
$GLGSV,3,1,10,71,59,069,40,86,52,067,41,72,48,164,42,87,48,333,34,1*7C
$GLGSV,3,2,10,70,17,030,25,77,15,262,31,78,13,320,39,85,11,103,42,1*72
$GLGSV,3,3,10,88,03,301,28,76,01,222,,1*70
$GAGSV,3,1,09,33,61,319,35,26,51,062,37,31,35,266,43,07,35,077,39,7*78
$GAGSV,3,2,09,24,15,317,25,12,14,281,31,08,07,032,35,19,05,179,40,7*7A
$GAGSV,3,3,09,13,04,087,40,7*47
$GAGSV,3,1,09,33,61,319,38,26,51,062,25,31,35,266,38,07,35,077,37,1*72
$GAGSV,3,2,09,24,15,317,39,12,14,281,35,08,07,032,31,19,05,179,45,1*74
$GAGSV,3,3,09,13,04,087,30,1*46
$GBGSV,3,1,10,28,74,338,44,33,68,122,46,14,54,066,46,43,37,113,46,1*7D
$GBGSV,3,2,10,41,33,194,49,42,30,046,45,27,28,306,38,11,14,113,39,1*79
$GBGSV,3,3,10,46,06,292,25,37,03,243,39,1*75
$GBGSV,2,1,07,28,74,338,36,33,68,122,42,43,37,113,41,41,33,194,47,5*74
$GBGSV,2,2,07,42,30,046,24,27,28,306,33,46,06,292,40,5*47
$GNGGA,003832.000,4005.098890,N,10513.207854,W,2,56,0.43,1585.173,M,-20.670,M,,*74
$GPGSV,3,1,12,29,86,195,42,05,55,047,41,18,43,295,38,15,39,147,43,1*68
$GPGSV,3,2,12,48,39,209,47,13,32,102,44,23,24,228,49,20,22,052,39,1*65
$GPGSV,3,3,12,26,19,299,34,25,15,203,47,11,06,085,35,16,05,328,32,1*68
$GPGSV,2,1,05,18,43,295,41,23,24,228,46,26,19,299,33,25,15,203,45,8*6E
$GPGSV,2,2,05,11,06,085,40,8*57
$GLGSV,3,1,10,71,58,067,41,86,52,067,42,72,49,164,42,87,48,333,32,1*76
$GLGSV,3,2,10,70,16,029,23,77,15,262,30,78,13,320,39,85,11,103,42,1*7C
$GLGSV,3,3,10,88,03,301,30,76,01,222,,1*79
$GAGSV,3,1,09,33,61,319,35,26,51,062,37,31,35,266,43,07,35,077,39,7*78
$GAGSV,3,2,09,24,15,317,25,12,14,281,31,08,07,032,35,19,05,179,41,7*7B
$GAGSV,3,3,09,13,04,087,40,7*47
$GAGSV,3,1,09,33,61,319,38,26,51,062,25,31,35,266,38,07,35,077,37,1*72
$GAGSV,3,2,09,24,15,317,39,12,14,281,35,08,07,032,32,19,05,179,45,1*77
$GAGSV,3,3,09,13,04,087,30,1*46
$GBGSV,3,1,10,28,74,338,43,33,68,122,46,14,54,066,46,43,37,113,46,1*7A
$GBGSV,3,2,10,41,33,194,49,42,30,046,45,27,28,306,37,11,14,113,40,1*78
$GBGSV,3,3,10,46,06,292,17,37,03,243,36,1*7B
$GBGSV,2,1,07,28,74,338,36,33,68,122,42,43,37,113,41,41,33,194,47,5*74
$GBGSV,2,2,07,42,30,046,21,27,28,306,33,46,06,292,40,5*42
$GNGGA,003837.000,4005.098884,N,10513.207830,W,2,56,0.43,1585.309,M,-20.670,M,,*79
$GPGSV,3,1,12,29,86,195,42,05,55,047,41,18,43,295,38,48,39,209,46,1*6C
$GPGSV,3,2,12,15,39,147,43,13,32,102,44,23,24,228,49,20,22,052,39,1*60
$GPGSV,3,3,12,26,19,299,34,25,15,203,48,11,06,085,36,16,05,328,32,1*64
$GPGSV,2,1,05,18,43,295,41,23,24,228,46,26,19,299,34,25,15,203,45,8*69
$GPGSV,2,2,05,11,06,085,40,8*57
$GLGSV,3,1,09,71,58,067,41,86,52,067,43,72,49,164,42,87,48,333,31,1*7C
$GLGSV,3,2,09,70,16,029,23,77,14,261,29,78,13,320,39,85,11,103,44,1*78
$GLGSV,3,3,09,88,03,301,32,1*41
$GAGSV,3,1,09,33,61,319,35,26,51,062,37,07,35,077,39,31,35,266,43,7*78
$GAGSV,3,2,09,24,15,317,25,12,14,281,30,08,07,032,35,19,05,179,41,7*7A
$GAGSV,3,3,09,13,04,087,40,7*47
$GAGSV,3,1,09,33,61,319,38,26,51,062,26,31,35,266,38,07,35,077,37,1*71
$GAGSV,3,2,09,24,15,317,39,12,14,281,35,08,07,032,32,19,05,179,45,1*77
$GAGSV,3,3,09,13,04,087,30,1*46
$GBGSV,3,1,10,28,74,338,43,33,68,122,46,14,54,066,46,43,37,113,46,1*7A
$GBGSV,3,2,10,41,33,194,49,42,30,046,45,27,28,306,37,11,14,113,40,1*78
$GBGSV,3,3,10,46,06,292,25,37,03,243,34,1*78
$GBGSV,2,1,07,28,74,338,36,33,68,122,42,43,37,113,41,41,33,194,47,5*74
$GBGSV,2,2,07,42,30,046,21,27,28,306,33,46,06,292,40,5*42
$GNGGA,003842.000,4005.098872,N,10513.207842,W,2,56,0.43,1585.473,M,-20.670,M,,*7D
$GPGSV,3,1,12,29,86,195,42,05,55,047,41,18,43,295,38,48,39,209,47,1*6D
$GPGSV,3,2,12,15,39,147,43,13,32,102,44,23,24,228,49,20,22,052,39,1*60
$GPGSV,3,3,12,26,19,299,36,25,15,203,48,11,06,085,36,16,05,328,33,1*67
$GPGSV,2,1,05,18,43,295,41,23,24,228,46,26,19,299,34,25,15,203,45,8*69
$GPGSV,2,2,05,11,06,085,40,8*57
$GLGSV,3,1,09,71,58,067,41,86,52,067,42,72,49,164,42,87,48,333,32,1*7E
$GLGSV,3,2,09,70,16,029,23,77,14,261,29,78,13,319,40,85,11,103,44,1*7C
$GLGSV,3,3,09,88,03,301,34,1*47
$GAGSV,3,1,09,33,61,319,35,26,51,062,37,07,35,077,39,31,35,266,43,7*78
$GAGSV,3,2,09,24,15,317,27,12,14,281,30,08,07,032,33,19,05,179,41,7*7E
$GAGSV,3,3,09,13,04,087,40,7*47
$GAGSV,3,1,09,33,61,319,38,26,51,062,27,31,35,266,39,07,35,077,37,1*71
$GAGSV,3,2,09,24,15,317,39,12,14,281,35,08,07,032,33,19,05,179,45,1*76
$GAGSV,3,3,09,13,04,087,30,1*46
$GBGSV,3,1,10,28,74,338,43,33,68,122,46,14,54,066,46,43,37,113,46,1*7A
$GBGSV,3,2,10,41,33,194,49,42,30,046,45,27,28,306,36,11,14,113,41,1*78
$GBGSV,3,3,10,46,06,292,29,37,03,243,33,1*73
$GBGSV,2,1,07,28,74,338,36,33,68,122,42,43,37,113,42,41,33,194,48,5*78
$GBGSV,2,2,07,42,30,046,21,27,28,306,34,46,06,292,41,5*44
$GNGGA,003847.000,4005.098908,N,10513.207836,W,2,56,0.43,1585.842,M,-20.670,M,,*79
$GPGSV,3,1,12,29,86,195,42,05,55,047,41,18,43,295,38,48,39,209,47,1*6D
$GPGSV,3,2,12,15,39,147,43,13,32,102,44,23,24,228,49,20,22,052,40,1*6E
$GPGSV,3,3,12,26,19,299,37,25,15,203,48,11,06,085,36,16,05,328,33,1*66
$GPGSV,2,1,05,18,43,295,41,23,24,228,46,26,19,299,34,25,15,203,45,8*69
$GPGSV,2,2,05,11,06,085,40,8*57
$GLGSV,3,1,09,71,58,067,41,86,52,069,41,87,49,334,31,72,49,164,42,1*76
$GLGSV,3,2,09,70,16,029,23,77,14,261,29,78,13,319,41,85,10,105,44,1*7A
$GLGSV,3,3,09,88,03,301,33,1*40
$GAGSV,3,1,09,33,61,319,36,26,51,062,37,07,35,077,39,31,35,266,43,7*7B
$GAGSV,3,2,09,24,15,317,26,12,14,281,31,08,07,032,33,19,05,179,42,7*7D
$GAGSV,3,3,09,13,04,087,40,7*47
$GAGSV,3,1,09,33,61,319,38,26,51,062,27,31,35,266,39,07,35,077,37,1*71
$GAGSV,3,2,09,24,15,317,39,12,14,281,35,08,07,032,33,19,05,179,45,1*76
$GAGSV,3,3,09,13,04,087,30,1*46
$GBGSV,3,1,10,28,74,338,43,33,68,122,46,14,54,066,46,43,37,113,46,1*7A
$GBGSV,3,2,10,41,33,194,49,42,30,046,45,27,28,306,36,11,14,113,41,1*78
$GBGSV,3,3,10,46,06,292,30,37,03,243,34,1*7C
$GBGSV,2,1,07,28,74,338,35,33,68,122,42,43,37,113,42,41,33,194,48,5*7B
$GBGSV,2,2,07,42,30,046,22,27,28,306,34,46,06,292,41,5*47
$GNGGA,003852.000,4005.098992,N,10513.207836,W,2,56,0.43,1586.014,M,-20.670,M,,*76
$GPGSV,3,1,12,29,86,195,42,05,55,047,41,18,43,295,38,48,39,209,47,1*6D
$GPGSV,3,2,12,15,39,147,43,13,32,102,44,23,24,228,49,20,22,052,40,1*6E
$GPGSV,3,3,12,26,19,299,37,25,15,203,48,11,06,085,36,16,05,328,33,1*66
$GPGSV,2,1,05,18,43,295,41,23,24,228,46,26,19,299,34,25,15,203,45,8*69
$GPGSV,2,2,05,11,06,085,40,8*57
$GLGSV,3,1,09,71,58,067,41,86,52,069,40,87,49,334,31,72,49,164,42,1*77
$GLGSV,3,2,09,70,16,029,23,77,14,261,34,78,13,319,40,85,10,105,44,1*77
$GLGSV,3,3,09,88,04,302,33,1*44
$GAGSV,3,1,09,33,61,319,36,26,51,062,37,07,35,077,39,31,35,266,43,7*7B
$GAGSV,3,2,09,24,15,317,26,12,14,281,31,08,07,032,33,19,05,179,42,7*7D
$GAGSV,3,3,09,13,04,087,40,7*47
$GAGSV,3,1,09,33,61,319,38,26,51,062,27,31,35,266,39,07,35,077,37,1*71
$GAGSV,3,2,09,24,15,317,38,12,14,281,34,08,07,032,33,19,05,179,45,1*76
$GAGSV,3,3,09,13,04,087,29,1*4E
$GBGSV,3,1,10,28,74,338,42,33,68,122,46,14,54,066,46,43,37,113,46,1*7B
$GBGSV,3,2,10,41,33,194,49,42,30,046,45,27,28,306,36,11,14,113,42,1*7B
$GBGSV,3,3,10,46,06,292,30,37,03,243,34,1*7C
$GBGSV,2,1,07,28,74,338,35,33,68,122,42,43,37,113,42,41,33,194,48,5*7B
$GBGSV,2,2,07,42,30,046,22,27,28,306,35,46,06,292,40,5*47
$GNGGA,003857.000,4005.099094,N,10513.207860,W,2,56,0.43,1585.942,M,-20.670,M,,*77
$GPGSV,3,1,12,29,86,195,42,05,55,047,42,18,43,295,38,48,39,209,47,1*6E
$GPGSV,3,2,12,15,39,147,43,13,32,102,44,23,24,228,49,20,22,052,40,1*6E
$GPGSV,3,3,12,26,19,299,37,25,15,203,48,11,06,085,36,16,05,328,34,1*61
$GPGSV,2,1,05,18,43,295,40,23,24,228,46,26,19,299,33,25,15,203,45,8*6F
$GPGSV,2,2,05,11,06,085,40,8*57
$GLGSV,3,1,09,71,58,067,41,86,52,069,40,87,49,334,32,72,49,164,42,1*74
$GLGSV,3,2,09,70,16,029,23,77,14,261,28,78,13,319,40,85,10,105,44,1*7A
$GLGSV,3,3,09,88,04,302,33,1*44
$GAGSV,3,1,09,33,61,319,36,26,51,062,37,07,35,077,39,31,35,266,43,7*7B
$GAGSV,3,2,09,24,15,317,25,12,14,281,30,08,07,032,33,19,05,179,42,7*7F
$GAGSV,3,3,09,13,04,087,40,7*47
$GAGSV,3,1,09,33,61,319,38,26,51,062,27,31,35,266,39,07,35,077,37,1*71
$GAGSV,3,2,09,24,15,317,37,12,14,281,34,08,07,032,34,19,05,179,45,1*7E
$GAGSV,3,3,09,13,04,087,29,1*4E
$GBGSV,3,1,10,28,74,338,42,33,68,122,46,14,54,066,46,43,37,113,46,1*7B
$GBGSV,3,2,10,41,33,194,49,42,30,046,45,27,28,306,37,11,14,113,42,1*7A
$GBGSV,3,3,10,46,06,292,28,37,03,243,30,1*71
$GBGSV,2,1,07,28,74,338,35,33,68,122,42,43,37,113,42,41,33,194,48,5*7B
$GBGSV,2,2,07,42,30,046,21,27,28,306,36,46,06,292,39,5*49
$GNGGA,003902.000,4005.099106,N,10513.207878,W,2,56,0.43,1585.685,M,-20.669,M,,*79
$GPGSV,3,1,12,29,86,195,43,05,55,047,42,18,43,295,38,48,39,209,47,1*6F
$GPGSV,3,2,12,15,39,147,43,13,32,102,44,23,24,228,48,20,22,052,40,1*6F
$GPGSV,3,3,12,26,19,299,37,25,15,203,48,11,06,085,36,16,05,328,34,1*61
$GPGSV,2,1,05,18,43,295,40,23,24,228,46,26,19,299,32,25,15,203,44,8*6F
$GPGSV,2,2,05,11,06,085,39,8*59
$GLGSV,3,1,09,71,58,067,41,86,52,069,40,87,49,334,33,72,49,164,41,1*76
$GLGSV,3,2,09,70,16,029,24,77,14,261,28,78,13,319,40,85,10,105,44,1*7D
$GLGSV,3,3,09,88,04,302,34,1*43
$GAGSV,3,1,09,33,61,319,36,26,51,062,37,07,35,077,39,31,35,266,43,7*7B
$GAGSV,3,2,09,24,15,317,23,12,14,281,27,08,07,032,33,19,05,179,43,7*7E
$GAGSV,3,3,09,13,04,087,40,7*47
$GAGSV,3,1,09,33,61,319,38,26,51,062,28,31,35,266,39,07,35,077,37,1*7E
$GAGSV,3,2,09,24,15,317,37,12,14,281,34,08,07,032,33,19,05,179,45,1*79
$GAGSV,3,3,09,13,04,087,29,1*4E
$GBGSV,3,1,10,28,74,338,42,33,68,122,46,14,53,064,46,43,37,113,46,1*7E
$GBGSV,3,2,10,41,33,194,49,42,30,046,45,27,28,306,36,11,14,114,42,1*7C
$GBGSV,3,3,10,46,06,292,32,37,03,243,30,1*7A
$GBGSV,2,1,07,28,74,338,35,33,68,122,42,43,37,113,42,41,33,194,48,5*7B
$GBGSV,2,2,07,42,30,046,23,27,28,306,36,46,06,292,39,5*4B
$GNGGA,003907.000,4005.099064,N,10513.207848,W,2,56,0.43,1585.360,M,-20.670,M,,*7C
$GPGSV,3,1,12,29,86,195,43,05,55,047,43,18,43,295,38,48,39,209,47,1*6E
$GPGSV,3,2,12,15,39,147,43,13,32,102,44,23,24,228,48,20,22,052,40,1*6F
$GPGSV,3,3,12,26,19,299,37,25,15,203,48,11,06,085,36,16,05,328,33,1*66
$GPGSV,2,1,05,18,43,295,40,23,24,228,46,26,19,299,31,25,15,203,44,8*6C
$GPGSV,2,2,05,11,06,085,39,8*59
$GLGSV,3,1,09,71,58,067,41,86,52,069,40,87,49,334,33,72,49,164,41,1*76
$GLGSV,3,2,09,70,16,029,25,77,14,261,27,78,13,319,41,85,10,105,44,1*72
$GLGSV,3,3,09,88,04,302,35,1*42
$GAGSV,3,1,09,33,61,319,36,26,51,062,37,07,35,077,39,31,35,266,43,7*7B
$GAGSV,3,2,09,24,15,317,22,12,14,281,27,08,07,032,33,19,05,179,43,7*7F
$GAGSV,3,3,09,13,04,087,40,7*47
$GAGSV,3,1,09,33,61,319,38,26,51,062,28,31,35,266,39,07,35,077,38,1*71
$GAGSV,3,2,09,24,15,317,37,12,14,281,35,08,07,032,34,19,05,179,45,1*7F
$GAGSV,3,3,09,13,04,087,28,1*4F
$GBGSV,3,1,10,28,74,338,41,33,68,122,46,14,53,064,46,43,37,113,46,1*7D
$GBGSV,3,2,10,41,33,194,49,42,30,046,45,27,28,306,36,11,14,114,42,1*7C
$GBGSV,3,3,10,46,06,292,28,37,03,243,30,1*71
$GBGSV,2,1,07,28,74,338,35,33,68,122,42,43,37,113,42,41,33,194,48,5*7B
$GBGSV,2,2,07,42,30,046,24,27,28,306,36,46,06,292,39,5*4C
$GNGGA,003912.000,4005.099022,N,10513.207914,W,2,56,0.43,1585.024,M,-20.669,M,,*79
$GPGSV,3,1,12,29,86,195,43,05,55,047,43,18,43,295,38,48,39,209,47,1*6E
$GPGSV,3,2,12,15,39,147,43,13,32,102,44,23,24,228,48,20,22,052,41,1*6E
$GPGSV,3,3,12,26,19,299,37,25,15,203,49,11,06,085,37,16,05,328,33,1*66
$GPGSV,2,1,05,18,43,295,40,23,24,228,46,26,19,299,30,25,15,203,44,8*6D
$GPGSV,2,2,05,11,06,085,39,8*59
$GLGSV,3,1,09,71,58,067,41,86,52,069,41,87,49,334,32,72,49,164,41,1*76
$GLGSV,3,2,09,70,16,029,25,77,14,261,28,78,13,319,40,85,10,105,44,1*7C
$GLGSV,3,3,09,88,04,302,38,1*4F
$GAGSV,3,1,09,33,61,319,36,26,51,062,38,07,35,077,39,31,35,266,43,7*74
$GAGSV,3,2,09,24,15,317,20,12,14,281,27,08,07,032,33,19,05,179,43,7*7D
$GAGSV,3,3,09,13,04,087,40,7*47
$GAGSV,3,1,09,33,61,319,38,26,51,062,29,31,35,266,40,07,35,077,38,1*7E
$GAGSV,3,2,09,24,15,317,37,12,14,281,35,08,07,032,34,19,05,179,45,1*7F
$GAGSV,3,3,09,13,04,087,29,1*4E
$GBGSV,3,1,10,28,74,338,42,33,68,122,46,14,53,064,46,43,37,113,46,1*7E
$GBGSV,3,2,10,41,33,194,49,42,30,046,45,27,28,306,34,11,14,114,42,1*7E
$GBGSV,3,3,10,46,06,292,26,37,03,243,31,1*7E
$GBGSV,2,1,07,28,74,338,36,33,68,122,42,43,37,113,43,41,33,194,48,5*79
$GBGSV,2,2,07,42,30,046,26,27,28,306,37,46,06,292,39,5*4F
$GNGGA,003917.000,4005.098998,N,10513.207920,W,2,56,0.43,1585.047,M,-20.670,M,,*7F
$GPGSV,3,1,12,29,86,195,43,05,55,047,43,18,43,295,38,48,39,209,47,1*6E
$GPGSV,3,2,12,15,39,147,43,13,32,102,44,23,24,228,48,20,22,052,41,1*6E
$GPGSV,3,3,12,26,19,299,37,25,15,203,49,11,06,085,37,16,05,328,32,1*67
$GPGSV,2,1,05,18,43,295,40,23,24,228,46,26,19,299,30,25,15,203,43,8*6A
$GPGSV,2,2,05,11,06,085,39,8*59
$GLGSV,3,1,09,71,58,067,41,86,52,069,41,87,49,334,32,72,49,164,41,1*76
$GLGSV,3,2,09,70,16,029,22,77,14,261,28,78,13,319,40,85,10,105,44,1*7B
$GLGSV,3,3,09,88,04,302,38,1*4F
$GAGSV,3,1,09,33,61,319,36,26,51,062,38,07,35,077,39,31,35,266,43,7*74
$GAGSV,3,2,09,24,15,317,20,12,14,281,25,08,07,032,33,19,05,179,43,7*7F
$GAGSV,3,3,09,13,04,087,40,7*47
$GAGSV,3,1,09,33,61,319,38,26,51,062,29,31,35,266,39,07,35,077,38,1*70
$GAGSV,3,2,09,24,15,317,36,12,14,281,34,08,07,032,34,19,05,179,44,1*7E
$GAGSV,3,3,09,13,04,087,28,1*4F
$GBGSV,3,1,10,28,75,340,42,33,68,122,46,14,53,064,46,43,37,113,46,1*70
$GBGSV,3,2,10,41,33,194,49,42,30,046,45,27,29,306,36,11,14,114,43,1*7C
$GBGSV,3,3,10,46,06,292,18,37,03,243,29,1*7A
$GBGSV,2,1,07,28,75,340,35,33,68,122,42,43,37,113,43,41,33,194,47,5*7B
$GBGSV,2,2,07,42,30,046,26,27,29,306,36,46,06,292,39,5*4F
$GNGGA,003922.000,4005.098974,N,10513.207896,W,2,56,0.43,1585.266,M,-20.670,M,,*76
$GPGSV,3,1,12,29,86,195,43,05,55,047,43,18,43,295,38,48,39,209,47,1*6E
$GPGSV,3,2,12,15,39,147,43,13,32,102,44,23,24,228,48,20,22,052,41,1*6E
$GPGSV,3,3,12,26,19,299,37,25,15,203,49,11,06,085,37,16,05,328,31,1*64
$GPGSV,2,1,05,18,43,295,40,23,24,228,46,26,19,299,30,25,15,203,43,8*6A
$GPGSV,2,2,05,11,06,085,38,8*58
$GLGSV,3,1,09,71,58,067,41,86,52,069,41,87,49,334,32,72,49,164,41,1*76
$GLGSV,3,2,09,70,16,029,21,77,14,261,28,78,13,319,39,85,10,105,44,1*76
$GLGSV,3,3,09,88,04,302,38,1*4F
$GAGSV,3,1,09,33,61,319,36,26,51,062,38,07,35,077,39,31,35,266,43,7*74
$GAGSV,3,2,09,24,15,317,21,12,14,281,25,08,07,032,33,19,05,179,43,7*7E
$GAGSV,3,3,09,13,04,087,40,7*47
$GAGSV,3,1,09,33,61,319,38,26,51,062,29,31,35,266,39,07,35,077,38,1*70
$GAGSV,3,2,09,24,15,317,36,12,14,281,34,08,07,032,34,19,05,179,44,1*7E
$GAGSV,3,3,09,13,04,087,28,1*4F
$GBGSV,3,1,10,28,75,340,42,33,69,119,46,14,53,064,46,43,37,113,47,1*78
$GBGSV,3,2,10,41,33,194,49,42,30,046,45,27,29,306,36,11,14,114,43,1*7C
$GBGSV,3,3,10,46,06,292,20,37,03,243,29,1*71
$GBGSV,2,1,07,28,75,340,35,33,69,119,42,43,37,113,43,41,33,194,47,5*72
$GBGSV,2,2,07,42,30,046,28,27,29,306,36,46,06,292,39,5*41
$GNGGA,003927.000,4005.098992,N,10513.207800,W,2,56,0.43,1585.486,M,-20.670,M,,*7C
$GPGSV,3,1,12,29,86,195,43,05,55,047,43,18,43,295,38,48,39,209,47,1*6E
$GPGSV,3,2,12,15,39,147,43,13,32,102,44,23,24,228,48,20,22,052,40,1*6F
$GPGSV,3,3,12,26,19,299,36,25,15,203,49,11,06,085,38,16,05,328,31,1*6A
$GPGSV,2,1,05,18,43,295,40,23,24,228,46,26,19,299,31,25,15,203,43,8*6B
$GPGSV,2,2,05,11,06,085,39,8*59
$GLGSV,3,1,09,71,58,067,43,86,52,069,40,87,49,334,31,72,49,164,41,1*76
$GLGSV,3,2,09,70,16,029,19,77,14,261,27,78,13,319,39,85,10,105,44,1*72
$GLGSV,3,3,09,88,04,302,38,1*4F
$GAGSV,3,1,09,33,61,319,36,26,51,062,38,07,35,077,39,31,35,266,43,7*74
$GAGSV,3,2,09,24,15,317,22,12,14,281,25,08,07,032,33,19,05,179,44,7*7A
$GAGSV,3,3,09,13,04,087,41,7*46
$GAGSV,3,1,09,33,61,319,38,26,51,062,29,31,35,266,39,07,35,077,39,1*71
$GAGSV,3,2,09,24,15,317,36,12,14,281,34,08,07,032,34,19,05,179,44,1*7E
$GAGSV,3,3,09,13,04,087,28,1*4F
$GBGSV,3,1,10,28,75,340,42,33,69,119,46,14,53,064,46,43,37,113,47,1*78
$GBGSV,3,2,10,41,33,194,49,42,30,046,44,27,29,306,36,11,14,114,43,1*7D
$GBGSV,3,3,10,46,06,292,29,37,03,242,28,1*78
$GBGSV,2,1,07,28,75,340,36,33,69,119,42,43,37,113,43,41,33,194,47,5*71
$GBGSV,2,2,07,42,30,046,28,27,29,306,36,46,06,292,40,5*4F
$GNGGA,003932.000,4005.099016,N,10513.207650,W,2,56,0.43,1585.567,M,-20.670,M,,*79
$GPGSV,3,1,12,29,86,195,43,05,55,047,43,18,43,295,38,48,39,209,47,1*6E
$GPGSV,3,2,12,15,39,147,44,13,32,102,44,23,24,228,48,20,22,052,40,1*68
$GPGSV,3,3,12,26,19,299,35,25,15,203,49,11,06,085,38,16,05,328,31,1*69
$GPGSV,2,1,05,18,43,295,40,23,24,228,46,26,19,299,31,25,15,203,43,8*6B
$GPGSV,2,2,05,11,06,085,39,8*59
$GLGSV,3,1,09,71,58,067,42,86,52,069,41,87,49,334,30,72,49,164,41,1*77
$GLGSV,3,2,09,70,16,029,18,77,14,261,25,78,13,319,37,85,10,105,44,1*7F
$GLGSV,3,3,09,88,04,302,37,1*40
$GAGSV,3,1,09,33,61,319,36,26,51,062,38,07,35,077,39,31,35,266,43,7*74
$GAGSV,3,2,09,24,15,317,24,12,14,281,26,08,07,032,33,19,05,179,44,7*7F
$GAGSV,3,3,09,13,04,087,41,7*46
$GAGSV,3,1,09,33,61,319,38,26,51,062,27,31,35,266,39,07,35,077,39,1*7F
$GAGSV,3,2,09,24,15,317,36,12,14,281,34,08,07,032,34,19,05,179,44,1*7E
$GAGSV,3,3,09,13,04,087,28,1*4F
$GBGSV,3,1,10,28,75,340,42,33,69,119,46,14,53,064,45,43,36,114,47,1*7D
$GBGSV,3,2,10,41,34,194,49,42,30,046,44,27,29,306,35,11,14,114,43,1*79
$GBGSV,3,3,10,46,06,292,28,37,03,242,28,1*79
$GBGSV,2,1,07,28,75,340,35,33,69,119,42,43,36,114,43,41,34,194,47,5*73
$GBGSV,2,2,07,42,30,046,29,27,29,306,36,46,06,292,40,5*4E
$GNGGA,003937.000,4005.099070,N,10513.207560,W,2,56,0.43,1585.726,M,-20.669,M,,*73
$GPGSV,3,1,12,29,86,195,43,05,55,047,43,18,43,295,39,48,39,209,47,1*6F
$GPGSV,3,2,12,15,39,147,44,13,32,102,44,23,24,228,48,20,22,052,40,1*68
$GPGSV,3,3,12,26,19,299,36,25,15,203,49,11,06,085,39,16,05,328,32,1*68
$GPGSV,2,1,05,18,43,295,40,23,24,228,46,26,19,299,31,25,15,203,43,8*6B
$GPGSV,2,2,05,11,06,085,39,8*59
$GLGSV,3,1,09,71,58,067,40,86,52,069,41,87,49,334,30,72,49,164,42,1*76
$GLGSV,3,2,09,70,16,029,18,77,14,261,25,78,13,319,38,85,10,105,44,1*70
$GLGSV,3,3,09,88,04,302,39,1*4E
$GAGSV,3,1,09,33,61,319,36,26,51,062,38,07,35,077,40,31,35,266,43,7*7A
$GAGSV,3,2,09,24,15,317,24,12,14,281,26,08,07,032,33,19,05,179,44,7*7F
$GAGSV,3,3,09,13,04,087,41,7*46
$GAGSV,3,1,09,33,61,319,38,26,51,062,26,31,35,266,39,07,35,077,39,1*7E
$GAGSV,3,2,09,24,15,317,36,12,14,281,34,08,07,032,34,19,05,179,44,1*7E
$GAGSV,3,3,09,13,04,087,27,1*40
$GBGSV,3,1,10,28,75,340,42,33,69,119,46,14,53,064,45,43,36,114,47,1*7D
$GBGSV,3,2,10,41,34,194,49,42,30,046,43,27,29,306,34,11,14,114,43,1*7F
$GBGSV,3,3,10,46,05,291,30,37,03,242,26,1*7E
$GBGSV,2,1,07,28,75,340,35,33,69,119,42,43,36,114,43,41,34,194,47,5*73
$GBGSV,2,2,07,42,30,046,31,27,29,306,36,46,05,291,40,5*47
$GNGGA,003942.000,4005.099106,N,10513.207446,W,2,56,0.43,1585.843,M,-20.670,M,,*70
$GPGSV,3,1,12,29,86,195,43,05,55,047,43,18,43,295,39,48,39,209,47,1*6F
$GPGSV,3,2,12,15,39,147,44,13,32,102,44,23,24,228,48,20,22,052,40,1*68
$GPGSV,3,3,12,26,19,299,36,25,15,203,49,11,06,085,39,16,05,328,32,1*68
$GPGSV,2,1,05,18,43,295,40,23,24,228,46,26,19,299,31,25,15,203,42,8*6A
$GPGSV,2,2,05,11,06,085,38,8*58
$GLGSV,3,1,09,71,58,067,40,86,52,069,41,87,49,334,29,72,49,164,42,1*7E
$GLGSV,3,2,09,70,16,029,18,77,14,261,26,78,13,319,36,85,10,105,44,1*7D
$GLGSV,3,3,09,88,04,302,39,1*4E
$GAGSV,3,1,09,33,61,319,36,26,51,062,38,07,35,077,40,31,35,266,43,7*7A
$GAGSV,3,2,09,24,15,317,24,12,14,281,26,08,07,032,33,19,05,179,44,7*7F
$GAGSV,3,3,09,13,04,087,41,7*46
$GAGSV,3,1,09,33,61,319,38,26,51,062,26,31,35,266,39,07,35,077,39,1*7E
$GAGSV,3,2,09,24,15,317,36,12,14,281,34,08,07,032,34,19,05,179,44,1*7E
$GAGSV,3,3,09,13,04,087,26,1*41
$GBGSV,3,1,10,28,75,340,42,33,69,119,46,14,53,064,45,43,36,114,47,1*7D
$GBGSV,3,2,10,41,34,194,49,42,30,046,43,27,29,306,34,11,14,114,43,1*7F
$GBGSV,3,3,10,46,05,291,29,37,03,242,29,1*79
$GBGSV,2,1,07,28,75,340,34,33,69,119,42,43,36,114,43,41,34,194,47,5*72
$GBGSV,2,2,07,42,30,046,32,27,29,306,36,46,05,291,41,5*45
$GNGGA,003947.000,4005.099094,N,10513.207356,W,2,56,0.43,1585.956,M,-20.670,M,,*7C
$GPGSV,3,1,12,29,86,195,43,05,55,047,43,18,43,295,39,48,39,209,47,1*6F
$GPGSV,3,2,12,15,39,147,44,13,32,102,44,23,24,228,48,20,22,052,40,1*68
$GPGSV,3,3,12,26,19,299,36,25,15,203,49,11,06,085,39,16,05,328,32,1*68
$GPGSV,2,1,05,18,43,295,39,23,24,228,45,26,19,299,31,25,15,203,42,8*67
$GPGSV,2,2,05,11,06,085,38,8*58
$GLGSV,3,1,09,71,58,067,41,86,52,069,40,87,49,334,29,72,49,164,42,1*7E
$GLGSV,3,2,09,70,16,029,22,77,14,261,26,78,13,319,35,85,10,105,44,1*77
$GLGSV,3,3,09,88,04,302,39,1*4E
$GAGSV,3,1,09,33,61,319,36,26,51,062,37,07,35,077,40,31,35,266,43,7*75
$GAGSV,3,2,09,24,15,317,26,12,14,281,26,08,07,032,33,19,05,179,44,7*7D
$GAGSV,3,3,09,13,04,087,41,7*46
$GAGSV,3,1,09,33,61,319,38,26,51,062,24,31,35,266,39,07,35,077,38,1*7D
$GAGSV,3,2,09,24,15,317,36,12,14,281,34,08,07,032,33,19,05,179,43,1*7E
$GAGSV,3,3,09,13,04,087,26,1*41
$GBGSV,3,1,10,28,75,340,42,33,69,119,46,14,53,064,45,43,36,114,47,1*7D
$GBGSV,3,2,10,41,34,194,49,42,30,046,43,27,29,306,30,11,14,114,44,1*7C
$GBGSV,3,3,10,46,05,291,31,37,03,242,29,1*70
$GBGSV,2,1,07,28,75,340,34,33,69,119,42,43,36,114,43,41,34,194,47,5*72
$GBGSV,2,2,07,42,30,046,32,27,29,306,36,46,05,291,41,5*45
$GNGGA,003952.000,4005.099052,N,10513.207284,W,2,56,0.43,1586.145,M,-20.670,M,,*75
$GPGSV,3,1,12,29,86,195,43,05,55,047,43,18,43,295,39,48,39,209,47,1*6F
$GPGSV,3,2,12,15,39,147,44,13,32,102,44,23,24,228,48,20,22,052,40,1*68
$GPGSV,3,3,12,26,19,299,36,25,15,203,49,11,06,085,39,16,05,328,33,1*69
$GPGSV,2,1,05,18,43,295,39,23,24,228,45,26,19,299,31,25,15,203,42,8*67
$GPGSV,2,2,05,11,06,085,38,8*58
$GLGSV,3,1,09,71,58,067,42,86,52,069,40,87,49,334,29,72,49,164,42,1*7D
$GLGSV,3,2,09,70,16,029,23,77,14,261,26,78,13,319,37,85,10,105,45,1*75
$GLGSV,3,3,09,88,04,302,39,1*4E
$GAGSV,3,1,09,33,61,319,36,26,51,062,37,07,35,077,40,31,35,266,43,7*75
$GAGSV,3,2,09,24,15,317,27,12,14,281,27,08,07,032,33,19,05,179,44,7*7D
$GAGSV,3,3,09,13,04,087,41,7*46
$GAGSV,3,1,09,33,61,319,38,26,51,062,24,31,35,266,39,07,35,077,38,1*7D
$GAGSV,3,2,09,24,15,317,36,12,14,281,34,08,07,032,33,19,05,179,43,1*7E
$GAGSV,3,3,09,13,04,087,25,1*42
$GBGSV,3,1,10,28,75,340,42,33,69,119,46,14,53,064,45,43,36,114,47,1*7D
$GBGSV,3,2,10,41,34,194,49,42,30,046,42,27,29,306,27,11,14,114,44,1*7B
$GBGSV,3,3,10,46,05,291,17,37,03,242,25,1*78
$GBGSV,2,1,07,28,75,340,34,33,69,119,42,43,36,114,43,41,34,194,47,5*72
$GBGSV,2,2,07,42,30,046,32,27,29,306,36,46,05,291,41,5*45
$GNGGA,003957.000,4005.098956,N,10513.207212,W,2,56,0.43,1586.499,M,-20.670,M,,*77
$GPGSV,3,1,12,29,86,195,43,05,54,047,43,18,43,295,39,48,39,209,47,1*6E
$GPGSV,3,2,12,15,39,147,44,13,32,102,44,23,24,228,47,20,22,052,40,1*67
$GPGSV,3,3,12,26,19,299,36,25,15,203,49,11,06,085,39,16,05,328,34,1*6E
$GPGSV,2,1,05,18,43,295,39,23,24,228,45,26,19,299,31,25,15,203,42,8*67
$GPGSV,2,2,05,11,06,085,38,8*58
$GLGSV,3,1,09,71,58,067,41,86,52,069,40,87,49,334,29,72,49,164,42,1*7E
$GLGSV,3,2,09,70,16,029,25,77,14,261,26,78,13,319,36,85,10,105,45,1*72
$GLGSV,3,3,09,88,04,302,39,1*4E
$GAGSV,3,1,09,33,61,319,35,26,51,062,36,07,35,077,39,31,35,266,43,7*79
$GAGSV,3,2,09,24,15,317,28,12,14,281,28,08,07,032,33,19,05,179,44,7*7D
$GAGSV,3,3,09,13,04,087,41,7*46
$GAGSV,3,1,09,33,61,319,38,26,51,062,24,31,35,266,40,07,35,077,39,1*72
$GAGSV,3,2,09,24,15,317,37,12,14,281,34,08,07,032,34,19,05,179,42,1*79
$GAGSV,3,3,09,13,04,087,24,1*43
$GBGSV,3,1,10,28,75,340,42,33,69,119,46,14,53,064,45,43,36,114,47,1*7D
$GBGSV,3,2,10,41,34,194,49,42,30,046,42,27,29,306,25,11,14,114,44,1*79
$GBGSV,3,3,10,46,05,291,27,37,03,242,26,1*78
$GBGSV,2,1,07,28,75,340,34,33,69,119,42,43,36,114,43,41,34,194,47,5*72
$GBGSV,2,2,07,42,30,046,33,27,29,306,36,46,05,291,40,5*45
$GNGGA,004002.000,4005.098914,N,10513.207218,W,2,56,0.43,1586.792,M,-20.670,M,,*7D
$GPGSV,3,1,12,29,86,195,43,05,54,047,43,18,43,295,39,48,39,209,47,1*6E
$GPGSV,3,2,12,15,39,147,44,13,32,102,44,23,24,228,47,20,22,052,40,1*67
$GPGSV,3,3,12,26,19,299,36,25,15,203,49,16,05,328,33,11,05,086,39,1*69
$GPGSV,2,1,05,18,43,295,39,23,24,228,45,26,19,299,30,25,15,203,41,8*65
$GPGSV,2,2,05,11,05,086,38,8*58
$GLGSV,3,1,09,71,58,067,41,86,52,069,40,87,49,334,27,72,49,164,43,1*71
$GLGSV,3,2,09,70,16,029,26,77,14,261,26,78,13,319,36,85,10,105,45,1*71
$GLGSV,3,3,09,88,04,302,36,1*41
$GAGSV,3,1,09,33,61,319,35,26,51,062,36,07,35,077,39,31,35,266,43,7*79
$GAGSV,3,2,09,24,15,317,29,12,14,281,28,08,07,032,32,19,05,179,44,7*7D
$GAGSV,3,3,09,13,04,087,41,7*46
$GAGSV,3,1,09,33,61,319,38,26,51,062,24,31,35,266,40,07,35,077,39,1*72
$GAGSV,3,2,09,24,15,317,37,12,14,281,34,08,07,032,34,19,05,179,42,1*79
$GAGSV,3,3,09,13,04,087,24,1*43
$GBGSV,3,1,10,28,75,340,42,33,69,119,46,14,53,064,45,43,36,114,47,1*7D
$GBGSV,3,2,10,41,34,194,49,42,30,046,42,27,29,306,27,11,14,114,44,1*7B
$GBGSV,3,3,10,46,05,291,23,37,03,242,29,1*73
$GBGSV,2,1,07,28,75,340,34,33,69,119,42,43,36,114,43,41,34,194,47,5*72
$GBGSV,2,2,07,42,30,046,34,27,29,306,36,46,05,291,39,5*4C
$GNGGA,004007.000,4005.098926,N,10513.207254,W,2,56,0.43,1586.842,M,-20.669,M,,*7B
$GPGSV,3,1,12,29,86,195,43,05,54,047,43,18,43,295,40,15,40,146,45,1*6C
$GPGSV,3,2,12,48,39,209,47,13,33,100,44,23,24,228,46,20,22,052,40,1*67
$GPGSV,3,3,12,26,19,299,36,25,15,203,49,16,06,327,33,11,05,086,39,1*65
$GPGSV,2,1,05,18,43,295,39,23,24,228,45,26,19,299,29,25,15,203,41,8*6D
$GPGSV,2,2,05,11,05,086,38,8*58
$GLGSV,3,1,09,71,58,067,41,86,52,069,39,87,49,334,27,72,49,164,43,1*7F
$GLGSV,3,2,09,70,16,029,26,77,14,261,25,78,13,319,36,85,10,105,45,1*72
$GLGSV,3,3,09,88,04,302,34,1*43
