$GNGGA,033637.000,4005.097828,N,10513.208316,W,2,45,0.54,1582.783,M,-20.670,M,,*78
$GPGSV,3,1,10,23,69,007,36,18,59,119,38,10,51,289,44,48,39,209,46,1*65
$GPGSV,3,2,10,27,37,289,42,32,31,210,49,24,30,095,42,15,27,049,43,1*69
$GPGSV,3,3,10,08,14,319,39,29,01,169,51,1*69
$GPGSV,2,1,07,23,69,007,38,18,59,119,47,10,51,289,38,27,37,289,43,8*6C
$GPGSV,2,2,07,32,31,210,44,24,30,095,35,08,14,319,43,8*54
$GLGSV,2,1,07,88,86,288,39,65,75,333,,66,36,236,45,81,30,327,37,1*73
$GLGSV,2,2,07,72,26,037,19,73,02,022,25,74,01,061,,1*46
$GAGSV,2,1,07,19,74,161,37,12,65,322,36,33,54,119,43,10,39,314,29,7*71
$GAGSV,2,2,07,04,20,211,48,11,13,311,31,26,07,126,35,7*4F
$GAGSV,2,1,07,19,74,161,36,12,65,322,34,33,54,119,39,10,39,314,40,1*76
$GAGSV,2,2,07,04,20,211,45,11,13,311,23,26,07,126,40,1*45
$GBGSV,2,1,08,41,68,033,40,27,68,207,46,32,49,251,49,30,42,305,34,1*7D
$GBGSV,2,2,08,28,28,160,50,33,18,054,43,25,04,101,46,24,02,053,15,1*74
$GBGSV,2,1,07,41,68,033,35,27,68,207,43,32,49,251,43,30,42,305,40,5*78
$GBGSV,2,2,07,28,28,160,41,33,18,054,30,25,04,101,37,5*4B
$PAIR001,062,0*3F
$PAIR001,062,0*3F
$PAIR001,062,0*3F
$PAIR001,062,0*3F
$PAIR001,062,0*3F
$PAIR001,062,0*3F
$PAIR001,062,0*3F
$PAIR001,062,0*3F
$PAIR001,062,0*3F
$GNGGA,033642.000,4005.097852,N,10513.208190,W,2,45,0.54,1582.819,M,-20.670,M,,*77
$GPGSV,3,1,10,23,69,007,36,18,59,119,38,10,51,289,44,48,39,209,47,1*64
$GPGSV,3,2,10,27,37,289,42,32,31,210,49,24,30,095,42,15,27,049,43,1*69
$GPGSV,3,3,10,08,14,319,38,29,01,169,51,1*68
$GPGSV,2,1,07,23,69,007,38,18,59,119,47,10,51,289,39,27,37,289,43,8*6D
$GPGSV,2,2,07,32,31,210,45,24,30,095,35,08,14,319,43,8*55
$GLGSV,2,1,07,88,86,288,39,65,75,333,27,66,37,237,45,81,30,327,35,1*74
$GLGSV,2,2,07,72,26,037,24,73,02,022,24,74,01,061,,1*49
$GAGSV,2,1,07,19,74,161,37,12,65,322,36,33,54,119,43,10,39,314,28,7*70
$GAGSV,2,2,07,04,20,211,48,11,13,311,29,26,07,126,36,7*45
$GAGSV,2,1,07,19,74,161,37,12,65,322,35,33,54,119,40,10,39,314,40,1*78
$GAGSV,2,2,07,04,20,211,45,11,13,311,26,26,07,126,40,1*40
$GBGSV,2,1,08,41,68,033,40,27,68,207,46,32,49,251,49,30,42,305,33,1*7A
$GBGSV,2,2,08,28,28,160,50,33,18,054,43,25,04,101,46,24,02,053,17,1*76
$GBGSV,2,1,07,41,68,033,36,27,68,207,43,32,49,251,43,30,42,305,41,5*7A
$GBGSV,2,2,07,28,28,160,41,33,18,054,28,25,04,101,37,5*42
$GNGGA,033647.000,4005.097858,N,10513.208040,W,2,44,0.54,1582.828,M,-20.669,M,,*7F
$GPGSV,3,1,10,23,69,007,35,18,59,119,38,10,51,289,44,48,39,209,46,1*66
$GPGSV,3,2,10,27,37,289,42,32,31,210,49,24,30,095,42,15,27,049,43,1*69
$GPGSV,3,3,10,08,14,319,37,29,01,169,51,1*67
$GPGSV,2,1,07,23,69,007,38,18,59,119,47,10,51,289,39,27,37,289,43,8*6D
$GPGSV,2,2,07,32,31,210,45,24,30,095,35,08,14,319,43,8*55
$GLGSV,2,1,07,88,86,288,40,65,75,333,,66,37,237,45,81,30,327,35,1*7F
$GLGSV,2,2,07,72,25,038,25,73,02,021,24,74,02,060,,1*45
$GAGSV,2,1,07,19,74,161,37,12,65,322,36,33,54,119,43,10,39,314,27,7*7F
$GAGSV,2,2,07,04,20,211,48,11,13,311,28,26,07,126,37,7*45
$GAGSV,2,1,07,19,74,161,37,12,65,322,35,33,54,119,40,10,39,314,40,1*78
$GAGSV,2,2,07,04,20,211,45,11,13,311,28,26,07,126,40,1*4E
$GBGSV,2,1,08,41,68,033,39,27,68,207,46,32,49,251,49,30,42,305,32,1*75
$GBGSV,2,2,08,28,28,160,50,33,18,054,43,25,04,101,46,24,02,053,16,1*77
$GBGSV,2,1,07,41,68,033,36,27,68,207,43,32,49,251,43,30,42,305,41,5*7A
$GBGSV,2,2,07,28,28,160,41,33,18,054,28,25,04,101,37,5*42
$GNGGA,033652.000,4005.097822,N,10513.207938,W,2,44,0.54,1582.852,M,-20.670,M,,*7A
$GPGSV,3,1,10,23,69,007,34,18,59,119,38,10,51,289,44,48,39,209,46,1*67
$GPGSV,3,2,10,27,37,289,42,32,31,210,49,24,30,095,41,15,27,049,43,1*6A
$GPGSV,3,3,10,08,14,319,37,29,01,169,51,1*67
$GPGSV,2,1,07,23,69,007,38,18,59,119,47,10,51,289,39,27,37,289,43,8*6D
$GPGSV,2,2,07,32,31,210,45,24,30,095,35,08,14,319,43,8*55
$GLGSV,2,1,06,88,86,288,40,65,75,333,27,66,37,237,45,81,30,327,35,1*7B
$GLGSV,2,2,06,72,25,038,26,73,02,021,23,1*77
$GAGSV,2,1,07,19,74,161,37,12,65,322,36,33,54,119,43,10,39,314,25,7*7D
$GAGSV,2,2,07,04,20,211,48,11,13,311,29,26,07,126,37,7*44
$GAGSV,2,1,07,19,74,161,37,12,65,322,35,33,54,119,40,10,39,314,40,1*78
$GAGSV,2,2,07,04,20,211,45,11,13,311,30,26,07,126,40,1*47
$GBGSV,2,1,08,27,68,207,46,41,68,033,38,32,49,251,49,30,42,305,32,1*74
$GBGSV,2,2,08,28,28,160,50,33,18,054,43,25,04,101,46,24,02,053,15,1*74
$GBGSV,2,1,07,41,68,033,36,27,68,207,43,32,49,251,43,30,42,305,41,5*7A
$GBGSV,2,2,07,28,28,160,41,33,18,054,29,25,04,101,37,5*43
$GNGGA,033657.000,4005.097768,N,10513.207890,W,2,44,0.54,1582.910,M,-20.670,M,,*7A
$GPGSV,3,1,10,23,69,007,34,18,59,119,38,10,51,289,44,48,39,209,46,1*67
$GPGSV,3,2,10,27,37,289,42,32,31,210,49,24,30,095,41,15,27,049,43,1*6A
$GPGSV,3,3,10,08,14,319,36,29,01,169,51,1*66
$GPGSV,2,1,07,23,69,007,38,18,59,119,47,10,51,289,39,27,37,289,43,8*6D
$GPGSV,2,2,07,32,31,210,45,24,30,095,35,08,14,319,43,8*55
$GLGSV,2,1,07,88,86,288,38,65,75,333,27,66,37,237,44,81,31,327,34,1*74
$GLGSV,2,2,07,72,25,038,26,73,02,021,20,74,02,060,,1*42
$GAGSV,2,1,07,19,74,161,37,12,65,322,37,33,54,119,43,10,39,314,22,7*7B
$GAGSV,2,2,07,04,20,211,48,11,13,311,29,26,07,126,37,7*44
$GAGSV,2,1,07,19,74,161,37,12,65,322,35,33,54,119,40,10,39,314,40,1*78
$GAGSV,2,2,07,04,20,211,45,11,13,311,32,26,07,126,39,1*4B
$GBGSV,2,1,08,41,68,033,37,27,68,207,46,32,49,251,49,30,42,305,33,1*7A
$GBGSV,2,2,08,28,28,160,50,33,18,054,44,25,04,101,45,24,02,053,16,1*73
$GBGSV,2,1,07,41,68,033,36,27,68,207,43,32,49,251,43,30,42,305,41,5*7A
$GBGSV,2,2,07,28,28,160,41,33,18,054,31,25,04,101,37,5*4A
$GNGGA,033702.000,4005.097732,N,10513.207872,W,2,44,0.54,1583.050,M,-20.670,M,,*74
$GPGSV,3,1,10,23,69,007,34,18,59,119,38,10,51,289,44,48,39,209,46,1*67
$GPGSV,3,2,10,27,37,289,42,32,31,210,49,24,30,095,41,15,27,049,43,1*6A
$GPGSV,3,3,10,08,14,319,37,29,01,169,51,1*67
$GPGSV,2,1,07,23,69,007,38,18,59,119,47,10,51,289,39,27,37,289,43,8*6D
$GPGSV,2,2,07,32,31,210,45,24,30,095,35,08,14,319,43,8*55
$GLGSV,2,1,07,88,86,264,38,65,75,333,28,66,37,237,44,81,31,327,35,1*78
$GLGSV,2,2,07,72,25,038,28,73,02,021,17,74,02,060,,1*48
$GAGSV,2,1,07,19,74,161,37,12,65,322,37,33,54,119,43,10,39,314,19,7*73
$GAGSV,2,2,07,04,20,211,48,11,13,311,30,26,07,126,38,7*43
$GAGSV,2,1,07,19,74,161,37,12,65,322,35,33,54,119,40,10,39,314,40,1*78
$GAGSV,2,2,07,04,20,211,45,11,13,311,33,26,07,126,39,1*4A
$GBGSV,2,1,08,41,68,033,37,27,68,207,46,32,49,251,49,30,42,305,34,1*7D
$GBGSV,2,2,08,28,28,160,50,33,18,054,44,25,04,101,45,24,02,053,17,1*72
$GBGSV,2,1,07,41,68,033,36,27,68,207,43,32,49,251,43,30,42,305,41,5*7A
$GBGSV,2,2,07,28,28,160,41,33,18,054,31,25,04,101,37,5*4A
$GNGGA,033707.000,4005.097624,N,10513.207980,W,2,45,0.54,1583.270,M,-20.670,M,,*7A
$GPGSV,3,1,10,23,69,007,34,18,59,119,39,10,51,289,44,48,39,209,46,1*66
$GPGSV,3,2,10,27,37,289,42,32,31,210,49,24,30,095,41,15,27,049,42,1*6B
$GPGSV,3,3,10,08,14,319,37,29,01,169,51,1*67
$GPGSV,2,1,07,23,69,007,38,18,59,119,47,10,51,289,39,27,37,289,43,8*6D
$GPGSV,2,2,07,32,31,210,45,24,30,095,35,08,14,319,43,8*55
$GLGSV,2,1,07,88,86,264,39,65,75,333,29,66,37,237,44,81,31,327,37,1*7A
$GLGSV,2,2,07,72,25,038,30,73,02,021,17,74,02,060,,1*41
$GAGSV,2,1,07,19,74,161,37,12,65,322,37,33,54,119,43,10,39,314,19,7*73
$GAGSV,2,2,07,04,20,211,48,11,13,311,30,26,07,126,38,7*43
$GAGSV,2,1,07,19,74,161,37,12,65,322,34,33,54,119,40,10,39,314,40,1*79
$GAGSV,2,2,07,04,20,211,45,11,13,311,34,26,07,126,39,1*4D
$GBGSV,2,1,08,41,68,033,38,27,68,207,46,32,49,251,49,30,42,305,35,1*73
$GBGSV,2,2,08,28,28,160,50,33,18,054,44,25,04,101,45,24,02,053,16,1*73
$GBGSV,2,1,07,41,68,033,36,27,68,207,43,32,49,251,43,30,42,305,41,5*7A
$GBGSV,2,2,07,28,28,160,41,33,18,054,31,25,04,101,37,5*4A
$GNGGA,033712.000,4005.097528,N,10513.208082,W,2,44,0.54,1583.488,M,-20.669,M,,*7D
$GPGSV,3,1,10,23,69,007,34,18,59,119,39,10,51,289,44,48,39,209,46,1*66
$GPGSV,3,2,10,27,37,289,42,32,31,210,49,24,30,095,41,15,27,049,42,1*6B
$GPGSV,3,3,10,08,14,319,38,29,01,169,51,1*68
$GPGSV,2,1,07,23,69,007,39,18,59,119,47,10,51,289,39,27,37,289,43,8*6C
$GPGSV,2,2,07,32,31,210,45,24,30,095,36,08,14,319,43,8*56
$GLGSV,2,1,07,88,86,264,40,65,75,333,28,66,37,237,44,81,31,327,38,1*7A
$GLGSV,2,2,07,72,25,038,30,73,02,021,14,74,02,060,,1*42
$GAGSV,2,1,07,19,74,161,37,12,65,322,37,33,54,119,43,10,39,314,17,7*7D
$GAGSV,2,2,07,04,20,211,48,11,13,311,31,26,07,126,39,7*43
$GAGSV,2,1,07,19,74,161,37,12,65,322,34,33,54,119,40,10,39,314,40,1*79
$GAGSV,2,2,07,04,20,211,45,11,13,311,35,26,07,126,39,1*4C
$GBGSV,2,1,08,41,68,033,38,27,68,207,46,32,49,251,49,30,42,305,35,1*73
$GBGSV,2,2,08,28,28,160,50,33,18,054,44,25,04,101,44,24,02,053,15,1*71
$GBGSV,2,1,07,41,68,033,36,27,68,207,43,32,49,251,43,30,42,305,41,5*7A
$GBGSV,2,2,07,28,28,160,41,33,18,054,32,25,04,101,37,5*49
$GNGGA,033717.000,4005.097444,N,10513.208184,W,2,44,0.54,1583.563,M,-20.670,M,,*78
$GPGSV,3,1,10,23,69,007,34,18,59,119,39,10,51,289,44,48,39,209,46,1*66
$GPGSV,3,2,10,27,37,289,42,32,31,210,49,24,30,095,41,15,27,049,42,1*6B
$GPGSV,3,3,10,08,14,319,38,29,01,169,51,1*68
$GPGSV,2,1,07,23,69,007,39,18,59,119,47,10,51,289,39,27,37,289,43,8*6C
$GPGSV,2,2,07,32,31,210,45,24,30,095,36,08,14,319,43,8*56
$GLGSV,2,1,07,88,86,264,40,65,75,333,28,66,37,237,44,81,31,327,38,1*7A
$GLGSV,2,2,07,72,25,038,28,73,02,021,12,74,02,060,,1*4D
$GAGSV,2,1,07,19,74,161,37,12,65,322,37,33,54,119,43,10,39,314,17,7*7D
$GAGSV,2,2,07,04,20,211,48,11,13,311,31,26,07,126,39,7*43
$GAGSV,2,1,07,19,74,161,37,12,65,322,34,33,54,119,41,10,39,314,40,1*78
$GAGSV,2,2,07,04,20,211,45,11,13,311,36,26,07,126,38,1*4E
$GBGSV,2,1,08,41,68,033,38,27,68,207,46,32,49,251,49,30,42,305,33,1*75
$GBGSV,2,2,08,28,28,160,50,33,18,054,44,25,04,101,44,24,02,053,13,1*77
$GBGSV,2,1,07,41,68,033,36,27,68,207,43,32,49,251,43,30,42,305,41,5*7A
$GBGSV,2,2,07,28,28,160,41,33,18,054,30,25,04,101,37,5*4B
$GNGGA,033722.000,4005.097492,N,10513.208184,W,2,44,0.54,1583.589,M,-20.669,M,,*79
$GPGSV,3,1,10,23,69,007,34,18,59,119,39,10,51,289,44,48,39,209,46,1*66
$GPGSV,3,2,10,27,37,289,42,32,31,210,49,24,30,095,41,15,27,049,42,1*6B
$GPGSV,3,3,10,08,14,319,39,29,01,169,51,1*69
$GPGSV,2,1,07,23,69,007,39,18,59,119,47,10,51,289,39,27,37,289,43,8*6C
$GPGSV,2,2,07,32,31,210,45,24,30,095,36,08,14,319,43,8*56
$GLGSV,2,1,07,88,86,264,39,65,75,333,28,66,37,237,44,81,31,327,38,1*74
$GLGSV,2,2,07,72,25,038,27,73,02,021,17,74,02,060,,1*47
$GAGSV,2,1,07,19,74,161,37,12,65,322,37,33,54,119,43,10,39,314,14,7*7E
$GAGSV,2,2,07,04,20,211,48,11,13,311,31,26,07,126,40,7*4D
$GAGSV,2,1,07,19,74,161,37,12,65,322,34,33,54,119,41,10,39,314,40,1*78
$GAGSV,2,2,07,04,20,211,44,11,13,311,36,26,07,126,38,1*4F
$GBGSV,2,1,08,41,68,033,40,27,68,207,46,32,49,251,48,30,42,305,30,1*78
$GBGSV,2,2,08,28,28,160,50,33,18,054,44,25,04,101,44,24,02,053,12,1*76
$GBGSV,2,1,07,41,68,033,36,27,68,207,43,32,49,251,43,30,42,305,41,5*7A
$GBGSV,2,2,07,28,28,160,41,33,18,054,28,25,04,101,37,5*42
$GNGGA,033727.000,4005.097570,N,10513.208172,W,2,46,0.54,1583.645,M,-20.670,M,,*71
$GPGSV,3,1,10,23,69,007,35,18,59,119,40,10,51,289,44,48,39,209,46,1*69
$GPGSV,3,2,10,27,37,289,42,32,31,210,49,24,30,095,41,15,27,049,42,1*6B
$GPGSV,3,3,10,08,14,319,39,29,01,169,51,1*69
$GPGSV,2,1,07,23,69,007,39,18,59,119,47,10,51,289,39,27,37,289,43,8*6C
$GPGSV,2,2,07,32,31,210,45,24,30,095,36,08,14,319,43,8*56
$GLGSV,2,1,07,88,86,264,40,65,75,333,25,66,37,237,44,81,31,327,37,1*78
$GLGSV,2,2,07,72,25,038,29,73,02,021,16,74,02,060,,1*48
$GAGSV,2,1,07,19,74,161,37,12,65,322,37,33,54,119,43,10,39,314,16,7*7C
$GAGSV,2,2,07,04,20,211,48,11,13,311,29,26,07,126,40,7*44
$GAGSV,2,1,07,19,74,161,37,12,65,322,33,33,54,119,41,10,39,314,40,1*7F
$GAGSV,2,2,07,04,20,211,44,11,13,311,36,26,07,126,38,1*4F
$GBGSV,2,1,08,41,68,033,40,27,67,206,46,32,49,251,48,30,42,305,22,1*75
$GBGSV,2,2,08,28,28,160,50,33,18,054,44,25,05,101,44,24,02,052,13,1*77
$GBGSV,2,1,07,41,68,033,36,27,67,206,43,32,49,251,43,30,42,305,41,5*74
$GBGSV,2,2,07,28,28,160,41,33,18,054,26,25,05,101,37,5*4D
$GNGGA,033732.000,4005.097582,N,10513.208316,W,2,46,0.54,1583.850,M,-20.670,M,,*72
$GPGSV,3,1,10,23,69,007,35,18,59,119,40,10,51,289,44,48,39,209,46,1*69
$GPGSV,3,2,10,27,37,289,41,32,31,210,49,24,30,095,41,15,27,049,42,1*68
$GPGSV,3,3,10,08,14,319,39,29,01,169,51,1*69
$GPGSV,2,1,07,23,69,007,39,18,59,119,47,10,51,289,39,27,37,289,43,8*6C
$GPGSV,2,2,07,32,31,210,45,24,30,095,36,08,14,319,43,8*56
$GLGSV,2,1,07,88,86,264,41,65,75,333,25,66,37,237,43,81,31,327,36,1*7F
$GLGSV,2,2,07,72,25,038,30,73,02,021,17,74,02,060,,1*41
$GAGSV,2,1,07,19,74,161,37,12,65,322,37,33,54,119,43,10,39,314,20,7*79
$GAGSV,2,2,07,04,20,211,47,11,13,311,30,26,07,126,40,7*43
$GAGSV,2,1,07,19,74,161,37,12,65,322,33,33,54,119,41,10,39,314,40,1*7F
$GAGSV,2,2,07,04,20,211,44,11,13,311,36,26,07,126,38,1*4F
$GBGSV,2,1,08,41,68,033,40,27,67,206,46,32,50,252,48,30,43,304,17,1*78
$GBGSV,2,2,08,28,27,160,50,33,18,054,44,25,05,101,44,24,02,052,17,1*7C
$GBGSV,2,1,07,41,68,033,36,27,67,206,43,32,50,252,43,30,43,304,41,5*7F
$GBGSV,2,2,07,28,27,160,41,33,18,054,25,25,05,101,37,5*41
$GNGGA,033737.000,4005.097600,N,10513.208448,W,2,47,0.54,1584.085,M,-20.670,M,,*74
$GPGSV,3,1,10,23,69,007,35,18,59,119,40,10,51,289,44,48,39,209,46,1*69
$GPGSV,3,2,10,27,37,289,41,32,31,210,49,24,30,095,41,15,27,049,42,1*68
$GPGSV,3,3,10,08,14,319,39,29,01,169,51,1*69
$GPGSV,2,1,07,23,69,007,39,18,59,119,47,10,51,289,39,27,37,289,43,8*6C
$GPGSV,2,2,07,32,31,210,45,24,30,095,36,08,14,319,43,8*56
$GLGSV,2,1,07,88,86,264,40,65,75,333,26,66,37,237,43,81,31,327,36,1*7D
$GLGSV,2,2,07,72,25,038,31,73,02,021,18,74,02,060,,1*4F
$GAGSV,2,1,07,19,74,161,37,12,65,322,37,33,54,119,43,10,39,314,21,7*78
$GAGSV,2,2,07,04,20,211,47,11,13,311,30,26,07,126,40,7*43
$GAGSV,2,1,07,19,74,161,37,12,65,322,33,33,54,119,41,10,39,314,40,1*7F
$GAGSV,2,2,07,04,20,211,44,11,13,311,36,26,07,126,37,1*40
$GBGSV,2,1,08,41,68,033,40,27,67,206,46,32,50,252,48,30,43,304,20,1*7C
$GBGSV,2,2,08,28,27,160,50,33,17,054,44,25,05,101,44,24,02,052,19,1*7D
$GBGSV,2,1,07,41,68,033,35,27,67,206,43,32,50,252,43,30,43,304,41,5*7C
$GBGSV,2,2,07,28,27,160,41,33,17,054,26,25,05,101,37,5*4D
$GNGGA,033742.000,4005.097582,N,10513.208496,W,2,47,0.54,1584.329,M,-20.670,M,,*79
$GPGSV,3,1,10,23,69,007,35,18,59,119,40,10,51,289,44,48,39,209,46,1*69
$GPGSV,3,2,10,27,37,289,41,32,31,210,49,24,30,095,41,15,27,049,42,1*68
$GPGSV,3,3,10,08,14,319,38,29,01,169,50,1*69
$GPGSV,2,1,07,23,69,007,39,18,59,119,47,10,51,289,39,27,37,289,43,8*6C
$GPGSV,2,2,07,32,31,210,45,24,30,095,36,08,14,319,42,8*57
$GLGSV,2,1,07,88,86,264,39,65,75,333,,66,37,237,43,81,31,327,36,1*77
$GLGSV,2,2,07,72,25,038,31,73,02,021,23,74,02,060,,1*47
$GAGSV,2,1,07,19,74,161,37,12,65,322,37,33,54,119,43,10,39,314,20,7*79
$GAGSV,2,2,07,04,20,211,47,11,13,311,30,26,07,126,40,7*43
$GAGSV,2,1,07,19,74,161,37,12,65,322,33,33,54,119,41,10,39,314,40,1*7F
$GAGSV,2,2,07,04,20,211,44,11,13,311,36,26,07,126,37,1*40
$GBGSV,2,1,08,41,67,034,40,27,67,206,46,32,50,252,48,30,43,304,22,1*76
$GBGSV,2,2,08,28,27,160,50,33,17,054,44,25,05,101,44,24,02,052,19,1*7D
$GBGSV,2,1,07,41,67,034,35,27,67,206,43,32,50,252,43,30,43,304,41,5*74
$GBGSV,2,2,07,28,27,160,41,33,17,054,26,25,05,101,37,5*4D
$GNGGA,033747.000,4005.097552,N,10513.208400,W,2,47,0.54,1584.440,M,-20.669,M,,*7E
$GPGSV,3,1,10,23,69,007,35,18,59,119,40,10,51,289,44,48,39,209,46,1*69
$GPGSV,3,2,10,27,37,289,41,32,31,210,49,24,30,095,41,15,27,049,42,1*68
$GPGSV,3,3,10,08,14,319,37,29,01,169,48,1*6F
$GPGSV,2,1,07,23,69,007,39,18,59,119,47,10,51,289,39,27,37,289,43,8*6C
$GPGSV,2,2,07,32,31,210,45,24,30,095,37,08,14,319,42,8*56
$GLGSV,2,1,07,88,86,264,40,65,75,333,,66,37,237,44,81,31,327,36,1*7E
$GLGSV,2,2,07,72,25,038,32,73,02,021,23,74,02,060,,1*44
$GAGSV,2,1,07,19,74,161,37,12,65,322,36,33,54,119,42,10,39,314,16,7*7C
$GAGSV,2,2,07,04,20,211,47,11,13,311,30,26,07,126,41,7*42
$GAGSV,2,1,07,19,74,161,37,12,65,322,33,33,54,119,41,10,39,314,40,1*7F
$GAGSV,2,2,07,04,20,211,44,11,13,311,35,26,07,126,36,1*42
$GBGSV,2,1,08,41,67,034,40,27,67,206,46,32,50,252,48,30,43,304,22,1*76
$GBGSV,2,2,08,28,27,160,50,33,17,054,44,25,05,101,43,24,02,052,19,1*7A
$GBGSV,2,1,07,41,67,034,35,27,67,206,44,32,50,252,43,30,43,304,41,5*73
$GBGSV,2,2,07,28,27,160,41,33,17,054,27,25,05,101,37,5*4C
$GNGGA,033752.000,4005.097486,N,10513.208220,W,2,47,0.54,1584.430,M,-20.670,M,,*79
$GPGSV,3,1,10,23,69,007,35,18,59,119,40,10,51,289,44,48,39,209,47,1*68
$GPGSV,3,2,10,27,37,289,41,32,31,210,49,24,30,095,41,15,27,049,42,1*68
$GPGSV,3,3,10,08,14,319,34,29,01,169,48,1*6C
$GPGSV,2,1,07,23,69,007,39,18,59,119,47,10,51,289,40,27,37,289,43,8*62
$GPGSV,2,2,07,32,31,210,45,24,30,095,37,08,14,319,42,8*56
$GLGSV,2,1,07,88,86,264,40,65,75,333,25,66,37,237,44,81,31,327,36,1*79
$GLGSV,2,2,07,72,25,038,33,73,02,021,26,74,02,060,,1*40
$GAGSV,2,1,07,19,74,161,37,12,65,322,36,33,54,119,42,10,39,314,15,7*7F
$GAGSV,2,2,07,04,20,211,47,11,13,311,32,26,07,126,41,7*40
$GAGSV,2,1,07,19,74,161,37,12,65,322,33,33,54,119,41,10,39,314,40,1*7F
$GAGSV,2,2,07,04,20,211,44,11,13,311,34,26,07,126,36,1*43
$GBGSV,2,1,08,41,67,034,40,27,67,206,47,32,50,252,48,30,43,304,24,1*71
$GBGSV,2,2,08,28,27,160,50,33,17,054,44,25,05,101,43,24,02,052,19,1*7A
$GBGSV,2,1,07,41,67,034,35,27,67,206,44,32,50,252,43,30,43,304,41,5*73
$GBGSV,2,2,07,28,27,160,41,33,17,054,28,25,05,101,37,5*43
$GNGGA,033757.000,4005.097396,N,10513.208100,W,2,47,0.54,1584.488,M,-20.670,M,,*78
$GPGSV,3,1,10,23,69,007,35,18,59,119,40,10,51,289,44,48,39,209,46,1*69
$GPGSV,3,2,10,27,37,289,41,32,31,210,49,24,30,095,41,15,27,049,42,1*68
$GPGSV,3,3,10,08,14,319,34,29,01,169,45,1*61
$GPGSV,2,1,07,23,69,007,39,18,59,119,47,10,51,289,40,27,37,289,43,8*62
$GPGSV,2,2,07,32,31,210,45,24,30,095,37,08,14,319,42,8*56
$GLGSV,2,1,07,88,86,264,39,65,75,333,,66,37,237,44,81,31,327,37,1*71
$GLGSV,2,2,07,72,25,038,33,73,02,021,26,74,02,060,,1*40
$GAGSV,2,1,07,19,74,161,37,12,65,322,36,33,54,119,42,10,39,314,18,7*72
$GAGSV,2,2,07,04,20,211,47,11,13,311,32,26,07,126,41,7*40
$GAGSV,2,1,07,19,74,161,37,12,65,322,33,33,54,119,42,10,39,314,40,1*7C
$GAGSV,2,2,07,04,20,211,44,11,13,311,32,26,07,126,36,1*45
$GBGSV,2,1,08,41,67,034,40,27,67,206,47,32,50,252,48,30,43,304,29,1*7C
$GBGSV,2,2,08,28,27,160,50,33,17,054,44,25,05,101,42,24,02,052,19,1*7B
$GBGSV,2,1,07,41,67,034,35,27,67,206,44,32,50,252,43,30,43,304,41,5*73
$GBGSV,2,2,07,28,27,160,41,33,17,054,28,25,05,101,37,5*43
$GNGGA,033802.000,4005.097294,N,10513.207998,W,2,47,0.54,1584.422,M,-20.670,M,,*72
$GPGSV,3,1,10,23,69,007,35,18,59,119,40,10,51,289,44,48,39,209,46,1*69
$GPGSV,3,2,10,27,37,289,41,32,31,210,49,24,30,095,41,15,27,049,42,1*68
$GPGSV,3,3,10,08,14,319,33,29,01,169,43,1*60
$GPGSV,2,1,07,23,69,007,39,18,59,119,47,10,51,289,40,27,37,289,43,8*62
$GPGSV,2,2,07,32,31,210,45,24,30,095,37,08,14,319,42,8*56
$GLGSV,2,1,07,88,86,264,39,65,75,333,30,66,37,237,44,81,31,327,37,1*72
$GLGSV,2,2,07,72,25,038,34,73,02,021,24,74,02,060,17,1*43
$GAGSV,2,1,07,19,74,161,37,12,65,322,36,33,54,119,42,10,39,314,18,7*72
$GAGSV,2,2,07,04,20,211,47,11,13,311,32,26,07,126,41,7*40
$GAGSV,2,1,07,19,74,161,37,12,65,322,33,33,54,119,42,10,39,314,39,1*72
$GAGSV,2,2,07,04,20,211,43,11,13,311,31,26,07,126,36,1*41
$GBGSV,2,1,08,41,67,034,40,27,67,206,47,32,50,252,48,30,43,304,32,1*76
$GBGSV,2,2,08,28,27,160,50,33,17,054,44,25,05,101,42,24,02,052,18,1*7A
$GBGSV,2,1,07,41,67,034,34,27,67,206,44,32,50,252,43,30,43,304,41,5*72
$GBGSV,2,2,07,28,27,160,41,33,17,054,27,25,05,101,37,5*4C
$GNGGA,033807.000,4005.097228,N,10513.207890,W,2,47,0.54,1584.397,M,-20.669,M,,*78
$GPGSV,3,1,10,23,69,007,35,18,59,119,40,10,51,289,44,48,39,209,46,1*69
$GPGSV,3,2,10,27,37,289,41,32,31,210,49,24,30,095,41,15,27,049,42,1*68
$GPGSV,3,3,10,08,14,319,32,29,01,169,41,1*63
$GPGSV,2,1,07,23,69,007,39,18,59,119,47,10,51,289,40,27,37,289,43,8*62
$GPGSV,2,2,07,32,31,210,45,24,30,095,37,08,14,319,42,8*56
$GLGSV,2,1,07,88,86,264,38,65,75,333,,66,37,237,44,81,31,327,37,1*70
$GLGSV,2,2,07,72,25,038,33,73,02,021,25,74,02,060,19,1*4B
$GAGSV,2,1,07,19,74,161,37,12,65,322,36,33,54,119,41,10,39,314,20,7*7A
$GAGSV,2,2,07,04,20,211,47,11,13,311,31,26,07,126,42,7*40
$GAGSV,2,1,07,19,74,161,37,12,65,322,33,33,54,119,42,10,39,314,39,1*72
$GAGSV,2,2,07,04,20,211,43,11,13,311,31,26,07,126,34,1*43
$GBGSV,2,1,08,41,67,034,40,27,67,206,47,32,50,252,48,30,43,304,34,1*70
$GBGSV,2,2,08,28,27,160,50,33,17,054,43,25,05,101,42,24,02,052,15,1*70
$GBGSV,2,1,07,41,67,034,34,27,67,206,44,32,50,252,43,30,43,304,41,5*72
$GBGSV,2,2,07,28,27,160,41,33,17,054,25,25,05,101,37,5*4E
$GNGGA,033812.000,4005.097204,N,10513.207758,W,2,47,0.54,1584.390,M,-20.670,M,,*76
$GPGSV,3,1,10,23,69,007,35,18,59,119,41,10,51,289,44,48,39,209,47,1*69
$GPGSV,3,2,10,27,37,289,42,32,31,210,49,24,30,095,41,15,27,049,42,1*6B
$GPGSV,3,3,10,08,15,318,33,29,01,169,40,1*63
$GPGSV,2,1,07,23,69,007,39,18,59,119,47,10,51,289,40,27,37,289,43,8*62
$GPGSV,2,2,07,32,31,210,45,24,30,095,37,08,15,318,43,8*57
$GLGSV,2,1,07,88,86,264,39,65,75,333,29,66,37,237,44,81,31,327,37,1*7A
$GLGSV,2,2,07,72,25,038,33,73,02,021,25,74,02,060,17,1*45
$GAGSV,2,1,07,19,74,161,37,12,65,322,36,33,54,119,40,10,39,314,23,7*78
$GAGSV,2,2,07,04,20,211,47,11,13,311,31,26,07,126,42,7*40
$GAGSV,2,1,07,19,74,161,37,12,65,322,33,33,54,119,42,10,39,314,39,1*72
$GAGSV,2,2,07,04,20,211,43,11,13,311,31,26,07,126,34,1*43
$GBGSV,2,1,08,41,67,034,40,27,67,206,47,32,50,252,48,30,43,304,34,1*70
$GBGSV,2,2,08,28,27,160,50,33,17,054,43,25,05,101,42,24,02,052,12,1*77
$GBGSV,2,1,07,41,67,034,34,27,67,206,44,32,50,252,43,30,43,304,41,5*72
$GBGSV,2,2,07,28,27,160,41,33,17,054,23,25,05,101,37,5*48
$GNGGA,033817.000,4005.097210,N,10513.207626,W,2,46,0.54,1584.287,M,-20.670,M,,*78
$GPGSV,3,1,10,23,69,007,35,18,59,119,41,10,52,290,44,48,39,209,47,1*62
$GPGSV,3,2,10,27,37,289,42,32,31,210,49,24,30,095,41,15,27,049,41,1*68
$GPGSV,3,3,10,08,15,318,34,29,01,169,38,1*6B
$GPGSV,2,1,07,23,69,007,39,18,59,119,47,10,52,290,40,27,37,289,43,8*69
$GPGSV,2,2,07,32,31,210,45,24,30,095,37,08,15,318,43,8*57
$GLGSV,2,1,07,88,86,264,40,65,75,333,,66,37,237,44,81,31,327,35,1*7D
$GLGSV,2,2,07,72,25,038,34,73,02,021,25,74,02,060,18,1*4D
$GAGSV,2,1,07,19,74,161,37,12,65,322,36,33,54,119,40,10,39,314,21,7*7A
$GAGSV,2,2,07,04,20,211,47,11,13,311,31,26,07,126,42,7*40
$GAGSV,2,1,07,19,74,161,37,12,65,322,33,33,54,119,42,10,39,314,39,1*72
$GAGSV,2,2,07,04,20,211,43,11,13,311,32,26,07,126,33,1*47
$GBGSV,2,1,08,41,67,034,40,27,67,206,47,32,50,252,48,30,43,304,31,1*75
$GBGSV,2,2,08,28,27,160,50,33,17,054,43,25,05,101,42,24,02,052,14,1*71
$GBGSV,2,1,06,41,67,034,34,27,67,206,44,32,50,252,43,30,43,304,40,5*72
$GBGSV,2,2,06,28,27,160,41,25,05,101,37,5*7F
$GNGGA,033822.000,4005.097198,N,10513.207506,W,2,47,0.54,1584.046,M,-20.670,M,,*72
$GPGSV,3,1,10,23,69,007,35,18,58,121,41,10,52,290,44,48,39,209,47,1*68
$GPGSV,3,2,10,27,37,289,42,32,31,210,49,24,30,095,41,15,26,049,40,1*68
$GPGSV,3,3,10,08,15,318,34,29,01,169,36,1*65
$GPGSV,2,1,07,23,69,007,39,18,58,121,47,10,52,290,40,27,37,289,43,8*63
$GPGSV,2,2,07,32,31,210,45,24,30,095,37,08,15,318,43,8*57
$GLGSV,2,1,07,88,86,264,41,65,75,333,28,66,37,237,43,81,31,327,34,1*70
$GLGSV,2,2,07,72,25,038,34,73,02,021,24,74,02,060,18,1*4C
$GAGSV,2,1,07,19,74,161,37,12,65,322,36,33,54,119,40,10,39,314,17,7*7F
$GAGSV,2,2,07,04,20,211,47,11,13,311,31,26,07,126,42,7*40
$GAGSV,2,1,07,19,74,161,37,12,65,322,33,33,54,119,42,10,39,314,38,1*73
$GAGSV,2,2,07,04,20,211,42,11,13,311,33,26,07,126,33,1*47
$GBGSV,2,1,08,41,67,034,40,27,67,206,47,32,50,252,48,30,43,304,27,1*72
$GBGSV,2,2,08,28,27,160,50,33,17,054,43,25,05,101,42,24,02,052,18,1*7D
$GBGSV,2,1,07,41,67,034,34,27,67,206,44,32,50,252,43,30,43,304,40,5*73
$GBGSV,2,2,07,28,27,160,41,33,17,054,26,25,05,101,37,5*4D
$GNGGA,033827.000,4005.097162,N,10513.207416,W,2,46,0.54,1583.802,M,-20.670,M,,*7C
$GPGSV,3,1,10,23,69,010,35,18,58,121,41,10,52,290,44,48,39,209,47,1*6E
$GPGSV,3,2,10,27,37,289,42,32,31,210,49,24,30,094,41,15,26,049,39,1*67
$GPGSV,3,3,10,08,15,318,34,29,01,169,35,1*66
$GPGSV,2,1,07,23,69,010,39,18,58,121,47,10,52,290,40,27,37,289,43,8*65
$GPGSV,2,2,07,32,31,210,45,24,30,094,38,08,15,318,43,8*59
$GLGSV,2,1,07,88,86,264,40,65,75,333,,66,37,237,43,81,31,327,34,1*7B
$GLGSV,2,2,07,72,25,038,33,73,02,021,23,74,02,060,,1*45
$GAGSV,2,1,07,19,74,161,37,12,65,322,36,33,54,119,40,10,39,314,17,7*7F
$GAGSV,2,2,07,04,20,211,46,11,13,311,31,26,07,126,43,7*40
$GAGSV,2,1,07,19,74,161,37,12,65,322,33,33,54,119,42,10,39,314,38,1*73
$GAGSV,2,2,07,04,20,211,42,11,13,311,35,26,07,126,33,1*41
$GBGSV,2,1,08,41,67,034,40,27,67,206,47,32,50,252,48,30,43,304,17,1*71
$GBGSV,2,2,08,28,27,160,49,33,17,054,43,25,05,101,42,24,02,052,18,1*75
$GBGSV,2,1,07,41,67,034,34,27,67,206,44,32,50,252,43,30,43,304,40,5*73
$GBGSV,2,2,07,28,27,160,41,33,17,054,26,25,05,101,37,5*4D
$GNGGA,033832.000,4005.097114,N,10513.207272,W,2,47,0.54,1583.560,M,-20.670,M,,*75
$GPGSV,3,1,10,23,69,010,35,18,58,121,41,10,52,290,45,48,39,209,47,1*6F
$GPGSV,3,2,10,27,38,288,42,32,31,210,49,24,30,094,41,15,26,049,37,1*67
$GPGSV,3,3,10,08,15,318,34,29,,,34,1*58
$GPGSV,2,1,07,23,69,010,39,18,58,121,46,10,52,290,40,27,38,288,43,8*6A
$GPGSV,2,2,07,32,31,210,45,24,30,094,38,08,15,318,43,8*59
$GLGSV,2,1,07,88,86,264,39,65,75,333,27,66,37,237,43,81,31,327,35,1*71
$GLGSV,2,2,07,72,25,038,33,73,02,021,21,74,02,060,16,1*40
$GAGSV,2,1,07,19,74,161,37,12,65,322,36,33,54,119,40,10,39,314,22,7*79
$GAGSV,2,2,07,04,20,211,46,11,13,311,31,26,07,126,43,7*40
$GAGSV,2,1,07,19,74,161,37,12,65,322,33,33,54,119,42,10,39,314,38,1*73
$GAGSV,2,2,07,04,20,211,42,11,13,311,35,26,07,126,31,1*43
$GBGSV,2,1,08,41,67,034,40,27,67,206,47,32,50,252,48,30,43,304,25,1*70
$GBGSV,2,2,08,28,27,160,49,33,17,054,43,25,05,101,42,24,02,052,18,1*75
$GBGSV,2,1,07,41,67,034,34,27,67,206,44,32,50,252,43,30,43,304,40,5*73
$GBGSV,2,2,07,28,27,160,41,33,17,054,27,25,05,101,37,5*4C
$GNGGA,033837.000,4005.097108,N,10513.207212,W,2,47,0.54,1583.375,M,-20.670,M,,*79
$GPGSV,3,1,09,23,69,010,36,18,58,121,41,10,52,290,45,48,39,209,47,1*64
$GPGSV,3,2,09,27,38,288,41,32,33,210,49,24,30,094,41,15,26,049,36,1*6F
$GPGSV,3,3,09,08,15,318,34,1*5C
$GPGSV,2,1,07,23,69,010,39,18,58,121,46,10,52,290,40,27,38,288,43,8*6A
$GPGSV,2,2,07,32,33,210,45,24,30,094,38,08,15,318,43,8*5B
$GLGSV,2,1,07,88,86,264,41,65,75,333,,66,37,237,43,81,31,327,34,1*7A
$GLGSV,2,2,07,72,25,038,34,74,02,060,18,73,02,021,20,1*48
$GAGSV,2,1,07,19,74,161,37,12,65,322,36,33,54,119,40,10,39,314,26,7*7D
$GAGSV,2,2,07,04,20,211,46,11,13,311,31,26,07,126,43,7*40
$GAGSV,2,1,07,19,74,161,37,12,65,322,32,33,54,119,42,10,39,314,37,1*7D
$GAGSV,2,2,07,04,20,211,41,11,13,311,36,26,07,126,31,1*43
$GBGSV,2,1,08,41,67,034,40,27,67,206,47,32,50,252,48,30,43,304,29,1*7C
$GBGSV,2,2,08,28,27,160,49,33,17,054,43,25,05,101,41,24,02,052,17,1*79
$GBGSV,2,1,07,41,67,034,35,27,67,206,44,32,50,252,43,30,43,304,40,5*72
$GBGSV,2,2,07,28,27,160,41,33,17,054,29,25,05,101,38,5*4D
$GNGGA,033842.000,4005.097048,N,10513.207164,W,2,47,0.54,1583.189,M,-20.670,M,,*7D
$GPGSV,3,1,09,23,69,010,36,18,58,121,41,10,52,290,45,48,39,209,46,1*65
$GPGSV,3,2,09,27,38,288,41,32,33,210,49,24,30,094,41,15,26,049,34,1*6D
$GPGSV,3,3,09,08,15,318,34,1*5C
$GPGSV,2,1,07,23,69,010,39,18,58,121,46,10,52,290,40,27,38,288,43,8*6A
$GPGSV,2,2,07,32,33,210,45,24,30,094,38,08,15,318,43,8*5B
$GLGSV,2,1,07,88,86,264,41,65,75,333,27,66,37,237,43,81,31,327,35,1*7E
$GLGSV,2,2,07,72,25,038,35,74,02,060,17,73,02,021,17,1*42
$GAGSV,2,1,07,19,74,161,37,12,65,322,36,33,54,119,40,10,39,314,27,7*7C
$GAGSV,2,2,07,04,20,211,46,11,13,311,32,26,07,126,43,7*43
$GAGSV,2,1,07,19,74,161,37,12,65,322,32,33,54,119,42,10,39,314,37,1*7D
$GAGSV,2,2,07,04,20,211,41,11,13,311,37,26,07,126,29,1*4B
$GBGSV,2,1,08,41,67,034,39,27,67,206,47,32,50,252,48,30,43,304,24,1*7F
$GBGSV,2,2,08,28,27,160,49,33,17,054,43,25,05,101,41,24,02,052,16,1*78
$GBGSV,2,1,07,41,67,034,35,27,67,206,44,32,50,252,43,30,43,304,40,5*72
$GBGSV,2,2,07,28,27,160,41,33,17,054,29,25,05,101,38,5*4D
$GNGGA,033847.000,4005.096994,N,10513.207188,W,2,47,0.54,1583.134,M,-20.669,M,,*7D
$GPGSV,3,1,09,23,69,010,36,18,58,121,41,10,52,290,45,48,39,209,47,1*64
$GPGSV,3,2,09,27,38,288,41,32,33,210,49,24,30,094,41,15,26,049,32,1*6B
$GPGSV,3,3,09,08,15,318,34,1*5C
$GPGSV,2,1,07,23,69,010,39,18,58,121,46,10,52,290,40,27,38,288,43,8*6A
$GPGSV,2,2,07,32,33,210,45,24,30,094,38,08,15,318,43,8*5B
$GLGSV,2,1,07,88,86,264,40,65,75,333,29,66,37,237,44,81,31,327,36,1*75
$GLGSV,2,2,07,72,25,038,35,74,02,060,17,73,02,021,18,1*4D
$GAGSV,2,1,07,19,74,161,37,12,65,322,36,33,54,119,40,10,39,314,29,7*72
$GAGSV,2,2,07,04,21,211,46,11,13,311,32,26,07,126,44,7*45
$GAGSV,2,1,07,19,74,161,37,12,65,322,32,33,54,119,43,10,39,314,37,1*7C
$GAGSV,2,2,07,04,21,211,41,11,13,311,38,26,07,126,29,1*45
$GBGSV,2,1,08,41,67,034,39,27,67,206,47,32,50,252,48,30,43,304,26,1*7D
$GBGSV,2,2,08,28,27,160,49,33,17,054,43,25,05,101,40,24,02,052,16,1*79
$GBGSV,2,1,07,41,67,034,35,27,67,206,44,32,50,252,43,30,43,304,40,5*72
$GBGSV,2,2,07,28,27,160,42,33,17,054,29,25,05,101,38,5*4E
$GNGGA,033852.000,4005.096970,N,10513.207272,W,2,47,0.54,1583.317,M,-20.670,M,,*7E
$GPGSV,3,1,09,23,69,010,36,18,58,121,41,10,52,290,45,48,39,209,47,1*64
$GPGSV,3,2,09,27,38,288,41,32,33,210,49,24,30,094,41,15,26,049,31,1*68
$GPGSV,3,3,09,08,15,318,34,1*5C
$GPGSV,2,1,07,23,69,010,39,18,58,121,46,10,52,290,40,27,38,288,43,8*6A
$GPGSV,2,2,07,32,33,210,45,24,30,094,38,08,15,318,43,8*5B
$GLGSV,2,1,07,88,86,264,40,65,75,333,30,66,37,237,45,81,31,327,34,1*7E
$GLGSV,2,2,07,72,25,038,35,74,02,060,18,73,02,021,17,1*4D
$GAGSV,2,1,07,19,74,161,37,12,65,322,36,33,54,119,40,10,40,315,31,7*74
$GAGSV,2,2,07,04,21,211,46,11,13,311,32,26,07,126,44,7*45
$GAGSV,2,1,07,19,74,161,37,12,65,322,32,33,54,119,43,10,40,315,37,1*73
$GAGSV,2,2,07,04,21,211,41,11,13,311,38,26,07,126,29,1*45
$GBGSV,2,1,08,41,67,034,39,27,67,206,47,32,50,252,48,30,43,304,26,1*7D
$GBGSV,2,2,08,28,27,160,49,33,17,054,43,25,05,101,40,24,02,052,15,1*7A
$GBGSV,2,1,07,41,67,034,35,27,67,206,44,32,50,252,43,30,43,304,40,5*72
$GBGSV,2,2,07,28,27,160,42,33,17,054,29,25,05,101,38,5*4E
$GNGGA,033857.000,4005.096958,N,10513.207236,W,2,47,0.54,1583.424,M,-20.670,M,,*76
$GPGSV,3,1,09,23,69,010,36,18,58,121,41,10,52,290,45,48,39,209,47,1*64
$GPGSV,3,2,09,27,38,288,41,32,33,210,49,24,30,094,41,15,26,049,30,1*69
$GPGSV,3,3,09,08,15,318,33,1*5B
$GPGSV,2,1,07,23,69,010,39,18,58,121,46,10,52,290,40,27,38,288,43,8*6A
$GPGSV,2,2,07,32,33,210,45,24,30,094,38,08,15,318,43,8*5B
$GLGSV,2,1,07,88,86,264,40,65,75,333,31,66,37,237,45,81,31,327,34,1*7F
$GLGSV,2,2,07,72,25,038,36,74,02,060,18,73,02,021,21,1*4B
$GAGSV,2,1,07,19,74,161,37,12,66,322,35,33,54,119,40,10,40,315,32,7*77
$GAGSV,2,2,07,04,21,211,45,11,13,311,32,26,07,126,44,7*46
$GAGSV,2,1,07,19,74,161,37,12,66,322,32,33,54,119,43,10,40,315,37,1*70
$GAGSV,2,2,07,04,21,211,41,11,13,311,38,26,07,126,29,1*45
$GBGSV,2,1,08,41,67,034,40,27,67,206,47,32,50,252,48,30,43,304,26,1*73
$GBGSV,2,2,08,28,27,160,49,33,17,054,42,25,05,101,39,24,02,052,16,1*76
$GBGSV,2,1,07,41,67,034,35,27,67,206,44,32,50,252,43,30,43,304,40,5*72
$GBGSV,2,2,07,28,27,160,42,33,17,054,28,25,05,101,37,5*40
$GNGGA,033902.000,4005.096946,N,10513.207254,W,2,47,0.54,1583.590,M,-20.670,M,,*72
$GPGSV,3,1,09,23,69,010,36,18,58,121,42,10,52,290,45,48,39,209,46,1*66
$GPGSV,3,2,09,27,38,288,41,32,33,210,49,24,30,094,41,15,26,049,30,1*69
$GPGSV,3,3,09,08,15,318,30,1*58
$GPGSV,2,1,07,23,69,010,39,18,58,121,46,10,52,290,40,27,38,288,43,8*6A
$GPGSV,2,2,07,32,33,210,45,24,30,094,38,08,15,318,43,8*5B
$GLGSV,2,1,07,88,86,264,39,65,75,333,,66,37,237,45,81,31,327,34,1*73
$GLGSV,2,2,07,72,25,038,38,74,02,060,18,73,02,021,24,1*40
$GAGSV,2,1,07,19,75,159,37,12,66,322,35,33,54,119,40,10,40,315,33,7*7C
$GAGSV,2,2,07,04,21,211,45,11,13,311,32,26,07,126,45,7*47
$GAGSV,2,1,07,19,75,159,37,12,66,322,32,33,54,119,43,10,40,315,37,1*7A
$GAGSV,2,2,07,04,21,211,41,11,13,311,38,26,07,126,28,1*44
$GBGSV,2,1,08,41,67,034,40,27,67,206,47,32,50,252,48,30,43,304,27,1*72
$GBGSV,2,2,08,28,27,160,49,33,17,054,42,25,05,101,39,24,02,052,17,1*77
$GBGSV,2,1,07,41,67,034,35,27,67,206,44,32,50,252,43,30,43,304,40,5*72
$GBGSV,2,2,07,28,27,160,42,33,17,054,28,25,05,101,37,5*40
$GNGGA,033907.000,4005.096922,N,10513.207230,W,2,47,0.54,1583.795,M,-20.670,M,,*70
$GPGSV,3,1,09,23,69,010,36,18,58,121,42,10,52,290,45,48,39,209,47,1*67
$GPGSV,3,2,09,27,38,288,41,32,33,210,49,24,30,094,40,15,26,049,31,1*69
$GPGSV,3,3,09,08,15,318,30,1*58
$GPGSV,2,1,07,23,69,010,39,18,58,121,46,10,52,290,40,27,38,288,43,8*6A
$GPGSV,2,2,07,32,33,210,45,24,30,094,38,08,15,318,43,8*5B
$GLGSV,2,1,07,88,86,264,39,65,75,333,28,66,37,237,45,81,31,327,34,1*79
$GLGSV,2,2,07,72,25,038,38,74,02,060,18,73,02,021,26,1*42
$GAGSV,2,1,07,19,75,159,37,12,66,322,35,33,54,119,40,10,40,315,34,7*7B
$GAGSV,2,2,07,04,21,211,45,11,13,311,31,26,07,126,45,7*44
$GAGSV,2,1,07,19,75,159,37,12,66,322,32,33,54,119,43,10,40,315,37,1*7A
$GAGSV,2,2,07,04,21,211,41,11,13,311,38,26,07,126,27,1*4B
$GBGSV,2,1,08,41,67,034,40,27,67,206,47,32,50,252,48,30,43,304,28,1*7D
$GBGSV,2,2,08,28,27,160,49,33,17,054,42,25,05,101,39,24,02,052,17,1*77
$GBGSV,2,1,07,41,67,034,35,27,67,206,44,32,50,252,43,30,43,304,40,5*72
$GBGSV,2,2,07,28,27,160,42,33,17,054,28,25,05,101,37,5*40
$GNGGA,033912.000,4005.096934,N,10513.207122,W,2,46,0.54,1583.894,M,-20.670,M,,*7C
$GPGSV,3,1,09,23,69,010,36,18,58,121,42,10,52,290,45,48,39,209,47,1*67
$GPGSV,3,2,09,27,38,288,42,32,33,210,49,24,30,094,40,15,26,049,32,1*69
$GPGSV,3,3,09,08,15,318,30,1*58
$GPGSV,2,1,07,23,69,010,39,18,58,121,45,10,52,290,40,27,38,288,43,8*69
$GPGSV,2,2,07,32,33,210,45,24,30,094,38,08,15,318,43,8*5B
$GLGSV,2,1,07,88,86,264,41,65,75,333,27,66,37,237,45,81,31,327,32,1*7F
$GLGSV,2,2,07,72,25,038,38,74,02,060,17,73,02,021,28,1*43
$GAGSV,2,1,07,19,75,159,38,12,66,322,35,33,54,119,40,10,40,315,34,7*74
$GAGSV,2,2,07,04,21,211,45,11,13,311,31,26,07,127,45,7*45
$GAGSV,2,1,07,19,75,159,37,12,66,322,31,33,54,119,43,10,40,315,36,1*78
$GAGSV,2,2,07,04,21,211,40,11,13,311,37,26,07,127,25,1*46
$GBGSV,2,1,08,41,67,034,40,27,67,206,47,32,50,252,48,30,43,304,18,1*7E
$GBGSV,2,2,08,28,27,160,49,33,17,054,41,25,05,101,39,24,02,052,15,1*76
$GBGSV,2,1,07,41,67,034,34,27,67,206,44,32,50,252,42,30,43,304,40,5*72
$GBGSV,2,2,07,28,27,160,42,33,17,054,29,25,05,101,37,5*41
$GNGGA,033917.000,4005.096958,N,10513.207050,W,2,47,0.54,1584.021,M,-20.670,M,,*77
$GPGSV,3,1,09,23,69,010,36,18,58,121,43,10,52,290,45,48,39,209,46,1*67
$GPGSV,3,2,09,27,38,288,42,32,33,210,49,24,30,094,40,15,26,049,32,1*69
$GPGSV,3,3,09,08,15,318,28,1*51
$GPGSV,2,1,07,23,69,010,39,18,58,121,45,10,52,290,40,27,38,288,43,8*69
$GPGSV,2,2,07,32,33,210,45,24,30,094,38,08,15,318,43,8*5B
$GLGSV,2,1,07,88,86,264,41,65,75,333,28,66,37,237,45,81,31,327,32,1*70
$GLGSV,2,2,07,72,25,038,38,74,02,060,17,73,02,021,28,1*43
$GAGSV,2,1,07,19,75,159,38,12,66,322,35,33,54,120,40,10,40,315,34,7*7E
$GAGSV,2,2,07,04,21,211,45,11,13,311,30,26,07,127,45,7*44
$GAGSV,2,1,07,19,75,159,37,12,66,322,31,33,54,120,43,10,40,315,36,1*72
$GAGSV,2,2,07,04,21,211,40,11,13,311,36,26,07,127,25,1*47
$GBGSV,2,1,08,41,67,034,40,27,67,206,47,32,50,252,48,30,43,304,26,1*73
$GBGSV,2,2,08,28,27,160,49,33,17,054,41,25,05,101,39,24,02,052,14,1*77
$GBGSV,2,1,07,41,67,034,34,27,67,206,44,32,50,252,42,30,43,304,40,5*72
$GBGSV,2,2,07,28,27,160,42,33,17,054,31,25,05,101,37,5*48
$GNGGA,033922.000,4005.096916,N,10513.207032,W,2,47,0.54,1584.015,M,-20.670,M,,*78
$GPGSV,3,1,09,23,69,010,36,18,58,121,43,10,52,290,45,48,39,209,47,1*66
$GPGSV,3,2,09,27,38,288,42,32,33,210,49,24,30,094,41,15,26,049,34,1*6E
$GPGSV,3,3,09,08,15,318,30,1*58
$GPGSV,2,1,07,23,69,010,39,18,58,121,45,10,52,290,40,27,38,288,43,8*69
$GPGSV,2,2,07,32,33,210,45,24,30,094,38,08,15,318,43,8*5B
$GLGSV,2,1,07,88,86,264,40,65,74,338,,66,39,239,45,81,31,327,33,1*70
$GLGSV,2,2,07,72,25,038,38,74,02,060,19,73,02,021,29,1*4C
$GAGSV,2,1,07,19,75,159,38,12,66,322,35,33,54,120,39,10,40,315,34,7*70
$GAGSV,2,2,07,04,21,211,44,11,13,311,31,26,07,127,45,7*44
$GAGSV,2,1,07,19,75,159,37,12,66,322,31,33,54,120,43,10,40,315,36,1*72
$GAGSV,2,2,07,04,21,211,40,11,13,311,36,26,07,127,27,1*45
$GBGSV,2,1,08,41,67,034,40,27,67,206,47,32,50,252,47,30,43,304,26,1*7C
$GBGSV,2,2,08,28,27,160,49,33,17,054,41,25,05,101,39,24,02,052,15,1*76
$GBGSV,2,1,07,41,67,034,34,27,67,206,44,32,50,252,42,30,43,304,40,5*72
$GBGSV,2,2,07,28,27,160,42,33,17,054,32,25,05,101,37,5*4B
$GNGGA,033927.000,4005.096820,N,10513.207062,W,2,47,0.54,1583.959,M,-20.669,M,,*72
$GPGSV,3,1,09,23,69,010,36,18,58,121,43,10,52,290,45,48,39,209,47,1*66
$GPGSV,3,2,09,27,38,288,42,32,33,210,49,24,30,094,41,15,26,049,36,1*6C
$GPGSV,3,3,09,08,15,318,31,1*59
$GPGSV,2,1,07,23,69,010,39,18,58,121,45,10,52,290,40,27,38,288,43,8*69
$GPGSV,2,2,07,32,33,210,45,24,30,094,39,08,15,318,43,8*5A
$GLGSV,2,1,07,88,86,264,40,65,74,338,27,66,39,239,45,81,31,327,31,1*77
$GLGSV,2,2,07,72,24,038,38,74,02,060,19,73,02,019,29,1*46
$GAGSV,2,1,07,19,75,159,38,12,66,322,35,33,54,120,39,10,40,315,35,7*71
$GAGSV,2,2,07,04,21,211,44,11,13,311,31,26,07,127,45,7*44
$GAGSV,2,1,07,19,75,159,37,12,66,322,31,33,54,120,43,10,40,315,36,1*72
$GAGSV,2,2,07,04,21,211,39,11,13,311,35,26,07,127,27,1*48
$GBGSV,2,1,08,41,67,034,39,27,67,206,47,32,50,252,47,30,43,304,28,1*7C
$GBGSV,2,2,08,28,27,160,49,33,17,054,41,25,05,101,37,24,02,052,16,1*7B
$GBGSV,2,1,07,41,67,034,34,27,67,206,44,32,50,252,42,30,43,304,40,5*72
$GBGSV,2,2,07,28,27,160,42,33,17,054,33,25,05,101,37,5*4A
$GNGGA,033932.000,4005.096778,N,10513.207086,W,2,47,0.54,1583.930,M,-20.670,M,,*79
$GPGSV,3,1,09,23,69,010,36,18,58,121,43,10,52,290,45,48,39,209,46,1*67
$GPGSV,3,2,09,27,38,288,42,32,33,210,49,24,30,094,41,15,26,049,36,1*6C
$GPGSV,3,3,09,08,15,318,30,1*58
$GPGSV,2,1,07,23,69,010,39,18,58,121,45,10,52,290,40,27,38,288,43,8*69
$GPGSV,2,2,07,32,33,210,45,24,30,094,39,08,15,318,43,8*5A
$GLGSV,2,1,07,88,86,264,41,65,74,338,26,66,39,239,45,81,31,327,32,1*74
$GLGSV,2,2,07,72,24,038,38,74,02,059,20,73,02,019,30,1*4E
$GAGSV,2,1,07,19,75,159,37,12,66,322,35,33,54,120,39,10,40,315,35,7*7E
$GAGSV,2,2,07,04,21,211,44,11,13,311,32,26,07,127,45,7*47
$GAGSV,2,1,07,19,75,159,37,12,66,322,31,33,54,120,43,10,40,315,35,1*71
$GAGSV,2,2,07,04,21,211,39,11,13,311,35,26,07,127,27,1*48
$GBGSV,3,1,09,27,67,206,47,41,67,034,38,32,50,252,47,30,43,304,31,1*75
$GBGSV,3,2,09,28,27,160,49,33,17,054,41,25,05,101,38,24,02,052,16,1*74
$GBGSV,3,3,09,63,,,28,1*70
$GBGSV,2,1,07,41,67,034,34,27,67,206,44,32,50,252,42,30,43,304,40,5*72
$GBGSV,2,2,07,28,27,160,42,33,17,054,34,25,05,101,37,5*4D
$GNGGA,033937.000,4005.096766,N,10513.207038,W,2,47,0.54,1583.845,M,-20.670,M,,*75
$GPGSV,3,1,09,23,69,010,36,18,58,121,44,10,52,290,45,48,39,209,47,1*61
$GPGSV,3,2,09,27,38,288,42,32,33,210,49,24,30,094,41,15,26,049,36,1*6C
$GPGSV,3,3,09,08,15,318,30,1*58
$GPGSV,2,1,07,23,69,010,39,18,58,121,45,10,52,290,40,27,38,288,43,8*69
$GPGSV,2,2,07,32,33,210,45,24,30,094,39,08,15,318,43,8*5A
$GLGSV,2,1,07,88,86,264,41,65,74,338,28,66,39,239,46,81,32,327,33,1*7B
$GLGSV,2,2,07,72,24,038,38,74,02,059,18,73,02,019,29,1*4D
$GAGSV,2,1,07,19,75,159,37,12,66,322,35,33,54,120,39,10,40,315,35,7*7E
$GAGSV,2,2,07,04,21,211,44,11,13,311,32,26,07,127,45,7*47
$GAGSV,2,1,07,19,75,159,37,12,66,322,31,33,54,120,43,10,40,315,34,1*70
$GAGSV,2,2,07,04,21,211,39,11,13,311,35,26,07,127,26,1*49
$GBGSV,3,1,09,27,67,206,47,41,67,034,39,32,50,252,47,30,43,304,31,1*74
$GBGSV,3,2,09,28,27,160,49,33,17,054,41,25,05,101,38,24,02,052,17,1*75
$GBGSV,3,3,09,63,,,28,1*70
$GBGSV,2,1,07,41,67,034,34,27,67,206,44,32,50,252,42,30,43,304,40,5*72
$GBGSV,2,2,07,28,27,160,42,33,17,054,35,25,05,101,37,5*4C
$GNGGA,033942.000,4005.096796,N,10513.207038,W,2,47,0.54,1583.820,M,-20.670,M,,*7B
$GPGSV,3,1,09,23,69,010,36,18,58,121,44,10,52,290,45,48,39,209,47,1*61
$GPGSV,3,2,09,27,38,288,41,32,33,210,49,24,30,094,40,15,26,049,36,1*6E
$GPGSV,3,3,09,08,15,318,31,1*59
$GPGSV,2,1,07,23,69,010,39,18,58,121,45,10,52,290,41,27,38,288,43,8*68
$GPGSV,2,2,07,32,33,210,45,24,30,094,39,08,15,318,43,8*5A
$GLGSV,2,1,07,88,86,238,41,65,74,338,27,66,39,239,46,81,32,327,33,1*7D
$GLGSV,2,2,07,72,24,038,38,74,02,059,17,73,02,019,29,1*42
$GAGSV,2,1,07,19,75,159,37,12,66,322,35,33,54,120,39,10,40,315,33,7*78
$GAGSV,2,2,07,04,21,211,44,11,13,311,32,26,07,127,46,7*44
$GAGSV,2,1,07,19,75,159,37,12,66,322,31,33,54,120,43,10,40,315,34,1*70
$GAGSV,2,2,07,04,21,211,39,11,13,311,35,26,07,127,28,1*47
$GBGSV,3,1,09,27,67,206,47,41,67,034,39,32,50,252,47,30,43,304,30,1*75
$GBGSV,3,2,09,28,27,160,49,33,17,054,41,25,05,101,39,24,02,052,16,1*75
$GBGSV,3,3,09,63,,,28,1*70
$GBGSV,2,1,07,41,67,034,34,27,67,206,44,32,50,252,42,30,43,304,40,5*72
$GBGSV,2,2,07,28,27,160,42,33,17,054,35,25,05,101,37,5*4C
$GNGGA,033947.000,4005.096808,N,10513.207098,W,2,47,0.54,1583.798,M,-20.670,M,,*70
$GPGSV,3,1,09,23,69,010,36,18,58,121,45,10,52,290,45,48,39,209,47,1*60
$GPGSV,3,2,09,27,38,288,41,32,33,210,49,24,30,094,40,15,26,049,37,1*6F
$GPGSV,3,3,09,08,15,318,32,1*5A
$GPGSV,2,1,07,23,69,010,39,18,58,121,45,10,52,290,41,27,38,288,43,8*68
$GPGSV,2,2,07,32,33,210,45,24,30,094,40,08,15,318,43,8*54
$GLGSV,2,1,07,88,86,238,41,65,74,338,27,66,39,239,46,81,32,327,34,1*7A
$GLGSV,2,2,07,72,24,038,39,74,02,059,17,73,02,019,28,1*42
$GAGSV,2,1,07,19,75,159,37,12,66,322,34,33,54,120,39,10,40,315,33,7*79
$GAGSV,2,2,07,04,21,211,44,11,13,311,32,26,07,127,46,7*44
$GAGSV,2,1,07,19,75,159,37,12,66,322,31,33,54,120,44,10,40,315,34,1*77
$GAGSV,2,2,07,04,21,211,39,11,13,311,37,26,07,127,28,1*45
$GBGSV,3,1,09,27,67,206,47,41,67,034,39,32,50,252,47,30,43,304,31,1*74
$GBGSV,3,2,09,28,27,160,49,33,17,054,41,25,05,101,40,24,02,052,13,1*7E
$GBGSV,3,3,09,63,,,28,1*70
$GBGSV,2,1,07,41,67,034,34,27,67,206,44,32,50,252,42,30,43,304,40,5*72
$GBGSV,2,2,07,28,27,160,42,33,17,054,35,25,05,101,37,5*4C
$GNGGA,033952.000,4005.096802,N,10513.207212,W,2,47,0.54,1583.802,M,-20.670,M,,*72
$GPGSV,3,1,09,23,69,010,36,18,58,121,45,10,52,290,45,48,39,209,46,1*61
$GPGSV,3,2,09,27,38,288,41,32,33,210,49,24,30,094,40,15,26,049,37,1*6F
$GPGSV,3,3,09,08,15,318,31,1*59
$GPGSV,2,1,07,23,69,010,39,18,58,121,45,10,52,290,41,27,38,288,43,8*68
$GPGSV,2,2,07,32,33,210,45,24,30,094,40,08,15,318,43,8*54
$GLGSV,2,1,07,88,86,238,41,65,74,338,25,66,39,239,46,81,32,327,35,1*79
$GLGSV,2,2,07,72,24,038,39,74,02,059,17,73,02,019,26,1*4C
$GAGSV,2,1,07,19,75,159,38,12,66,322,34,33,54,120,39,10,40,315,34,7*71
$GAGSV,2,2,07,04,21,211,44,11,13,311,32,26,07,127,46,7*44
$GAGSV,2,1,07,19,75,159,37,12,66,322,31,33,54,120,44,10,40,315,34,1*77
$GAGSV,2,2,07,04,21,211,38,11,13,311,37,26,07,127,29,1*45
$GBGSV,3,1,09,27,67,206,47,41,67,034,39,32,50,252,47,30,43,304,29,1*7D
$GBGSV,3,2,09,28,27,160,49,33,17,054,41,25,05,101,39,24,02,052,13,1*70
$GBGSV,3,3,09,63,,,28,1*70
$GBGSV,2,1,07,41,67,034,34,27,67,206,44,32,50,252,42,30,43,304,40,5*72
$GBGSV,2,2,07,28,27,160,42,33,17,054,35,25,05,101,37,5*4C
$GNGGA,033957.000,4005.096826,N,10513.207272,W,2,47,0.54,1583.817,M,-20.670,M,,*73
$GPGSV,3,1,09,23,69,010,36,18,58,121,45,10,52,290,45,48,39,209,47,1*60
$GPGSV,3,2,09,27,38,288,41,32,33,210,49,24,30,094,40,15,26,049,37,1*6F
$GPGSV,3,3,09,08,15,318,32,1*5A
$GPGSV,2,1,07,23,69,010,39,18,58,121,45,10,52,290,41,27,38,288,43,8*68
$GPGSV,2,2,07,32,33,210,45,24,30,094,40,08,15,318,43,8*54
$GLGSV,2,1,07,88,86,238,41,65,74,338,,66,39,239,46,81,32,327,35,1*7E
$GLGSV,2,2,07,72,24,038,39,74,02,059,17,73,02,019,26,1*4C
$GAGSV,2,1,07,19,75,159,38,12,66,322,34,33,54,120,39,10,40,315,34,7*71
$GAGSV,2,2,07,04,21,211,44,11,13,311,32,26,07,127,46,7*44
$GAGSV,2,1,07,19,75,159,37,12,66,322,30,33,54,120,44,10,40,315,34,1*76
$GAGSV,2,2,07,04,21,211,38,11,13,311,37,26,07,127,29,1*45
$GBGSV,3,1,09,27,67,206,47,41,67,034,39,32,50,252,47,30,43,304,27,1*73
$GBGSV,3,2,09,28,27,160,49,33,17,054,41,25,05,101,38,24,02,052,,1*73
$GBGSV,3,3,09,63,,,28,1*70
$GBGSV,2,1,07,41,67,034,34,27,67,206,44,32,50,252,42,30,43,304,40,5*72
$GBGSV,2,2,07,28,27,160,42,33,17,054,35,25,05,101,37,5*4C
$GNGGA,034002.000,4005.096940,N,10513.207332,W,2,46,0.54,1583.873,M,-20.669,M,,*72
$GPGSV,3,1,09,23,69,010,36,18,58,121,45,10,52,290,45,48,39,209,47,1*60
$GPGSV,3,2,09,27,38,288,41,32,33,210,49,24,30,094,40,15,26,049,37,1*6F
$GPGSV,3,3,09,08,15,318,32,1*5A
$GPGSV,2,1,07,23,69,010,39,18,58,121,44,10,52,290,41,27,38,288,43,8*69
$GPGSV,2,2,07,32,33,210,45,24,30,094,40,08,15,318,42,8*55
$GLGSV,2,1,07,88,86,238,41,65,74,338,26,66,39,239,47,81,32,327,32,1*7C
$GLGSV,2,2,07,72,24,038,39,74,02,059,19,73,02,019,23,1*47
$GAGSV,2,1,07,19,75,159,38,12,66,322,34,33,54,120,39,10,40,315,34,7*71
$GAGSV,2,2,07,04,21,211,44,11,13,311,32,26,07,127,46,7*44
$GAGSV,2,1,07,19,75,159,37,12,66,322,30,33,54,120,44,10,40,315,34,1*76
$GAGSV,2,2,07,04,21,211,37,11,13,311,38,26,07,127,30,1*4D
$GBGSV,2,1,08,41,67,034,39,27,67,206,47,32,50,252,47,30,43,304,20,1*74
$GBGSV,2,2,08,28,27,160,49,33,17,054,41,25,05,101,37,24,02,052,,1*7C
$GBGSV,2,1,07,41,67,034,33,27,67,206,44,32,50,252,42,30,43,304,39,5*7B
$GBGSV,2,2,07,28,27,160,42,33,17,054,36,25,05,101,37,5*4F
$GNGGA,034007.000,4005.096994,N,10513.207368,W,2,47,0.54,1583.933,M,-20.670,M,,*7D
$GPGSV,3,1,09,23,69,010,35,18,58,121,45,10,52,290,45,48,39,209,47,1*63
$GPGSV,3,2,09,27,38,288,41,32,33,210,49,24,30,094,40,15,26,049,38,1*60
$GPGSV,3,3,09,08,15,318,31,1*59
$GPGSV,2,1,07,23,69,010,39,18,58,121,44,10,52,290,41,27,38,288,43,8*69
$GPGSV,2,2,07,32,33,210,45,24,30,094,40,08,15,318,42,8*55
$GLGSV,2,1,07,88,86,238,42,65,74,338,,66,39,239,47,81,32,327,32,1*7B
$GLGSV,2,2,07,72,24,038,40,74,02,059,19,73,02,019,23,1*49
$GAGSV,2,1,07,19,75,159,38,12,66,322,34,33,54,120,39,10,40,315,34,7*71
$GAGSV,2,2,07,04,21,211,43,11,13,311,31,26,07,127,47,7*41
$GAGSV,2,1,07,19,75,159,37,12,66,322,30,33,54,120,44,10,40,315,34,1*76
$GAGSV,2,2,07,04,21,211,37,11,13,311,38,26,07,127,31,1*4C
$GBGSV,2,1,08,41,67,034,40,27,67,206,47,32,50,252,47,30,43,304,25,1*7F
$GBGSV,2,2,08,28,27,160,49,33,17,054,42,25,05,100,36,24,02,051,,1*7C
$GBGSV,2,1,07,41,67,034,33,27,67,206,44,32,50,252,42,30,43,304,39,5*7B
$GBGSV,2,2,07,28,27,160,42,33,17,054,37,25,05,100,37,5*4F
$GNGGA,034012.000,4005.097066,N,10513.207446,W,2,47,0.54,1584.128,M,-20.670,M,,*72
$GPGSV,3,1,09,23,69,010,35,18,58,121,45,10,52,290,45,48,39,209,47,1*63
$GPGSV,3,2,09,27,38,288,41,32,33,210,49,24,30,094,40,15,26,049,38,1*60
$GPGSV,3,3,09,08,15,318,29,1*50
$GPGSV,2,1,07,23,69,010,40,18,58,121,44,10,52,290,41,27,38,288,43,8*67
$GPGSV,2,2,07,32,33,210,45,24,30,094,40,08,15,318,42,8*55
$GLGSV,2,1,07,88,86,238,41,65,74,338,24,66,39,239,47,81,32,327,30,1*7C
$GLGSV,2,2,07,72,24,038,39,74,02,059,20,73,02,019,23,1*4D
$GAGSV,2,1,07,19,75,159,38,12,66,322,34,33,54,120,39,10,40,315,33,7*76
$GAGSV,2,2,07,04,21,211,43,11,13,311,32,26,07,127,47,7*42
$GAGSV,2,1,07,19,75,159,37,12,66,322,30,33,54,120,44,10,40,315,34,1*76
$GAGSV,2,2,07,04,21,211,37,11,13,311,40,26,07,127,31,1*43
$GBGSV,2,1,08,41,67,034,41,27,66,204,47,32,50,252,47,30,44,303,28,1*70
$GBGSV,2,2,08,28,26,160,49,33,17,054,42,25,05,100,35,24,02,051,,1*7E
$GBGSV,2,1,07,41,67,034,33,27,66,204,45,32,50,252,42,30,44,303,41,5*76
$GBGSV,2,2,07,28,26,160,43,33,17,054,38,25,05,100,38,5*4F
$GNGGA,034017.000,4005.097126,N,10513.207500,W,2,47,0.54,1584.310,M,-20.670,M,,*78
$GPGSV,3,1,09,23,69,010,34,18,58,121,45,10,52,290,45,48,39,209,47,1*62
$GPGSV,3,2,09,27,38,288,41,32,33,210,49,24,30,094,40,15,26,049,38,1*60
$GPGSV,3,3,09,08,15,318,29,1*50
$GPGSV,2,1,07,23,69,010,40,18,58,121,44,10,52,290,41,27,38,288,43,8*67
$GPGSV,2,2,07,32,33,210,45,24,30,094,40,08,15,318,42,8*55
$GLGSV,2,1,07,88,86,238,41,65,74,338,,66,39,239,47,81,32,327,26,1*7D
$GLGSV,2,2,07,72,24,038,39,74,02,059,19,73,02,019,22,1*46
$GAGSV,2,1,07,19,75,159,38,12,66,322,34,33,54,120,39,10,40,315,32,7*77
$GAGSV,2,2,07,04,21,211,43,11,13,311,32,26,07,127,47,7*42
$GAGSV,2,1,07,19,75,159,37,12,66,322,30,33,54,120,44,10,40,315,34,1*76
$GAGSV,2,2,07,04,21,211,36,11,13,311,40,26,07,127,32,1*41
$GBGSV,2,1,08,41,67,034,41,27,66,204,47,32,51,253,47,30,44,303,30,1*79
$GBGSV,2,2,08,28,26,160,49,33,17,055,42,25,05,100,36,24,02,051,,1*7C
$GBGSV,2,1,07,41,67,034,33,27,66,204,45,32,51,253,42,30,44,303,41,5*76
$GBGSV,2,2,07,28,26,160,43,33,17,055,38,25,05,100,38,5*4E
$GNGGA,034022.000,4005.097120,N,10513.207542,W,2,46,0.54,1584.472,M,-20.669,M,,*74
$GPGSV,3,1,09,23,69,010,35,18,58,121,45,10,52,290,45,48,39,209,46,1*62
$GPGSV,3,2,09,27,38,288,40,32,33,210,48,24,30,094,40,15,26,049,38,1*60
$GPGSV,3,3,09,08,15,318,21,1*58
$GPGSV,2,1,07,23,69,010,40,18,58,121,44,10,52,290,41,27,38,288,43,8*67
$GPGSV,2,2,07,32,33,210,45,24,30,094,39,08,15,318,41,8*58
$GLGSV,2,1,07,88,86,238,41,65,74,338,31,66,39,239,47,81,32,327,26,1*7F
$GLGSV,2,2,07,72,24,038,39,74,02,059,20,73,02,019,20,1*4E
$GAGSV,2,1,07,19,75,159,38,12,66,322,34,33,54,120,39,10,40,315,32,7*77
$GAGSV,2,2,07,04,21,211,43,11,13,311,33,26,07,127,47,7*43
$GAGSV,2,1,07,19,75,159,37,12,66,322,30,33,54,120,44,10,40,315,32,1*70
$GAGSV,2,2,07,04,21,211,36,11,13,311,39,26,07,127,33,1*4E
$GBGSV,2,1,08,41,67,034,41,27,66,204,47,32,51,253,47,30,44,303,31,1*78
$GBGSV,2,2,08,28,26,160,49,33,17,055,42,25,05,100,37,24,02,051,,1*7D
$GBGSV,2,1,07,41,67,034,33,27,66,204,45,32,51,253,42,30,44,303,40,5*77
$GBGSV,2,2,07,28,26,160,43,33,17,055,38,25,05,100,38,5*4E
$GNGGA,034027.000,4005.097090,N,10513.207602,W,2,46,0.54,1584.546,M,-20.670,M,,*72
$GPGSV,3,1,09,23,69,010,36,18,58,121,45,10,52,290,45,48,39,209,47,1*60
$GPGSV,3,2,09,27,38,288,40,32,33,210,47,24,30,094,40,15,26,049,39,1*6E
$GPGSV,3,3,09,08,15,318,22,1*5B
$GPGSV,2,1,07,23,69,010,40,18,58,121,44,10,52,290,41,27,38,288,43,8*67
$GPGSV,2,2,07,32,33,210,45,24,30,094,39,08,15,318,40,8*59
$GLGSV,2,1,07,88,86,238,42,65,74,338,32,66,39,239,47,81,32,327,27,1*7E
$GLGSV,2,2,07,72,24,038,39,74,02,059,19,73,02,019,18,1*4F
$GAGSV,2,1,07,19,75,159,38,12,66,322,34,33,54,120,39,10,40,315,32,7*77
$GAGSV,2,2,07,04,21,211,43,11,13,311,33,26,07,127,47,7*43
$GAGSV,2,1,07,19,75,159,37,12,66,322,29,33,54,120,44,10,40,315,30,1*7A
$GAGSV,2,2,07,04,21,211,36,11,13,311,38,26,07,127,33,1*4F
$GBGSV,2,1,08,41,66,035,42,27,66,204,47,32,51,253,47,30,44,303,32,1*78
$GBGSV,2,2,08,28,26,160,49,33,17,055,41,25,05,100,37,24,02,051,,1*7E
$GBGSV,2,1,07,41,66,035,33,27,66,204,45,32,51,253,42,30,44,303,40,5*77
$GBGSV,2,2,07,28,26,160,43,33,17,055,38,25,05,100,38,5*4E
$GNGGA,034032.000,4005.097006,N,10513.207632,W,2,46,0.54,1584.513,M,-20.670,M,,*7A
$GPGSV,3,1,09,23,69,010,36,18,58,121,45,10,52,290,45,48,39,209,47,1*60
$GPGSV,3,2,09,27,38,288,40,32,33,210,47,24,30,094,40,15,26,049,39,1*6E
$GPGSV,3,3,09,08,15,318,17,1*5D
$GPGSV,2,1,07,23,69,010,39,18,58,121,43,10,52,290,41,27,38,288,43,8*6E
$GPGSV,2,2,07,32,33,210,44,24,30,094,39,08,15,318,39,8*56
$GLGSV,2,1,07,88,86,238,42,65,74,338,32,66,39,239,47,81,32,327,27,1*7E
$GLGSV,2,2,07,72,24,038,40,74,02,059,19,73,02,019,17,1*4E
$GAGSV,2,1,07,19,75,159,38,12,66,322,33,33,54,120,39,10,40,315,32,7*70
$GAGSV,2,2,07,04,21,211,43,11,13,311,33,26,07,127,47,7*43
$GAGSV,2,1,07,19,75,159,37,12,66,322,29,33,54,120,44,10,40,315,30,1*7A
$GAGSV,2,2,07,04,21,211,35,11,13,311,37,26,07,127,34,1*44
$GBGSV,2,1,08,41,66,035,42,27,66,204,47,32,51,253,47,30,44,303,31,1*7B
$GBGSV,2,2,08,28,26,160,49,33,17,055,41,25,05,100,37,24,02,051,,1*7E
$GBGSV,2,1,07,41,66,035,33,27,66,204,44,32,51,253,41,30,44,303,40,5*75
$GBGSV,2,2,07,28,26,160,42,33,17,055,38,25,05,100,37,5*40
$GNGGA,034037.000,4005.096964,N,10513.207662,W,2,46,0.54,1584.491,M,-20.670,M,,*7D
$GPGSV,3,1,09,23,69,010,37,18,58,121,45,10,52,290,45,48,39,209,47,1*61
$GPGSV,3,2,09,27,38,288,41,32,33,210,47,24,30,094,40,15,26,049,39,1*6F
$GPGSV,3,3,09,08,15,318,22,1*5B
$GPGSV,2,1,07,23,69,010,40,18,58,121,43,10,52,290,41,27,38,288,43,8*60
$GPGSV,2,2,07,32,33,210,45,24,30,094,39,08,15,318,40,8*59
$GLGSV,2,1,07,88,86,238,41,65,74,338,34,66,39,239,47,81,32,327,29,1*75
$GLGSV,2,2,07,72,24,038,40,74,02,059,18,73,02,019,17,1*4F
$GAGSV,2,1,07,19,75,159,38,12,66,322,33,33,54,120,39,10,40,315,32,7*70
$GAGSV,2,2,07,04,21,211,43,11,13,311,33,26,07,127,47,7*43
$GAGSV,2,1,07,19,75,159,37,12,66,322,29,33,54,120,44,10,40,315,30,1*7A
$GAGSV,2,2,07,04,21,211,35,11,13,311,36,26,07,127,34,1*45
$GBGSV,2,1,08,41,66,035,42,27,66,204,47,32,51,253,47,30,44,303,28,1*73
$GBGSV,2,2,08,28,26,160,49,33,17,055,41,25,05,100,35,24,02,051,,1*7C
$GBGSV,2,1,07,41,66,035,33,27,66,204,44,32,51,253,42,30,44,303,40,5*76
$GBGSV,2,2,07,28,26,160,43,33,17,055,38,25,05,100,37,5*41
$GNGGA,034042.000,4005.096922,N,10513.207704,W,2,47,0.54,1584.410,M,-20.669,M,,*7C
$GPGSV,3,1,09,23,69,010,37,18,58,121,45,10,52,290,45,48,39,209,47,1*61
$GPGSV,3,2,09,27,38,288,41,32,33,210,47,24,30,094,40,15,26,049,39,1*6F
$GPGSV,3,3,09,08,15,318,24,1*5D
$GPGSV,2,1,07,23,69,010,40,18,58,121,43,10,52,290,41,27,38,288,43,8*60
$GPGSV,2,2,07,32,33,210,45,24,30,094,39,08,15,318,40,8*59
$GLGSV,2,1,07,88,86,238,41,65,74,338,34,66,39,239,47,81,32,327,31,1*7C
$GLGSV,2,2,07,72,24,038,40,74,02,059,18,73,02,019,19,1*41
$GAGSV,2,1,07,19,75,159,38,12,66,322,32,33,54,120,39,10,40,315,33,7*70
$GAGSV,2,2,07,04,21,211,43,11,13,311,32,26,07,127,47,7*42
$GAGSV,2,1,07,19,75,159,37,12,66,322,29,33,54,120,44,10,40,315,29,1*72
$GAGSV,2,2,07,04,21,211,35,11,13,311,35,26,07,127,34,1*46
$GBGSV,2,1,08,41,66,035,40,27,66,204,48,32,51,253,47,30,44,303,28,1*7E
$GBGSV,2,2,08,28,26,160,49,33,17,055,41,25,05,100,35,24,02,051,17,1*7A
$GBGSV,2,1,07,41,66,035,34,27,66,204,44,32,51,253,42,30,44,303,40,5*71
$GBGSV,2,2,07,28,26,160,43,33,17,055,38,25,05,100,37,5*41
$GNGGA,034047.000,4005.096910,N,10513.207752,W,2,48,0.54,1584.224,M,-20.670,M,,*7D
$GPGSV,3,1,09,23,69,010,37,18,58,121,45,10,52,290,45,48,39,209,47,1*61
$GPGSV,3,2,09,27,38,288,41,32,33,210,47,24,30,094,40,15,26,049,40,1*61
$GPGSV,3,3,09,08,15,318,29,1*50
$GPGSV,2,1,07,23,69,010,40,18,58,121,43,10,52,290,41,27,38,288,43,8*60
$GPGSV,2,2,07,32,33,210,45,24,30,094,39,08,15,318,40,8*59
$GLGSV,2,1,07,88,86,238,42,65,74,338,34,66,39,239,47,81,32,327,31,1*7F
$GLGSV,2,2,07,72,24,038,40,74,02,059,19,73,02,019,19,1*40
$GAGSV,2,1,07,19,75,159,38,12,66,322,32,33,54,120,39,10,40,315,34,7*77
$GAGSV,2,2,07,04,21,211,43,11,13,311,32,26,07,127,47,7*42
$GAGSV,2,1,07,19,75,159,37,12,66,322,29,33,54,120,44,10,40,315,29,1*72
$GAGSV,2,2,07,04,21,211,35,11,13,311,35,26,07,127,35,1*47
$GBGSV,2,1,08,41,66,035,39,27,66,204,48,32,51,253,47,30,44,303,28,1*70
$GBGSV,2,2,08,28,26,160,50,33,17,055,41,25,05,100,34,24,02,051,17,1*73
$GBGSV,2,1,07,41,66,035,34,27,66,204,44,32,51,253,42,30,44,303,39,5*7F
$GBGSV,2,2,07,28,26,160,43,33,17,055,38,25,05,100,37,5*41
$GNGGA,034052.000,4005.096892,N,10513.207788,W,2,48,0.54,1584.066,M,-20.670,M,,*71
$GPGSV,3,1,09,23,69,010,37,18,58,121,45,10,52,290,45,48,39,209,47,1*61
$GPGSV,3,2,09,27,38,288,41,32,33,210,47,24,30,094,40,15,26,049,40,1*61
$GPGSV,3,3,09,08,15,318,34,1*5C
$GPGSV,2,1,07,23,69,010,39,18,58,121,43,10,52,290,41,27,38,288,43,8*6E
$GPGSV,2,2,07,32,33,210,44,24,30,094,39,08,15,318,40,8*58
$GLGSV,2,1,07,88,86,238,42,65,74,338,32,66,39,239,47,81,32,327,33,1*7B
$GLGSV,2,2,07,72,24,038,40,74,02,059,19,73,02,019,22,1*48
$GAGSV,2,1,07,19,75,159,38,12,66,322,32,33,54,120,39,10,40,315,34,7*77
$GAGSV,2,2,07,04,21,211,43,11,13,311,31,26,07,127,47,7*41
$GAGSV,2,1,07,19,75,159,37,12,66,322,29,33,54,120,44,10,40,315,28,1*73
$GAGSV,2,2,07,04,21,211,35,11,13,311,35,26,07,127,35,1*47
$GBGSV,2,1,08,41,66,035,39,27,66,204,48,32,51,253,47,30,44,303,31,1*78
$GBGSV,2,2,08,28,26,160,50,33,17,055,41,25,05,100,35,24,02,051,16,1*73
$GBGSV,2,1,07,41,66,035,34,27,66,204,44,32,51,253,41,30,44,303,39,5*7C
$GBGSV,2,2,07,28,26,160,43,33,17,055,38,25,05,100,37,5*41
$GNGGA,034057.000,4005.096916,N,10513.207812,W,2,48,0.54,1584.082,M,-20.670,M,,*7F
$GPGSV,3,1,09,23,69,010,36,18,58,121,45,10,53,292,45,48,39,209,46,1*62
$GPGSV,3,2,09,27,38,288,41,32,33,210,47,24,30,094,40,15,26,049,40,1*61
$GPGSV,3,3,09,08,15,317,30,1*57
$GPGSV,2,1,07,23,69,010,39,18,58,121,43,10,53,292,41,27,38,288,43,8*6D
$GPGSV,2,2,07,32,33,210,44,24,30,094,39,08,15,317,40,8*57
$GLGSV,2,1,07,88,86,238,41,65,74,338,33,66,39,239,47,81,32,327,33,1*79
$GLGSV,2,2,07,72,24,038,40,74,02,059,19,73,02,019,24,1*4E
$GAGSV,2,1,07,19,75,159,38,12,66,322,32,33,54,120,39,10,40,315,34,7*77
$GAGSV,2,2,07,04,21,211,43,11,13,311,30,26,07,127,47,7*40
$GAGSV,2,1,07,19,75,159,37,12,66,322,28,33,54,120,44,10,40,315,29,1*73
$GAGSV,2,2,07,04,21,211,35,11,13,311,36,26,07,127,36,1*47
$GBGSV,2,1,08,41,66,035,39,27,66,204,48,32,51,253,47,30,44,303,34,1*7D
$GBGSV,2,2,08,28,26,160,50,33,17,055,41,25,05,100,34,24,02,051,14,1*70
$GBGSV,2,1,07,41,66,035,33,27,66,204,44,32,51,253,41,30,44,303,39,5*7B
$GBGSV,2,2,07,28,26,160,43,33,17,055,38,25,05,100,37,5*41
$GNGGA,034102.000,4005.096934,N,10513.207746,W,2,48,0.54,1584.081,M,-20.670,M,,*73
$GPGSV,3,1,09,23,69,010,35,18,58,121,45,10,53,292,45,48,39,209,46,1*61
$GPGSV,3,2,09,27,38,288,41,32,33,210,47,24,30,094,40,15,24,049,40,1*63
$GPGSV,3,3,09,08,15,317,30,1*57
$GPGSV,2,1,07,23,69,010,39,18,58,121,43,10,53,292,41,27,38,288,43,8*6D
$GPGSV,2,2,07,32,33,210,44,24,30,094,40,08,15,317,41,8*58
$GLGSV,2,1,07,88,86,238,41,65,74,338,34,66,39,239,47,81,32,327,33,1*7E
$GLGSV,2,2,07,72,24,038,39,74,02,059,19,73,02,019,21,1*45
$GAGSV,2,1,07,19,75,159,38,12,66,322,32,33,54,120,39,10,40,315,35,7*76
$GAGSV,2,2,07,04,21,211,43,11,13,311,28,26,07,127,47,7*49
$GAGSV,2,1,07,19,75,159,37,12,66,322,28,33,54,120,45,10,40,315,29,1*72
$GAGSV,2,2,07,04,21,211,35,11,13,311,37,26,07,127,37,1*47
$GBGSV,2,1,08,41,66,035,39,27,66,204,48,32,51,253,47,30,44,303,34,1*7D
$GBGSV,2,2,08,28,26,160,50,33,17,055,41,25,05,100,35,24,02,051,15,1*70
$GBGSV,2,1,07,41,66,035,34,27,66,204,44,32,51,253,41,30,44,303,39,5*7C
$GBGSV,2,2,07,28,26,160,43,33,17,055,38,25,05,100,37,5*41
$GNGGA,034107.000,4005.096934,N,10513.207734,W,2,48,0.54,1584.078,M,-20.670,M,,*75
$GPGSV,3,1,09,23,69,010,33,18,57,122,45,10,53,292,45,48,39,209,46,1*6B
$GPGSV,3,2,09,27,38,288,41,32,33,210,47,24,30,094,40,15,24,049,40,1*63
$GPGSV,3,3,09,08,15,317,29,1*5F
$GPGSV,2,1,07,23,69,010,39,18,57,122,42,10,53,292,41,27,38,288,43,8*60
$GPGSV,2,2,07,32,33,210,44,24,30,094,40,08,15,317,41,8*58
$GLGSV,2,1,07,88,86,238,41,65,74,338,34,66,39,239,47,81,32,327,33,1*7E
$GLGSV,2,2,07,72,24,038,39,74,02,059,20,73,02,019,21,1*4F
$GAGSV,2,1,07,19,75,159,38,12,66,322,32,33,54,120,39,10,40,315,35,7*76
$GAGSV,2,2,07,04,21,211,44,11,13,311,27,26,07,127,47,7*41
$GAGSV,2,1,07,19,75,159,37,12,66,322,27,33,54,120,45,10,40,315,29,1*7D
$GAGSV,2,2,07,04,21,211,35,11,13,311,37,26,07,127,37,1*47
$GBGSV,2,1,08,41,66,035,39,27,66,204,48,32,51,253,47,30,44,303,35,1*7C
$GBGSV,2,2,08,28,26,160,50,33,17,055,40,25,05,100,36,24,02,051,15,1*72
$GBGSV,2,1,07,41,66,035,33,27,66,204,44,32,51,253,41,30,44,303,39,5*7B
$GBGSV,2,2,07,28,26,160,43,33,17,055,38,25,05,100,37,5*41
$GNGGA,034112.000,4005.096886,N,10513.207716,W,2,48,0.54,1584.069,M,-20.669,M,,*71
$GPGSV,3,1,09,23,68,014,32,18,57,122,45,10,53,292,45,48,39,209,46,1*6F
$GPGSV,3,2,09,27,38,286,41,32,33,210,47,24,30,092,40,15,24,049,40,1*6B
$GPGSV,3,3,09,08,15,317,28,1*5E
$GPGSV,2,1,07,23,68,014,39,18,57,122,42,10,53,292,41,27,38,286,43,8*6B
$GPGSV,2,2,07,32,33,210,44,24,30,092,40,08,15,317,41,8*5E
$GLGSV,2,1,07,88,86,238,42,65,74,338,34,66,39,239,47,81,32,327,32,1*7C
$GLGSV,2,2,07,72,24,038,38,74,02,059,21,73,02,019,20,1*4E
$GAGSV,2,1,07,19,75,159,38,12,66,322,32,33,54,120,39,10,40,315,35,7*76
$GAGSV,2,2,07,04,21,211,44,11,13,311,27,26,07,127,47,7*41
$GAGSV,2,1,07,19,75,159,37,12,66,322,27,33,54,120,45,10,40,315,29,1*7D
$GAGSV,2,2,07,04,21,211,35,11,13,311,39,26,07,127,37,1*49
$GBGSV,2,1,08,41,66,035,39,27,66,204,48,32,51,253,47,30,44,303,36,1*7F
$GBGSV,2,2,08,28,26,160,50,33,17,055,40,25,05,100,36,24,02,051,15,1*72
$GBGSV,2,1,07,41,66,035,33,27,66,204,44,32,51,253,41,30,44,303,39,5*7B
$GBGSV,2,2,07,28,26,160,43,33,17,055,39,25,05,100,37,5*40
$GNGGA,034117.000,4005.096868,N,10513.207680,W,2,47,0.54,1584.195,M,-20.670,M,,*7F
