$GNGGA,153637.000,4005.099706,N,10513.207902,W,2,55,0.45,1582.084,M,-20.670,M,,*73
$GPGSV,3,1,11,30,86,335,43,14,64,301,42,07,57,124,44,22,46,278,45,1*66
$GPGSV,3,2,11,48,39,209,47,13,36,301,38,02,31,097,39,21,28,078,39,1*6D
$GPGSV,3,3,11,08,22,046,38,15,10,320,28,09,05,176,47,1*54
$GPGSV,1,1,04,30,86,335,40,14,64,301,38,08,22,046,26,09,05,176,50,8*6C
$GLGSV,3,1,10,73,60,006,30,83,49,098,28,74,33,307,30,82,31,041,26,1*7C
$GLGSV,3,2,10,80,28,079,36,72,28,301,42,71,27,246,48,84,16,166,38,1*74
$GLGSV,3,3,10,70,02,204,,65,01,348,,1*77
$GAGSV,3,1,10,25,72,356,39,03,48,242,41,02,35,274,39,24,30,066,39,7*76
$GAGSV,3,2,10,08,29,306,29,10,27,088,34,11,24,119,40,12,22,062,27,7*74
$GAGSV,3,3,10,05,21,186,47,36,04,162,39,7*76
$GAGSV,3,1,09,25,72,356,35,03,48,242,41,02,35,274,34,24,30,066,25,1*74
$GAGSV,3,2,09,08,29,306,38,10,27,088,42,11,24,119,35,12,22,062,33,1*7C
$GAGSV,3,3,09,05,21,186,45,1*44
$GBGSV,3,1,09,45,71,053,40,29,56,105,44,26,39,302,34,36,24,099,38,1*74
$GBGSV,3,2,09,30,22,044,43,42,17,287,36,21,15,237,51,14,11,312,34,1*75
$GBGSV,3,3,09,33,01,334,,1*4A
$GBGSV,2,1,07,45,71,053,30,29,56,105,38,26,39,302,34,36,24,099,39,5*72
$GBGSV,2,2,07,30,22,044,24,42,17,287,38,21,15,237,35,5*41
$PAIR001,062,0*3F
$PAIR001,062,0*3F
$PAIR001,062,0*3F
$PAIR001,062,0*3F
$PAIR001,062,0*3F
$PAIR001,062,0*3F
$PAIR001,062,0*3F
$PAIR001,062,0*3F
$PAIR001,062,0*3F
$GNGGA,153642.000,4005.099784,N,10513.207920,W,2,55,0.45,1582.003,M,-20.670,M,,*74
$GPGSV,3,1,11,30,86,335,43,14,64,301,42,07,57,124,44,22,46,278,45,1*66
$GPGSV,3,2,11,48,39,209,47,13,36,301,38,02,31,097,39,21,28,078,40,1*63
$GPGSV,3,3,11,08,22,046,39,15,10,320,31,09,05,176,46,1*5C
$GPGSV,1,1,04,30,86,335,40,14,64,301,38,08,22,046,26,09,05,176,50,8*6C
$GLGSV,3,1,10,73,60,006,31,83,49,098,28,74,33,307,31,82,31,041,30,1*7B
$GLGSV,3,2,10,72,28,301,41,80,28,079,36,71,27,246,48,84,16,166,38,1*77
$GLGSV,3,3,10,70,02,204,,65,01,348,,1*77
$GAGSV,3,1,10,25,72,356,39,03,48,242,41,02,35,274,39,24,30,066,39,7*76
$GAGSV,3,2,10,08,29,306,30,10,27,088,34,11,24,119,40,12,22,062,25,7*7E
$GAGSV,3,3,10,05,21,186,47,36,04,162,40,7*78
$GAGSV,3,1,10,25,72,356,35,03,48,242,41,02,35,274,34,24,30,066,25,1*7C
$GAGSV,3,2,10,08,29,306,38,10,27,088,42,11,24,119,35,12,22,062,33,1*74
$GAGSV,3,3,10,05,21,186,45,36,04,162,48,1*74
$GBGSV,3,1,10,45,71,053,40,29,56,105,44,26,39,302,32,36,24,099,38,1*7A
$GBGSV,3,2,10,30,22,044,43,42,17,287,36,21,15,237,51,57,12,179,,1*71
$GBGSV,3,3,10,14,11,312,35,63,,,28,1*4B
$GBGSV,2,1,07,45,71,053,30,29,56,105,38,26,39,302,34,36,24,099,39,5*72
$GBGSV,2,2,07,30,22,044,24,42,17,287,38,21,15,237,35,5*41
$GNGGA,153647.000,4005.099742,N,10513.207800,W,2,55,0.45,1581.984,M,-20.670,M,,*7D
$GPGSV,3,1,11,30,87,340,43,14,64,301,42,07,57,124,44,22,46,278,45,1*65
$GPGSV,3,2,11,48,39,209,47,13,36,301,38,02,31,097,39,21,28,078,40,1*63
$GPGSV,3,3,11,08,22,046,39,15,10,320,34,09,05,176,46,1*59
$GPGSV,1,1,04,30,87,340,40,14,64,301,38,08,22,046,24,09,05,176,50,8*6D
$GLGSV,3,1,10,73,60,006,30,83,49,098,28,74,33,307,31,82,31,041,29,1*72
$GLGSV,3,2,10,72,28,301,41,80,28,079,36,71,27,246,48,84,16,166,38,1*77
$GLGSV,3,3,10,70,02,204,,65,01,348,,1*77
$GAGSV,3,1,10,25,72,356,39,03,48,242,41,02,35,274,39,24,30,066,39,7*76
$GAGSV,3,2,10,08,29,306,31,10,27,088,34,11,24,119,40,12,22,062,24,7*7E
$GAGSV,3,3,10,05,21,186,47,36,04,162,41,7*79
$GAGSV,3,1,10,25,72,356,35,03,48,242,41,02,35,274,34,24,30,066,25,1*7C
$GAGSV,3,2,10,08,29,306,37,10,27,088,42,11,24,119,35,12,22,062,33,1*7B
$GAGSV,3,3,10,05,21,186,45,36,04,162,49,1*75
$GBGSV,3,1,11,45,71,053,40,29,56,105,44,26,39,302,31,36,24,099,38,1*78
$GBGSV,3,2,11,30,22,044,43,42,17,287,36,21,15,237,51,57,12,179,,1*70
$GBGSV,3,3,11,14,11,312,35,33,01,334,,63,,,27,1*70
$GBGSV,2,1,07,45,71,053,31,29,56,105,38,26,39,302,34,36,24,099,39,5*73
$GBGSV,2,2,07,30,22,044,23,42,17,287,38,21,15,237,35,5*46
$GNGGA,153652.000,4005.099730,N,10513.207680,W,2,55,0.45,1581.850,M,-20.670,M,,*72
$GPGSV,3,1,11,30,87,340,43,14,64,301,42,07,57,124,44,22,46,278,45,1*65
$GPGSV,3,2,11,48,39,209,47,13,36,301,37,02,31,097,38,21,28,078,40,1*6D
$GPGSV,3,3,11,08,22,046,39,15,10,320,35,09,05,176,44,1*5A
$GPGSV,1,1,04,30,87,340,40,14,64,301,38,08,22,046,21,09,05,176,50,8*68
$GLGSV,3,1,10,73,60,006,30,83,49,098,28,74,33,307,31,82,31,041,27,1*7C
$GLGSV,3,2,10,80,28,079,37,72,28,301,42,71,27,246,48,84,16,166,38,1*75
$GLGSV,3,3,10,70,02,204,,65,01,348,,1*77
$GAGSV,3,1,10,25,72,356,39,03,48,242,41,02,35,274,39,24,30,066,39,7*76
$GAGSV,3,2,10,08,29,306,31,10,27,088,35,11,24,119,40,12,22,062,24,7*7F
$GAGSV,3,3,10,05,21,186,47,36,04,162,41,7*79
$GAGSV,3,1,10,25,72,356,36,03,48,242,41,02,35,274,34,24,30,066,26,1*7C
$GAGSV,3,2,10,08,29,306,37,10,27,088,42,11,24,119,36,12,22,062,33,1*78
$GAGSV,3,3,10,05,21,186,46,36,04,162,49,1*76
$GBGSV,3,1,10,45,71,053,40,29,56,105,44,26,39,302,31,36,24,099,38,1*79
$GBGSV,3,2,10,30,22,044,43,42,17,287,36,21,15,237,51,14,11,312,35,1*7C
$GBGSV,3,3,10,33,01,334,,63,,,27,1*42
$GBGSV,2,1,07,45,71,053,31,29,56,105,38,26,39,302,33,36,24,099,39,5*74
$GBGSV,2,2,07,30,22,044,21,42,17,287,38,21,15,237,35,5*44
$GNGGA,153657.000,4005.099676,N,10513.207638,W,2,55,0.45,1581.742,M,-20.670,M,,*7B
$GPGSV,3,1,11,30,87,340,43,14,64,301,42,07,57,124,45,22,46,278,45,1*64
$GPGSV,3,2,11,48,39,209,47,13,36,301,36,02,31,097,37,21,28,078,40,1*63
$GPGSV,3,3,11,08,22,046,39,15,10,320,37,09,05,176,44,1*58
$GPGSV,1,1,04,30,87,340,40,14,64,301,38,08,22,046,19,09,05,176,50,8*63
$GLGSV,3,1,10,73,60,006,30,83,49,098,28,74,33,307,30,82,31,041,28,1*72
$GLGSV,3,2,10,72,28,301,43,80,28,079,37,71,27,246,48,84,16,166,38,1*74
$GLGSV,3,3,10,70,02,204,,65,01,348,,1*77
$GAGSV,3,1,10,25,72,356,39,03,47,241,41,02,36,275,39,24,30,066,39,7*78
$GAGSV,3,2,10,08,29,306,32,10,27,088,35,11,24,119,40,12,22,062,24,7*7C
$GAGSV,3,3,10,05,21,186,47,36,04,162,41,7*79
$GAGSV,3,1,10,25,72,356,36,03,47,241,41,02,36,275,34,24,30,066,26,1*72
$GAGSV,3,2,10,08,29,306,37,10,27,088,42,11,24,119,36,12,22,062,33,1*78
$GAGSV,3,3,10,05,21,186,46,36,04,162,48,1*77
$GBGSV,3,1,11,45,71,053,39,29,56,105,44,26,39,302,29,36,24,099,38,1*7F
$GBGSV,3,2,11,30,22,044,44,42,17,287,36,21,15,237,51,57,12,179,,1*77
$GBGSV,3,3,11,14,11,312,34,33,01,334,,63,,,27,1*71
$GBGSV,2,1,07,45,71,053,31,29,56,105,38,26,39,302,33,36,24,099,40,5*7A
$GBGSV,2,2,07,30,22,044,21,42,17,287,38,21,15,237,36,5*47
$GNGGA,153702.000,4005.099586,N,10513.207704,W,2,55,0.45,1581.675,M,-20.670,M,,*7D
$GPGSV,3,1,11,30,87,340,43,14,64,301,42,07,57,124,45,22,46,278,45,1*64
$GPGSV,3,2,11,48,39,209,47,13,36,301,36,02,31,097,37,21,28,078,40,1*63
$GPGSV,3,3,11,08,22,046,39,15,10,320,37,09,05,176,43,1*5F
$GPGSV,1,1,04,30,87,340,40,14,64,301,38,08,22,046,18,09,05,176,50,8*62
$GLGSV,3,1,10,73,60,006,29,83,49,098,28,74,33,307,29,82,31,041,32,1*79
$GLGSV,3,2,10,80,28,079,36,72,28,301,42,71,27,246,48,84,16,166,38,1*74
$GLGSV,3,3,10,70,02,204,,65,01,348,,1*77
$GAGSV,3,1,10,25,72,356,39,03,47,241,41,02,36,275,39,08,30,305,31,7*78
$GAGSV,3,2,10,24,30,066,40,10,27,088,35,11,24,119,40,12,22,062,27,7*79
$GAGSV,3,3,10,05,20,186,47,36,04,162,41,7*78
$GAGSV,3,1,10,25,72,356,36,03,47,241,41,02,36,275,34,24,30,066,26,1*72
$GAGSV,3,2,10,08,30,305,37,10,27,088,42,11,24,119,36,12,22,062,33,1*73
$GAGSV,3,3,10,05,20,186,46,36,04,162,48,1*76
$GBGSV,3,1,10,45,71,053,38,29,56,105,44,26,39,302,26,36,24,099,39,1*71
$GBGSV,3,2,10,30,22,044,44,42,17,287,36,21,15,237,50,14,11,312,34,1*7B
$GBGSV,3,3,10,33,01,334,,63,,,27,1*42
$GBGSV,2,1,07,45,71,053,31,29,56,105,38,26,39,302,32,36,24,099,40,5*7B
$GBGSV,2,2,07,30,22,044,21,42,17,287,38,21,15,237,36,5*47
$GNGGA,153707.000,4005.099478,N,10513.207770,W,2,54,0.45,1581.795,M,-20.670,M,,*75
$GPGSV,3,1,11,30,87,340,43,14,64,301,42,07,57,124,45,22,46,278,44,1*65
$GPGSV,3,2,11,48,39,209,47,13,36,301,35,02,31,097,37,21,28,078,40,1*60
$GPGSV,3,3,11,08,22,046,39,15,10,320,37,09,05,176,43,1*5F
$GPGSV,1,1,03,30,87,340,40,14,64,301,38,09,05,176,50,8*56
$GLGSV,3,1,10,73,60,006,28,83,49,098,27,74,33,307,29,82,31,041,31,1*74
$GLGSV,3,2,10,72,28,301,41,80,28,079,34,71,27,246,48,84,16,166,38,1*75
$GLGSV,3,3,10,70,02,204,,65,01,348,,1*77
$GAGSV,3,1,10,25,72,356,39,03,47,241,41,02,36,275,39,24,30,066,40,7*76
$GAGSV,3,2,10,08,30,305,31,10,28,087,35,11,25,118,40,12,22,061,27,7*74
$GAGSV,3,3,10,05,20,186,47,36,04,162,42,7*7B
$GAGSV,3,1,10,25,72,356,36,03,47,241,41,02,36,275,34,24,30,066,26,1*72
$GAGSV,3,2,10,08,30,305,37,10,28,087,42,11,25,118,36,12,22,061,33,1*70
$GAGSV,3,3,10,05,20,186,46,36,04,162,48,1*76
$GBGSV,3,1,11,45,71,053,38,29,56,105,45,26,39,302,27,36,24,099,39,1*70
$GBGSV,3,2,11,30,22,044,44,42,17,287,36,21,15,237,50,57,12,179,,1*76
$GBGSV,3,3,11,14,11,312,33,33,01,334,,63,,,27,1*76
$GBGSV,2,1,07,45,71,053,31,29,56,105,38,26,39,302,31,36,24,099,40,5*78
$GBGSV,2,2,07,30,22,044,21,42,17,287,38,21,15,237,36,5*47
$GNGGA,153712.000,4005.099466,N,10513.207878,W,2,55,0.45,1581.873,M,-20.670,M,,*7F
$GPGSV,3,1,11,30,87,340,43,14,64,301,41,07,57,124,45,22,46,278,44,1*66
$GPGSV,3,2,11,48,39,209,47,13,36,301,34,02,31,097,38,21,28,078,40,1*6E
$GPGSV,3,3,11,08,22,046,39,15,10,320,36,09,05,176,43,1*5E
$GPGSV,1,1,04,30,87,340,40,14,64,301,38,08,22,046,22,09,05,176,50,8*6B
$GLGSV,3,1,10,73,60,006,26,83,49,098,27,74,33,307,29,82,31,041,31,1*7A
$GLGSV,3,2,10,72,28,301,42,80,28,079,35,71,27,246,48,84,16,166,38,1*77
$GLGSV,3,3,10,70,02,204,,65,01,348,,1*77
$GAGSV,3,1,10,25,72,356,39,03,47,241,41,02,36,275,39,24,30,066,40,7*76
$GAGSV,3,2,10,08,30,305,32,10,28,087,35,11,25,118,40,12,22,061,27,7*77
$GAGSV,3,3,10,05,20,186,47,36,04,162,43,7*7A
$GAGSV,3,1,10,25,72,356,36,03,47,241,41,02,36,275,34,24,30,066,27,1*73
$GAGSV,3,2,10,08,30,305,37,10,28,087,42,11,25,118,36,12,22,061,33,1*70
$GAGSV,3,3,10,05,20,186,46,36,04,162,48,1*76
$GBGSV,3,1,11,45,71,053,38,29,56,105,45,26,39,302,28,36,24,099,40,1*71
$GBGSV,3,2,11,30,22,044,44,42,17,287,35,21,15,237,50,57,12,179,,1*75
$GBGSV,3,3,11,14,11,312,32,33,01,334,,63,,,27,1*77
$GBGSV,2,1,07,45,71,053,31,29,56,105,38,26,39,302,32,36,24,099,40,5*7B
$GBGSV,2,2,07,30,22,044,25,42,17,287,38,21,15,237,36,5*43
$GNGGA,153717.000,4005.099478,N,10513.207950,W,2,55,0.45,1581.829,M,-20.670,M,,*71
$GPGSV,3,1,11,30,87,340,43,14,64,301,41,07,57,124,45,22,46,278,44,1*66
$GPGSV,3,2,11,48,39,209,47,13,36,301,34,02,31,097,38,21,28,078,40,1*6E
$GPGSV,3,3,11,08,22,046,40,15,10,320,33,09,05,176,42,1*54
$GPGSV,1,1,04,30,87,340,40,14,64,301,38,08,22,046,21,09,05,176,50,8*68
$GLGSV,3,1,10,73,60,006,26,83,49,098,27,74,33,307,29,82,31,041,34,1*7F
$GLGSV,3,2,10,80,28,079,37,72,28,301,42,71,27,246,47,84,16,166,38,1*7A
$GLGSV,3,3,10,70,02,204,,65,01,348,,1*77
$GAGSV,3,1,10,25,72,356,39,03,47,241,41,02,36,275,39,08,30,305,33,7*7A
$GAGSV,3,2,10,24,30,066,40,10,28,087,35,11,25,118,40,12,22,061,26,7*7B
$GAGSV,3,3,10,05,20,186,47,36,04,162,43,7*7A
$GAGSV,3,1,10,25,72,356,36,03,47,241,41,02,36,275,34,24,30,066,27,1*73
$GAGSV,3,2,10,08,30,305,37,10,28,087,42,11,25,118,36,12,22,061,33,1*70
$GAGSV,3,3,10,05,20,186,46,36,04,162,48,1*76
$GBGSV,3,1,10,45,71,053,38,29,56,105,45,26,39,302,32,36,24,099,40,1*7B
$GBGSV,3,2,10,30,22,044,44,42,17,287,35,21,15,237,50,14,11,312,32,1*7E
$GBGSV,3,3,10,33,01,334,,63,,,28,1*4D
$GBGSV,2,1,07,45,71,053,31,29,56,105,37,26,39,302,32,36,24,099,40,5*74
$GBGSV,2,2,07,30,22,044,27,42,17,287,38,21,15,237,36,5*41
$GNGGA,153722.000,4005.099490,N,10513.207914,W,2,55,0.45,1581.772,M,-20.670,M,,*70
$GPGSV,3,1,11,30,87,340,43,14,64,301,41,07,57,124,45,22,46,278,44,1*66
$GPGSV,3,2,11,48,39,209,47,13,36,301,34,02,31,097,38,21,28,078,40,1*6E
$GPGSV,3,3,11,08,22,046,40,15,10,320,31,09,05,176,42,1*56
$GPGSV,1,1,04,30,87,340,40,14,64,301,38,08,22,046,21,09,05,176,50,8*68
$GLGSV,3,1,10,73,60,006,29,83,49,098,28,74,33,307,29,82,31,041,36,1*7D
$GLGSV,3,2,10,80,28,079,38,72,28,301,43,71,27,246,47,84,16,166,38,1*74
$GLGSV,3,3,10,70,02,204,,65,01,348,,1*77
$GAGSV,3,1,10,25,71,359,39,03,47,241,41,02,36,275,39,08,30,305,34,7*71
$GAGSV,3,2,10,24,30,067,40,10,28,087,35,11,25,118,40,12,22,061,26,7*7A
$GAGSV,3,3,10,05,20,186,47,36,04,162,43,7*7A
$GAGSV,3,1,10,25,71,359,36,03,47,241,41,02,36,275,34,24,30,067,27,1*7E
$GAGSV,3,2,10,08,30,305,37,10,28,087,42,11,25,118,36,12,22,061,33,1*70
$GAGSV,3,3,10,05,20,186,46,36,04,162,48,1*76
$GBGSV,3,1,10,45,71,053,38,29,56,105,45,26,39,302,33,36,24,099,40,1*7A
$GBGSV,3,2,10,30,22,044,44,42,17,287,35,21,15,237,50,14,11,312,28,1*75
$GBGSV,3,3,10,33,01,334,,63,,,28,1*4D
$GBGSV,2,1,07,45,71,053,31,29,56,105,37,26,39,302,31,36,24,099,40,5*77
$GBGSV,2,2,07,30,22,044,28,42,17,287,38,21,15,237,36,5*4E
$GNGGA,153727.000,4005.099448,N,10513.207884,W,2,55,0.45,1581.615,M,-20.670,M,,*78
$GPGSV,3,1,11,30,87,340,42,14,64,301,41,07,57,124,45,22,46,278,44,1*67
$GPGSV,3,2,11,48,39,209,47,13,36,301,35,02,31,097,38,21,28,078,41,1*6E
$GPGSV,3,3,11,08,22,046,41,15,10,320,31,09,05,176,40,1*55
$GPGSV,1,1,04,30,87,340,40,14,64,301,38,08,22,046,23,09,05,176,50,8*6A
$GLGSV,3,1,10,73,60,006,31,83,49,098,29,74,33,307,28,82,31,041,36,1*74
$GLGSV,3,2,10,72,28,301,43,80,28,079,38,71,27,246,47,84,16,166,38,1*74
$GLGSV,3,3,10,70,02,204,,65,01,348,,1*77
$GAGSV,3,1,10,25,71,359,38,03,47,241,41,02,36,275,38,24,30,067,40,7*7B
$GAGSV,3,2,10,08,30,305,35,10,28,087,35,11,25,118,40,12,22,061,26,7*71
$GAGSV,3,3,10,05,20,186,47,36,04,162,44,7*7D
$GAGSV,3,1,10,25,71,359,36,03,47,241,41,02,36,275,34,24,30,067,27,1*7E
$GAGSV,3,2,10,08,30,305,37,10,28,087,42,11,25,118,36,12,22,061,33,1*70
$GAGSV,3,3,10,05,20,186,46,36,04,162,48,1*76
$GBGSV,3,1,11,45,71,053,38,29,56,105,45,26,39,302,35,36,24,099,40,1*7D
$GBGSV,3,2,11,30,22,044,44,42,17,287,36,21,15,237,50,57,12,179,,1*76
$GBGSV,3,3,11,14,11,312,27,33,01,334,,63,,,27,1*73
$GBGSV,2,1,07,45,71,053,31,29,56,105,37,26,39,302,31,36,24,099,40,5*77
$GBGSV,2,2,07,30,22,044,29,42,17,287,38,21,15,237,36,5*4F
$GNGGA,153732.000,4005.099412,N,10513.207800,W,2,56,0.44,1581.487,M,-20.670,M,,*74
$GPGSV,3,1,11,30,87,340,42,14,64,301,41,07,57,124,45,22,46,278,44,1*67
$GPGSV,3,2,11,48,39,209,47,13,36,301,36,02,31,097,38,21,28,078,41,1*6D
$GPGSV,3,3,11,08,22,046,41,15,10,320,32,09,05,176,40,1*56
$GPGSV,1,1,04,30,87,340,40,14,64,301,38,08,22,046,22,09,05,176,50,8*6B
$GLGSV,3,1,10,73,60,006,30,83,49,098,29,74,33,307,28,82,31,041,36,1*75
$GLGSV,3,2,10,72,28,301,42,80,28,079,38,71,27,246,46,84,16,166,38,1*74
$GLGSV,3,3,10,70,02,204,,65,01,347,,1*78
$GAGSV,3,1,10,25,71,359,38,03,47,241,41,02,36,275,37,24,30,067,40,7*74
$GAGSV,3,2,10,08,30,305,35,10,28,087,35,11,25,118,40,12,22,061,26,7*71
$GAGSV,3,3,10,05,20,186,47,36,05,162,44,7*7C
$GAGSV,3,1,09,25,71,359,36,03,47,241,41,02,36,275,34,24,30,067,26,1*77
$GAGSV,3,2,09,08,30,305,37,10,28,087,42,11,25,118,36,12,22,061,34,1*7F
$GAGSV,3,3,09,05,20,186,46,1*46
$GBGSV,3,1,11,45,71,053,38,29,56,105,45,26,39,302,33,36,24,099,41,1*7A
$GBGSV,3,2,11,30,22,044,44,42,17,287,36,21,15,237,50,57,12,179,,1*76
$GBGSV,3,3,11,14,11,312,28,33,01,334,,63,,,27,1*7C
$GBGSV,2,1,07,45,71,053,31,29,56,105,37,26,39,302,31,36,24,099,40,5*77
$GBGSV,2,2,07,30,22,044,29,42,17,287,38,21,15,237,36,5*4F
$GNGGA,153737.000,4005.099436,N,10513.207638,W,2,55,0.44,1581.260,M,-20.670,M,,*7E
$GPGSV,3,1,11,30,87,340,42,14,64,301,41,07,57,124,45,22,46,278,45,1*66
$GPGSV,3,2,11,48,39,209,47,13,36,301,37,02,31,097,38,21,28,078,41,1*6C
$GPGSV,3,3,11,08,22,046,41,15,10,320,33,09,05,176,39,1*59
$GPGSV,1,1,03,30,87,340,40,14,64,301,38,09,05,176,51,8*57
$GLGSV,3,1,10,73,60,006,30,83,49,098,27,74,33,307,29,82,31,041,34,1*78
$GLGSV,3,2,10,72,28,301,42,80,28,079,37,71,26,245,46,84,16,166,38,1*79
$GLGSV,3,3,10,70,01,204,,65,01,347,,1*7B
$GAGSV,3,1,10,25,71,359,38,03,47,241,41,02,36,275,36,08,30,305,35,7*7E
$GAGSV,3,2,10,24,30,067,40,10,28,087,35,11,25,118,40,12,22,061,25,7*79
$GAGSV,3,3,10,05,20,186,47,36,05,162,44,7*7C
$GAGSV,3,1,10,25,71,359,36,03,47,241,41,02,36,275,35,24,30,067,26,1*7E
$GAGSV,3,2,10,08,30,305,37,10,28,087,42,11,25,118,37,12,22,061,33,1*71
$GAGSV,3,3,10,05,20,186,46,36,05,162,48,1*77
$GBGSV,3,1,10,45,71,053,38,29,56,105,45,26,39,302,36,36,24,099,41,1*7E
$GBGSV,3,2,10,30,22,044,44,42,17,287,36,21,15,237,49,57,12,179,,1*7F
$GBGSV,3,3,10,14,11,312,30,63,,,27,1*41
$GBGSV,2,1,07,45,71,053,31,29,56,105,37,26,39,302,30,36,24,099,41,5*77
$GBGSV,2,2,07,30,22,044,29,42,17,287,37,21,15,237,36,5*40
$GNGGA,153742.000,4005.099448,N,10513.207536,W,2,56,0.44,1581.145,M,-20.670,M,,*7F
$GPGSV,3,1,11,30,87,340,42,14,64,301,41,07,57,124,45,22,46,278,45,1*66
$GPGSV,3,2,11,48,39,209,47,13,36,301,37,02,31,097,39,21,28,078,41,1*6D
$GPGSV,3,3,11,08,22,046,41,15,10,320,33,09,05,176,38,1*58
$GPGSV,1,1,04,30,87,340,40,14,64,301,38,08,22,046,29,09,05,176,51,8*61
$GLGSV,3,1,10,73,60,009,31,83,49,098,28,74,34,308,29,82,31,041,34,1*71
$GLGSV,3,2,10,80,28,079,36,72,28,299,43,71,26,245,46,84,16,166,38,1*79
$GLGSV,3,3,10,65,01,347,,70,01,204,,1*7B
$GAGSV,3,1,10,25,71,359,38,03,47,241,41,02,36,275,36,08,30,305,35,7*7E
$GAGSV,3,2,10,24,30,067,40,10,28,087,35,11,25,118,40,12,22,061,25,7*79
$GAGSV,3,3,10,05,20,186,47,36,05,162,44,7*7C
$GAGSV,3,1,10,25,71,359,36,03,47,241,41,02,36,275,35,24,30,067,26,1*7E
$GAGSV,3,2,10,08,30,305,37,10,28,087,42,11,25,118,37,12,22,061,34,1*76
$GAGSV,3,3,10,05,20,186,46,36,05,162,48,1*77
$GBGSV,3,1,10,45,71,053,38,29,56,105,46,26,39,302,36,36,24,099,41,1*7D
$GBGSV,3,2,10,30,22,044,44,42,17,287,36,21,15,237,49,14,11,312,31,1*76
$GBGSV,3,3,10,33,01,334,,63,,,27,1*42
$GBGSV,2,1,07,45,71,053,31,29,56,105,37,26,39,302,30,36,24,099,41,5*77
$GBGSV,2,2,07,30,22,044,29,42,17,287,37,21,15,237,36,5*40
$GNGGA,153747.000,4005.099496,N,10513.207632,W,2,56,0.44,1581.235,M,-20.669,M,,*72
$GPGSV,3,1,11,30,87,340,42,14,64,301,41,07,57,124,45,22,46,278,45,1*66
$GPGSV,3,2,11,48,39,209,47,13,36,301,37,02,31,097,40,21,28,078,41,1*63
$GPGSV,3,3,11,08,22,046,41,15,10,320,34,09,05,176,39,1*5E
$GPGSV,1,1,04,30,87,340,40,14,64,301,38,08,22,046,30,09,05,176,51,8*69
$GLGSV,3,1,10,73,60,009,34,83,49,098,29,74,34,308,28,82,31,041,33,1*73
$GLGSV,3,2,10,72,28,299,43,80,27,081,37,71,26,245,46,84,16,166,38,1*70
$GLGSV,3,3,10,70,01,204,,65,01,347,,1*7B
$GAGSV,3,1,10,25,71,359,38,03,47,241,41,02,36,275,36,08,30,305,34,7*7F
$GAGSV,3,2,10,24,30,067,40,10,28,087,35,11,25,118,40,12,22,061,26,7*7A
$GAGSV,3,3,10,05,20,186,47,36,05,162,45,7*7D
$GAGSV,3,1,10,25,71,359,36,03,47,241,41,02,36,275,35,24,30,067,25,1*7D
$GAGSV,3,2,10,08,30,305,37,10,28,087,42,11,25,118,37,12,22,061,34,1*76
$GAGSV,3,3,10,05,20,186,46,36,05,162,48,1*77
$GBGSV,3,1,09,45,71,053,38,29,56,105,46,26,39,302,36,36,24,099,41,1*75
$GBGSV,3,2,09,30,22,044,44,42,17,287,36,21,15,237,49,14,11,312,31,1*7E
$GBGSV,3,3,09,63,,,27,1*7F
$GBGSV,2,1,07,45,71,053,31,29,56,105,37,26,39,302,29,36,24,099,41,5*7F
$GBGSV,2,2,07,30,22,044,29,42,17,287,37,21,15,237,36,5*40
$GNGGA,153752.000,4005.099568,N,10513.207794,W,2,56,0.44,1581.656,M,-20.670,M,,*72
$GPGSV,3,1,11,30,87,340,42,14,64,301,41,07,57,124,45,22,46,278,45,1*66
$GPGSV,3,2,11,48,39,209,47,13,36,301,38,02,31,097,40,21,28,078,41,1*6C
$GPGSV,3,3,11,08,22,046,41,15,10,320,34,09,05,176,38,1*5F
$GPGSV,1,1,04,30,87,340,40,14,64,301,38,08,22,046,31,09,05,176,51,8*68
$GLGSV,3,1,10,73,60,009,34,83,50,096,29,74,34,308,30,82,31,040,33,1*7D
$GLGSV,3,2,10,72,28,299,42,80,27,081,37,71,26,245,46,84,17,165,38,1*73
$GLGSV,3,3,10,65,01,347,,70,01,204,,1*7B
$GAGSV,3,1,10,25,71,359,38,03,47,241,41,02,36,275,35,24,30,067,40,7*76
$GAGSV,3,2,10,08,30,305,33,10,28,087,35,11,25,118,40,12,22,061,27,7*76
$GAGSV,3,3,10,05,20,186,47,36,05,162,45,7*7D
$GAGSV,3,1,09,25,71,359,36,03,47,241,41,02,36,275,35,24,30,067,25,1*75
$GAGSV,3,2,09,08,30,305,37,10,28,087,41,11,25,118,37,12,22,061,34,1*7D
$GAGSV,3,3,09,05,20,186,46,1*46
$GBGSV,3,1,10,45,71,053,38,29,56,105,46,26,39,302,35,36,24,099,41,1*7E
$GBGSV,3,2,10,30,22,044,44,42,17,287,36,21,15,237,49,57,12,179,,1*7F
$GBGSV,3,3,10,14,11,312,32,33,01,334,,1*76
$GBGSV,2,1,07,45,71,053,30,29,56,105,37,26,39,302,29,36,24,099,41,5*7E
$GBGSV,2,2,07,30,22,044,28,42,17,287,37,21,15,237,36,5*41
$GNGGA,153757.000,4005.099634,N,10513.207872,W,2,56,0.44,1582.011,M,-20.670,M,,*7C
$GPGSV,3,1,11,30,87,340,42,14,64,301,41,07,57,124,45,22,46,278,45,1*66
$GPGSV,3,2,11,48,39,209,47,13,36,301,38,02,31,097,40,21,28,078,41,1*6C
$GPGSV,3,3,11,08,22,046,41,15,10,320,34,09,05,176,38,1*5F
$GPGSV,1,1,04,30,87,340,40,14,64,301,38,08,22,046,32,09,05,176,51,8*6B
$GLGSV,3,1,10,73,60,009,34,83,50,096,28,74,34,308,30,82,31,040,34,1*7B
$GLGSV,3,2,10,72,28,299,42,80,27,081,37,71,26,245,45,84,17,165,38,1*70
$GLGSV,3,3,10,65,01,347,,70,01,204,,1*7B
$GAGSV,3,1,10,25,71,359,38,03,47,241,41,02,36,275,35,24,30,067,40,7*76
$GAGSV,3,2,10,08,30,305,31,10,28,087,35,11,25,118,40,12,22,061,27,7*74
$GAGSV,3,3,10,05,20,186,48,36,05,162,45,7*72
$GAGSV,3,1,09,25,71,359,36,03,47,241,41,02,36,275,35,24,30,067,25,1*75
$GAGSV,3,2,09,08,30,305,38,10,28,087,41,11,25,118,37,12,22,061,34,1*72
$GAGSV,3,3,09,05,20,186,46,1*46
$GBGSV,3,1,09,45,71,053,38,29,56,105,46,26,39,302,35,36,24,099,41,1*76
$GBGSV,3,2,09,30,22,044,44,42,17,287,37,21,15,237,49,57,12,179,,1*76
$GBGSV,3,3,09,14,11,312,31,1*48
$GBGSV,2,1,07,45,71,053,30,29,56,105,37,26,39,302,29,36,24,099,41,5*7E
$GBGSV,2,2,07,30,22,044,28,42,17,287,37,21,15,237,36,5*41
$GNGGA,153802.000,4005.099754,N,10513.207980,W,2,56,0.44,1582.234,M,-20.669,M,,*75
$GPGSV,3,1,11,30,87,340,42,14,64,301,41,07,57,124,45,22,46,278,45,1*66
$GPGSV,3,2,11,48,39,209,47,13,36,301,38,02,31,097,40,21,28,078,40,1*6D
$GPGSV,3,3,11,08,22,046,41,15,10,320,34,09,05,176,39,1*5E
$GPGSV,1,1,04,30,87,340,40,14,64,301,38,08,22,046,32,09,05,176,51,8*6B
$GLGSV,3,1,09,73,60,009,35,83,50,096,28,74,34,308,30,82,31,040,35,1*73
$GLGSV,3,2,09,72,28,299,42,80,27,081,37,71,26,245,45,84,17,165,38,1*78
$GLGSV,3,3,09,70,01,204,,1*41
$GAGSV,3,1,10,25,71,359,38,03,47,241,41,02,36,275,35,24,30,067,40,7*76
$GAGSV,3,2,10,08,30,305,31,10,28,087,35,11,25,118,40,12,22,061,27,7*74
$GAGSV,3,3,10,05,20,186,48,36,05,162,45,7*72
$GAGSV,3,1,10,25,71,359,36,03,47,241,41,02,36,275,35,24,30,067,25,1*7D
$GAGSV,3,2,10,08,30,305,38,10,28,087,41,11,25,118,37,12,22,061,34,1*7A
$GAGSV,3,3,10,05,20,186,46,36,05,162,48,1*77
$GBGSV,3,1,09,45,71,053,38,29,56,105,46,26,39,302,36,36,24,099,41,1*75
$GBGSV,3,2,09,30,22,044,44,42,17,287,37,21,15,237,48,57,12,179,,1*77
$GBGSV,3,3,09,14,11,312,31,1*48
$GBGSV,2,1,07,45,71,053,30,29,56,105,37,26,39,302,29,36,24,099,41,5*7E
$GBGSV,2,2,07,30,22,044,28,42,17,287,37,21,15,237,37,5*40
$GNGGA,153807.000,4005.099772,N,10513.207974,W,2,57,0.44,1582.169,M,-20.670,M,,*7D
$GPGSV,3,1,11,30,87,340,42,14,64,301,40,07,57,124,45,22,46,278,45,1*67
$GPGSV,3,2,11,48,39,209,47,13,36,301,38,02,31,097,40,21,28,078,39,1*63
$GPGSV,3,3,11,08,22,046,41,15,10,320,37,09,05,176,39,1*5D
$GPGSV,1,1,04,30,87,340,40,14,64,301,38,08,22,046,32,09,05,176,51,8*6B
$GLGSV,3,1,10,73,60,009,35,83,50,096,28,74,34,308,29,82,31,040,35,1*73
$GLGSV,3,2,10,72,28,299,42,80,27,081,37,71,26,245,45,84,17,165,38,1*70
$GLGSV,3,3,10,65,01,347,,70,01,204,,1*7B
$GAGSV,3,1,10,25,71,359,38,03,47,241,41,02,36,275,36,24,30,067,40,7*75
$GAGSV,3,2,10,08,30,305,31,10,28,087,35,11,25,118,40,12,22,061,26,7*75
$GAGSV,3,3,10,05,20,186,48,36,05,162,45,7*72
$GAGSV,3,1,10,25,71,359,36,03,47,241,41,02,36,275,35,24,30,067,24,1*7C
$GAGSV,3,2,10,08,30,305,38,10,28,087,41,11,25,118,37,12,22,061,33,1*7D
$GAGSV,3,3,10,05,20,186,46,36,05,162,47,1*78
$GBGSV,3,1,10,45,71,053,38,29,56,105,47,26,39,302,36,36,24,099,42,1*7F
$GBGSV,3,2,10,30,22,044,44,42,17,287,37,21,15,237,48,57,12,179,,1*7F
$GBGSV,3,3,10,14,11,312,32,33,01,334,,1*76
$GBGSV,2,1,07,45,71,053,29,29,56,105,38,26,39,302,28,36,24,099,41,5*78
$GBGSV,2,2,07,30,22,044,29,42,17,287,37,21,15,237,37,5*41
$GNGGA,153812.000,4005.100030,N,10513.208058,W,2,57,0.44,1582.599,M,-20.670,M,,*7A
$GPGSV,3,1,11,30,87,340,42,14,64,301,40,07,57,124,45,22,46,278,45,1*67
$GPGSV,3,2,11,48,39,209,47,13,36,301,36,02,31,097,40,21,28,078,39,1*6D
$GPGSV,3,3,11,08,22,046,41,15,10,320,37,09,05,176,41,1*52
$GPGSV,1,1,04,30,87,340,40,14,64,301,38,08,22,046,32,09,05,176,51,8*6B
$GLGSV,3,1,10,73,60,009,35,83,50,096,28,74,34,308,29,82,31,040,36,1*70
$GLGSV,3,2,10,72,28,299,43,80,27,081,38,71,26,245,45,84,17,165,38,1*7E
$GLGSV,3,3,10,65,01,347,,70,01,204,,1*7B
$GAGSV,3,1,10,25,71,359,38,03,47,241,41,02,36,275,36,24,30,067,40,7*75
$GAGSV,3,2,10,08,30,305,32,10,28,087,36,11,25,118,40,12,22,061,26,7*75
$GAGSV,3,3,10,05,20,186,48,36,05,162,46,7*71
$GAGSV,3,1,10,25,71,359,36,03,47,241,41,02,36,275,35,24,30,067,23,1*7B
$GAGSV,3,2,10,08,30,305,38,10,28,087,41,11,25,118,37,12,22,061,33,1*7D
$GAGSV,3,3,10,05,20,186,46,36,05,162,47,1*78
$GBGSV,2,1,08,45,71,053,39,29,56,105,47,26,39,302,36,36,24,099,42,1*76
$GBGSV,2,2,08,30,22,044,44,42,17,287,37,21,15,237,48,14,11,311,33,1*7F
$GBGSV,2,1,07,45,71,053,29,29,56,105,38,26,39,302,27,36,24,099,41,5*77
$GBGSV,2,2,07,30,22,044,29,42,17,287,37,21,15,237,37,5*41
$GNGGA,153817.000,4005.100264,N,10513.208064,W,2,58,0.43,1582.894,M,-20.669,M,,*73
$GPGSV,3,1,12,30,87,340,42,14,64,301,40,07,57,124,45,22,46,278,45,1*64
$GPGSV,3,2,12,17,43,202,48,48,39,209,47,13,36,301,32,02,31,097,40,1*6B
$GPGSV,3,3,12,21,28,078,39,08,22,046,41,15,10,320,38,09,05,176,40,1*63
$GPGSV,1,1,04,30,87,340,40,14,64,301,38,08,22,046,32,09,05,176,51,8*6B
$GLGSV,3,1,10,73,60,009,34,83,50,096,27,74,34,308,32,82,31,040,37,1*75
$GLGSV,3,2,10,72,28,299,42,80,27,081,38,71,26,245,45,84,17,165,38,1*7F
$GLGSV,3,3,10,65,01,347,,70,01,204,,1*7B
$GAGSV,3,1,10,25,71,359,38,03,47,241,41,02,36,275,37,24,30,067,40,7*74
$GAGSV,3,2,10,08,30,305,33,10,28,087,36,11,25,118,39,12,22,061,26,7*7A
$GAGSV,3,3,10,05,20,186,48,36,05,162,46,7*71
$GAGSV,3,1,10,25,71,359,36,03,47,241,41,02,36,275,35,24,30,067,23,1*7B
$GAGSV,3,2,10,08,30,305,38,10,28,087,41,11,25,118,37,12,22,061,33,1*7D
$GAGSV,3,3,10,05,20,186,46,36,05,162,47,1*78
$GBGSV,3,1,09,45,71,053,39,29,56,105,47,26,39,302,36,36,24,099,42,1*76
$GBGSV,3,2,09,30,22,044,44,42,17,287,38,21,14,237,48,57,12,179,,1*79
$GBGSV,3,3,09,14,11,311,34,1*4E
$GBGSV,2,1,07,45,71,053,29,29,56,105,38,26,39,302,27,36,24,099,41,5*77
$GBGSV,2,2,07,30,22,044,29,42,17,287,37,21,14,237,37,5*40
$GNGGA,153822.000,4005.100492,N,10513.208034,W,2,58,0.43,1582.890,M,-20.670,M,,*73
$GPGSV,3,1,12,30,87,340,42,14,64,301,40,07,57,124,45,22,46,278,45,1*64
$GPGSV,3,2,12,17,43,202,48,48,39,209,47,13,36,301,31,02,31,097,40,1*68
$GPGSV,3,3,12,21,28,078,39,08,22,046,41,15,10,320,38,09,05,176,40,1*63
$GPGSV,1,1,04,30,87,340,40,14,64,301,38,08,22,046,34,09,05,176,51,8*6D
$GLGSV,3,1,10,73,60,009,34,83,50,096,26,74,34,308,32,82,31,040,38,1*7B
$GLGSV,3,2,10,72,28,299,42,80,27,081,39,71,26,245,45,84,17,165,38,1*7E
$GLGSV,3,3,10,65,01,347,,70,01,204,,1*7B
$GAGSV,3,1,10,25,71,359,38,03,47,241,41,02,36,275,37,24,30,067,41,7*75
$GAGSV,3,2,10,08,30,305,33,10,28,087,36,11,25,118,39,12,22,061,25,7*79
$GAGSV,3,3,10,05,20,186,48,36,05,162,46,7*71
$GAGSV,3,1,10,25,71,359,36,03,47,241,41,02,36,275,35,24,30,067,24,1*7C
$GAGSV,3,2,10,08,30,305,38,10,28,087,41,11,25,118,37,12,22,061,33,1*7D
$GAGSV,3,3,10,05,20,186,46,36,05,162,47,1*78
$GBGSV,3,1,09,45,71,053,40,29,56,105,47,26,40,303,36,36,24,099,42,1*77
$GBGSV,3,2,09,30,22,044,44,42,17,287,38,21,14,237,48,57,12,179,,1*79
$GBGSV,3,3,09,14,11,311,34,1*4E
$GBGSV,2,1,07,45,71,053,29,29,56,105,38,26,40,303,27,36,24,099,41,5*78
$GBGSV,2,2,07,30,22,044,30,42,17,287,37,21,14,237,38,5*47
$GNGGA,153827.000,4005.100750,N,10513.207980,W,2,58,0.43,1582.734,M,-20.670,M,,*73
$GPGSV,3,1,12,30,87,340,42,14,64,301,40,07,57,124,45,22,46,278,45,1*64
$GPGSV,3,2,12,17,43,202,48,48,39,209,47,13,36,301,33,02,31,097,40,1*6A
$GPGSV,3,3,12,21,28,078,39,08,22,046,41,15,10,320,38,09,05,176,42,1*61
$GPGSV,1,1,04,30,87,340,40,14,64,301,38,08,22,046,35,09,05,176,51,8*6C
$GLGSV,3,1,10,73,60,009,35,83,50,096,27,74,34,308,34,82,31,040,38,1*7D
$GLGSV,3,2,10,72,28,299,42,80,27,081,39,71,26,245,44,84,17,165,38,1*7F
$GLGSV,3,3,10,65,01,347,,70,01,204,,1*7B
$GAGSV,3,1,10,25,71,359,38,03,47,241,41,02,36,275,37,24,30,067,41,7*75
$GAGSV,3,2,10,08,30,305,33,10,28,087,36,11,25,118,39,12,22,061,25,7*79
$GAGSV,3,3,10,05,20,186,48,36,05,162,46,7*71
$GAGSV,3,1,10,25,71,359,36,03,47,241,41,02,36,275,35,24,30,067,25,1*7D
$GAGSV,3,2,10,08,30,305,38,10,28,087,41,11,25,118,38,12,22,061,33,1*72
$GAGSV,3,3,10,05,20,186,46,36,05,162,47,1*78
$GBGSV,3,1,09,45,71,053,40,29,56,103,47,26,40,303,37,36,24,099,42,1*70
$GBGSV,3,2,09,30,21,044,44,42,17,287,38,21,14,237,47,57,12,179,,1*75
$GBGSV,3,3,09,14,11,311,34,1*4E
$GBGSV,2,1,07,45,71,053,29,29,56,103,38,26,40,303,27,36,24,099,41,5*7E
$GBGSV,2,2,07,30,21,044,31,42,17,287,37,21,14,237,38,5*45
$GNGGA,153832.000,4005.100912,N,10513.207872,W,2,58,0.43,1582.407,M,-20.670,M,,*70
$GPGSV,3,1,12,30,87,340,42,14,64,301,40,07,57,124,45,22,46,278,45,1*64
$GPGSV,3,2,12,17,43,202,48,48,39,209,47,13,36,301,36,02,31,097,40,1*6F
$GPGSV,3,3,12,21,28,078,39,08,22,046,41,15,10,320,38,09,05,176,42,1*61
$GPGSV,1,1,04,30,87,340,40,14,64,301,38,08,22,046,35,09,05,176,51,8*6C
$GLGSV,3,1,10,73,60,009,35,83,50,096,27,74,34,308,34,82,31,040,39,1*7C
$GLGSV,3,2,10,72,28,299,42,80,27,081,39,71,26,245,44,84,17,165,38,1*7F
$GLGSV,3,3,10,65,01,347,,70,01,204,,1*7B
$GAGSV,3,1,10,25,71,359,38,03,47,241,41,02,36,275,37,24,30,067,41,7*75
$GAGSV,3,2,10,08,30,305,33,10,28,087,36,11,25,118,38,12,22,061,25,7*78
$GAGSV,3,3,10,05,20,186,48,36,05,162,46,7*71
$GAGSV,3,1,10,25,71,359,35,03,47,241,41,02,36,275,35,24,30,067,24,1*7F
$GAGSV,3,2,10,08,30,305,38,10,28,087,41,11,25,118,38,12,22,061,33,1*72
$GAGSV,3,3,10,05,20,186,46,36,05,162,47,1*78
$GBGSV,3,1,09,45,71,053,40,29,56,103,47,26,40,303,37,36,24,100,42,1*71
$GBGSV,3,2,09,30,21,044,44,42,17,287,39,21,14,237,47,57,12,179,,1*74
$GBGSV,3,3,09,14,11,311,34,1*4E
$GBGSV,2,1,07,45,71,053,28,29,56,103,38,26,40,303,27,36,24,100,41,5*7E
$GBGSV,2,2,07,30,21,044,31,42,17,287,37,21,14,237,38,5*45
$GNGGA,153837.000,4005.101050,N,10513.207752,W,2,58,0.43,1581.944,M,-20.670,M,,*7F
$GPGSV,3,1,12,30,87,340,42,14,64,301,40,07,57,124,45,22,46,278,45,1*64
$GPGSV,3,2,12,17,43,202,48,48,39,209,47,13,36,301,37,02,31,097,40,1*6E
$GPGSV,3,3,12,21,28,078,39,08,22,046,41,15,10,320,38,09,05,176,43,1*60
$GPGSV,1,1,04,30,87,340,40,14,64,301,38,08,22,046,35,09,05,176,51,8*6C
$GLGSV,3,1,10,73,60,009,36,83,50,096,27,74,34,308,34,82,31,040,39,1*7F
$GLGSV,3,2,10,72,28,299,43,80,27,081,38,71,26,245,44,84,17,165,38,1*7F
$GLGSV,3,3,10,65,01,347,,70,01,204,,1*7B
$GAGSV,3,1,10,25,71,359,38,03,47,241,41,02,36,275,37,24,30,067,41,7*75
$GAGSV,3,2,10,08,30,305,33,10,28,087,36,11,25,118,38,12,22,061,25,7*78
$GAGSV,3,3,10,05,20,186,48,36,05,162,47,7*70
$GAGSV,3,1,10,25,71,359,35,03,47,241,41,02,36,275,35,24,30,067,23,1*78
$GAGSV,3,2,10,08,30,305,38,10,28,087,41,11,25,118,38,12,22,061,33,1*72
$GAGSV,3,3,10,05,20,186,46,36,05,162,47,1*78
$GBGSV,3,1,09,45,71,053,40,29,56,103,47,26,40,303,37,36,24,100,42,1*71
$GBGSV,3,2,09,30,21,044,44,42,17,286,39,21,14,237,47,57,12,179,,1*75
$GBGSV,3,3,09,14,11,311,33,1*49
$GBGSV,2,1,07,45,71,053,28,29,56,103,38,26,40,303,27,36,24,100,41,5*7E
$GBGSV,2,2,07,30,21,044,31,42,17,286,37,21,14,237,38,5*44
$GNGGA,153842.000,4005.101038,N,10513.207626,W,2,58,0.43,1581.738,M,-20.669,M,,*7C
$GPGSV,3,1,12,30,87,340,42,14,64,301,40,07,57,124,45,22,46,278,45,1*64
$GPGSV,3,2,12,17,43,202,48,48,39,209,46,13,36,301,37,02,31,097,40,1*6F
$GPGSV,3,3,12,21,28,078,39,08,22,046,41,15,10,320,39,09,05,176,43,1*61
$GPGSV,1,1,04,30,87,340,41,14,64,301,38,08,22,046,35,09,05,176,51,8*6D
$GLGSV,3,1,10,73,60,009,36,83,50,096,27,74,34,308,34,82,31,040,39,1*7F
$GLGSV,3,2,10,72,28,299,43,80,27,081,38,71,26,245,43,84,17,165,38,1*78
$GLGSV,3,3,10,65,01,347,,70,01,204,,1*7B
$GAGSV,3,1,10,25,71,359,38,03,47,241,41,02,36,275,37,24,30,067,41,7*75
$GAGSV,3,2,10,08,30,305,33,10,28,087,36,11,25,118,38,12,22,061,25,7*78
$GAGSV,3,3,10,05,20,186,48,36,05,162,47,7*70
$GAGSV,3,1,10,25,71,359,36,03,47,241,41,02,36,275,36,24,30,067,23,1*78
$GAGSV,3,2,10,08,30,305,38,10,28,087,41,11,25,118,38,12,22,061,33,1*72
$GAGSV,3,3,10,05,20,186,47,36,05,162,47,1*79
$GBGSV,2,1,08,45,71,056,39,29,56,103,47,26,40,303,37,36,24,100,42,1*7A
$GBGSV,2,2,08,30,21,044,44,42,17,286,40,21,14,237,46,14,11,311,32,1*73
$GBGSV,2,1,07,45,71,056,28,29,56,103,38,26,40,303,25,36,24,100,42,5*7A
$GBGSV,2,2,07,30,21,044,31,42,17,286,37,21,14,237,39,5*45
$GNGGA,153847.000,4005.101086,N,10513.207536,W,2,58,0.43,1581.600,M,-20.670,M,,*7C
$GPGSV,3,1,12,30,87,340,42,14,64,301,40,07,57,124,45,22,46,278,45,1*64
$GPGSV,3,2,12,17,43,202,48,48,39,209,46,13,36,301,37,02,31,097,40,1*6F
$GPGSV,3,3,12,21,28,078,39,08,22,046,41,15,10,320,39,09,05,176,44,1*66
$GPGSV,1,1,04,30,87,340,41,14,64,301,38,08,22,046,35,09,05,176,50,8*6C
$GLGSV,3,1,10,73,60,009,36,83,50,096,27,74,34,308,34,82,31,040,40,1*71
$GLGSV,3,2,10,72,28,299,43,80,27,081,37,71,26,245,43,84,17,165,38,1*77
$GLGSV,3,3,10,65,01,347,,70,01,204,,1*7B
$GAGSV,3,1,10,25,71,359,38,03,47,241,41,02,36,275,37,24,30,067,41,7*75
$GAGSV,3,2,10,08,30,305,34,10,28,087,36,11,25,118,38,12,22,061,26,7*7C
$GAGSV,3,3,10,05,20,186,48,36,05,162,47,7*70
$GAGSV,3,1,10,25,71,359,35,03,47,241,41,02,36,275,35,24,30,067,23,1*78
$GAGSV,3,2,10,08,30,305,38,10,28,087,41,11,25,118,38,12,22,061,33,1*72
$GAGSV,3,3,10,05,20,186,47,36,05,162,47,1*79
$GBGSV,3,1,09,45,71,056,39,29,56,103,47,26,40,303,38,36,24,100,42,1*75
$GBGSV,3,2,09,30,21,044,44,42,17,286,40,21,14,237,46,57,12,179,,1*7A
$GBGSV,3,3,09,14,11,311,32,1*48
$GBGSV,2,1,07,45,71,056,28,29,56,103,38,26,40,303,25,36,24,100,42,5*7A
$GBGSV,2,2,07,30,21,044,31,42,17,286,37,21,14,237,39,5*45
$GNGGA,153852.000,4005.101104,N,10513.207410,W,2,57,0.44,1581.592,M,-20.669,M,,*7E
$GPGSV,3,1,11,30,87,340,42,14,64,301,40,07,57,124,45,22,46,278,44,1*66
$GPGSV,3,2,11,48,39,209,46,13,36,301,36,02,31,097,40,21,28,078,39,1*6C
$GPGSV,3,3,11,08,22,046,41,15,10,320,39,09,05,176,45,1*58
$GPGSV,1,1,04,30,87,340,41,14,64,301,37,08,22,046,35,09,05,176,50,8*63
$GLGSV,3,1,10,73,60,009,35,83,50,096,26,74,34,308,34,82,31,040,41,1*72
$GLGSV,3,2,10,72,28,299,42,80,27,081,37,71,26,245,43,84,17,165,38,1*76
$GLGSV,3,3,10,65,01,347,,70,01,204,,1*7B
$GAGSV,3,1,10,25,71,359,38,03,47,241,41,02,36,275,37,24,30,067,41,7*75
$GAGSV,3,2,10,08,30,305,34,10,28,087,36,11,25,118,38,12,22,061,26,7*7C
$GAGSV,3,3,10,05,20,186,48,36,05,162,47,7*70
$GAGSV,3,1,10,25,71,359,35,03,47,241,41,02,36,275,35,24,30,067,23,1*78
$GAGSV,3,2,10,08,30,305,37,10,28,087,41,11,25,118,38,12,22,061,33,1*7D
$GAGSV,3,3,10,05,20,186,47,36,05,162,46,1*78
$GBGSV,2,1,08,45,71,056,39,29,56,103,47,26,40,303,38,36,24,100,42,1*75
$GBGSV,2,2,08,30,21,044,43,42,17,286,39,21,14,237,46,14,11,311,32,1*7A
$GBGSV,2,1,07,45,71,056,28,29,56,103,38,26,40,303,23,36,24,100,42,5*7C
$GBGSV,2,2,07,30,21,044,31,42,17,286,37,21,14,237,39,5*45
$GNGGA,153857.000,4005.101098,N,10513.207446,W,2,57,0.44,1581.698,M,-20.670,M,,*7D
$GPGSV,3,1,11,30,87,340,43,14,64,301,40,07,57,124,45,22,46,278,44,1*67
$GPGSV,3,2,11,48,39,209,46,13,36,301,36,02,31,097,40,21,28,078,39,1*6C
$GPGSV,3,3,11,08,22,046,41,15,10,320,37,09,05,176,45,1*56
$GPGSV,1,1,04,30,87,340,40,14,64,301,37,08,22,046,36,09,05,176,50,8*61
$GLGSV,3,1,10,73,60,009,36,83,50,096,26,74,34,308,35,82,31,040,40,1*71
$GLGSV,3,2,10,72,28,299,42,80,27,081,38,71,26,245,42,84,17,165,37,1*77
$GLGSV,3,3,10,65,01,347,,70,01,204,,1*7B
$GAGSV,3,1,10,25,71,359,38,03,47,241,41,02,36,275,36,24,30,067,41,7*74
$GAGSV,3,2,10,08,30,305,34,10,28,087,36,11,25,118,38,12,22,061,27,7*7D
$GAGSV,3,3,10,05,20,186,48,36,05,162,47,7*70
$GAGSV,3,1,10,25,71,359,35,03,47,241,41,02,36,275,35,24,30,067,24,1*7F
$GAGSV,3,2,10,08,30,305,37,10,28,087,41,11,25,118,38,12,22,061,32,1*7C
$GAGSV,3,3,10,05,20,186,47,36,05,162,46,1*78
$GBGSV,3,1,10,45,71,056,39,29,56,103,47,26,40,303,38,36,24,100,42,1*7D
$GBGSV,3,2,10,30,21,044,43,42,17,286,39,21,14,237,46,14,11,311,32,1*72
$GBGSV,3,3,10,57,11,179,,33,01,333,,1*78
$GBGSV,2,1,07,45,71,056,28,29,56,103,38,26,40,303,22,36,24,100,42,5*7D
$GBGSV,2,2,07,30,21,044,31,42,17,286,37,21,14,237,39,5*45
$GNGGA,153902.000,4005.101056,N,10513.207578,W,2,57,0.44,1581.882,M,-20.670,M,,*77
$GPGSV,3,1,11,30,87,340,43,14,64,301,40,07,57,124,45,22,46,278,43,1*60
$GPGSV,3,2,11,48,39,209,46,13,36,301,36,02,31,096,40,21,28,078,39,1*6D
$GPGSV,3,3,11,08,22,046,41,15,10,320,37,09,05,176,45,1*56
$GPGSV,1,1,04,30,87,340,40,14,64,301,37,08,22,046,36,09,05,176,50,8*61
$GLGSV,3,1,10,73,60,009,35,83,50,096,26,74,34,308,35,82,31,040,40,1*72
$GLGSV,3,2,10,72,28,299,42,80,27,081,38,71,26,245,42,84,17,165,37,1*77
$GLGSV,3,3,10,65,01,347,19,70,01,204,,1*73
$GAGSV,3,1,10,25,71,359,38,03,47,241,41,02,36,275,36,24,30,067,41,7*74
$GAGSV,3,2,10,08,30,305,34,10,28,087,36,11,25,118,37,12,22,061,26,7*73
$GAGSV,3,3,10,05,20,186,48,36,05,162,47,7*70
$GAGSV,3,1,10,25,71,359,35,03,47,241,41,02,36,275,35,24,30,067,25,1*7E
$GAGSV,3,2,10,08,30,305,37,10,28,087,41,11,25,118,38,12,22,061,32,1*7C
$GAGSV,3,3,10,05,20,186,47,36,05,162,46,1*78
$GBGSV,3,1,09,45,71,056,39,29,56,103,47,26,40,303,38,36,24,100,43,1*74
$GBGSV,3,2,09,30,21,044,43,42,17,286,39,21,14,237,45,57,11,179,,1*73
$GBGSV,3,3,09,14,11,311,31,1*4B
$GBGSV,2,1,07,45,71,056,28,29,56,103,38,26,40,303,21,36,24,100,42,5*7E
$GBGSV,2,2,07,30,21,044,31,42,17,286,37,21,14,237,39,5*45
$GNGGA,153907.000,4005.101038,N,10513.207830,W,2,55,0.45,1582.101,M,-20.669,M,,*71
$GPGSV,3,1,11,30,87,340,43,14,64,301,40,07,56,125,45,22,46,278,43,1*60
$GPGSV,3,2,11,48,39,209,46,13,36,301,36,02,31,096,41,21,28,078,39,1*6C
$GPGSV,3,3,11,08,21,045,41,15,10,320,37,09,04,176,46,1*54
$GPGSV,1,1,04,30,87,340,40,14,64,301,37,08,21,045,37,09,04,176,50,8*61
$GLGSV,3,1,10,73,60,009,35,83,50,096,27,74,34,308,35,82,31,040,40,1*73
$GLGSV,3,2,10,72,28,299,42,80,27,081,38,71,26,245,42,84,17,165,37,1*77
$GLGSV,3,3,10,65,01,347,19,70,01,204,,1*73
$GAGSV,3,1,10,25,71,359,38,03,47,241,41,02,36,275,36,24,30,067,41,7*74
$GAGSV,3,2,10,08,30,305,34,10,28,087,36,11,25,118,37,12,22,061,26,7*73
$GAGSV,3,3,10,05,20,186,48,36,05,162,47,7*70
$GAGSV,3,1,10,25,71,359,35,03,47,241,41,02,36,275,35,24,30,067,26,1*7D
$GAGSV,3,2,10,08,30,305,37,10,28,087,41,11,25,118,38,12,22,061,31,1*7F
$GAGSV,3,3,10,05,20,186,47,36,05,162,46,1*78
$GBGSV,3,1,09,45,71,056,39,29,56,103,47,26,40,303,38,36,24,100,43,1*74
$GBGSV,3,2,09,30,21,044,43,42,17,286,39,21,14,237,45,57,11,179,,1*73
$GBGSV,3,3,09,14,11,311,30,1*4A
$GBGSV,2,1,07,45,71,056,26,29,56,103,38,26,40,303,20,36,24,100,42,5*71
$GBGSV,2,2,07,30,21,044,32,42,17,286,37,21,14,237,40,5*48
$GNGGA,153912.000,4005.101158,N,10513.208010,W,2,55,0.45,1582.289,M,-20.670,M,,*7C
$GPGSV,3,1,11,30,87,340,43,14,65,303,40,07,56,125,45,22,46,278,43,1*63
$GPGSV,3,2,11,48,39,209,46,13,36,300,36,02,31,096,42,21,28,078,39,1*6E
$GPGSV,3,3,11,08,21,045,41,15,11,319,36,09,04,176,46,1*5E
$GPGSV,1,1,04,30,87,340,40,14,65,303,37,08,21,045,37,09,04,176,50,8*62
$GLGSV,3,1,10,73,60,009,34,83,50,096,27,74,34,308,36,82,31,040,40,1*71
$GLGSV,3,2,10,72,28,299,42,80,27,081,38,71,26,245,42,84,17,165,37,1*77
$GLGSV,3,3,10,65,01,347,19,70,01,204,,1*73
$GAGSV,3,1,10,25,71,359,38,03,47,241,41,02,36,275,36,24,30,067,41,7*74
$GAGSV,3,2,10,08,30,305,34,10,28,087,36,11,25,118,37,12,22,061,26,7*73
$GAGSV,3,3,10,05,20,186,48,36,05,162,47,7*70
$GAGSV,3,1,10,25,71,359,35,03,47,241,41,02,36,275,35,24,30,067,27,1*7C
$GAGSV,3,2,10,08,30,305,37,10,28,087,40,11,25,118,38,12,22,061,31,1*7E
$GAGSV,3,3,10,05,20,186,47,36,05,162,46,1*78
$GBGSV,3,1,09,45,71,056,39,29,56,103,46,26,40,303,39,36,24,100,43,1*74
$GBGSV,3,2,09,30,21,044,43,42,17,286,39,21,14,237,45,14,11,311,30,1*7B
$GBGSV,3,3,09,33,01,333,,1*4D
$GBGSV,2,1,07,45,71,056,26,29,56,103,37,26,40,303,19,36,24,100,42,5*74
$GBGSV,2,2,07,30,21,044,32,42,17,286,37,21,14,237,40,5*48
$GNGGA,153917.000,4005.101230,N,10513.207920,W,2,55,0.45,1582.510,M,-20.670,M,,*76
$GPGSV,3,1,11,30,87,340,43,14,65,303,40,07,56,125,45,22,46,278,43,1*63
$GPGSV,3,2,11,48,39,209,46,13,36,300,36,02,31,096,41,21,28,078,39,1*6D
$GPGSV,3,3,11,08,21,045,41,15,11,319,36,09,04,176,46,1*5E
$GPGSV,1,1,04,30,87,340,40,14,65,303,37,08,21,045,37,09,04,176,50,8*62
$GLGSV,3,1,10,73,60,009,34,83,50,096,28,74,34,308,36,82,31,040,40,1*7E
$GLGSV,3,2,10,72,28,299,42,80,27,081,37,71,26,245,42,84,17,165,37,1*78
$GLGSV,3,3,10,65,01,347,19,70,01,204,,1*73
$GAGSV,3,1,10,25,71,359,37,03,47,241,41,02,36,275,36,24,30,067,41,7*7B
$GAGSV,3,2,10,08,30,305,35,10,28,087,36,11,25,118,37,12,22,061,24,7*70
$GAGSV,3,3,10,05,20,186,48,36,05,162,47,7*70
$GAGSV,3,1,10,25,71,359,35,03,47,241,41,02,36,275,35,24,30,067,27,1*7C
$GAGSV,3,2,10,08,30,305,37,10,28,087,40,11,25,118,38,12,22,061,31,1*7E
$GAGSV,3,3,10,05,20,186,47,36,05,162,46,1*78
$GBGSV,3,1,09,45,71,056,39,29,56,103,46,26,40,303,39,36,24,100,44,1*73
$GBGSV,3,2,09,30,21,044,43,42,17,286,39,21,14,237,44,57,11,179,,1*72
$GBGSV,3,3,09,14,11,311,32,1*48
$GBGSV,2,1,07,45,71,056,26,29,56,103,37,26,40,303,19,36,24,100,42,5*74
$GBGSV,2,2,07,30,21,044,32,42,17,286,37,21,14,237,40,5*48
$GNGGA,153922.000,4005.101254,N,10513.207782,W,2,53,0.45,1582.735,M,-20.670,M,,*77
$GPGSV,3,1,11,30,87,340,43,14,65,303,40,07,56,125,45,22,47,279,43,1*63
$GPGSV,3,2,11,48,39,209,46,13,36,300,36,02,31,096,40,21,28,077,39,1*63
$GPGSV,3,3,11,08,21,045,41,15,11,319,37,09,04,176,46,1*5F
$GPGSV,1,1,04,30,87,340,40,14,65,303,37,08,21,045,37,09,04,176,50,8*62
$GLGSV,3,1,10,73,60,009,35,83,50,096,28,74,34,308,37,82,31,040,41,1*7F
$GLGSV,3,2,10,72,28,299,42,80,27,081,38,71,26,245,42,84,17,165,37,1*77
$GLGSV,3,3,10,65,01,347,17,70,01,204,,1*7D
$GAGSV,3,1,10,25,71,359,37,03,47,241,41,02,36,275,36,24,30,067,41,7*7B
$GAGSV,3,2,10,08,30,305,35,10,28,087,36,11,25,118,37,12,22,061,25,7*71
$GAGSV,3,3,10,05,20,186,48,36,05,162,47,7*70
$GAGSV,3,1,10,25,71,359,35,03,47,241,41,02,36,275,36,24,30,067,29,1*71
$GAGSV,3,2,10,08,30,305,37,10,28,087,40,11,25,118,39,12,22,061,31,1*7F
$GAGSV,3,3,10,05,20,186,47,36,05,162,46,1*78
$GBGSV,3,1,09,45,71,056,40,29,56,103,46,26,40,303,39,36,24,100,44,1*7D
$GBGSV,3,2,09,30,21,044,43,42,17,286,39,21,14,237,45,14,11,311,33,1*78
$GBGSV,3,3,09,33,01,333,,1*4D
$GBGSV,2,1,06,45,71,056,27,29,56,103,37,36,24,100,42,30,21,044,32,5*7D
$GBGSV,2,2,06,42,17,286,37,21,14,237,40,5*78
$GNGGA,153927.000,4005.101314,N,10513.207752,W,2,53,0.45,1582.892,M,-20.669,M,,*70
$GPGSV,3,1,11,30,88,352,43,14,65,303,41,07,56,125,45,22,47,279,43,1*6E
$GPGSV,3,2,11,48,39,209,46,13,36,300,36,02,31,096,40,21,28,077,39,1*63
$GPGSV,3,3,11,08,21,045,41,15,11,319,37,09,04,176,47,1*5E
$GPGSV,1,1,04,30,88,352,40,14,65,303,37,08,21,045,37,09,04,176,49,8*66
$GLGSV,3,1,10,73,60,009,35,83,50,096,28,74,34,308,36,82,31,040,41,1*7E
$GLGSV,3,2,10,72,28,299,43,80,27,081,38,71,26,245,42,84,17,165,37,1*76
$GLGSV,3,3,10,65,01,347,18,70,01,204,,1*72
$GAGSV,3,1,10,25,71,359,37,03,47,241,41,02,36,275,36,24,30,067,40,7*7A
$GAGSV,3,2,10,08,30,305,32,10,28,087,36,11,25,118,37,12,22,061,26,7*75
$GAGSV,3,3,10,05,20,186,47,36,05,162,47,7*7F
$GAGSV,3,1,10,25,71,359,35,03,47,241,41,02,36,275,36,24,30,067,29,1*71
$GAGSV,3,2,10,08,30,305,37,10,28,087,40,11,25,118,39,12,22,061,31,1*7F
$GAGSV,3,3,10,05,20,186,47,36,05,162,45,1*7B
$GBGSV,3,1,10,45,71,056,40,29,56,103,46,26,40,303,39,36,24,100,44,1*75
$GBGSV,3,2,10,30,21,044,43,42,17,286,39,21,14,237,44,14,11,311,34,1*76
$GBGSV,3,3,10,57,11,179,,33,01,333,,1*78
$GBGSV,2,1,06,45,71,056,27,29,56,103,37,36,24,100,42,30,21,044,32,5*7D
$GBGSV,2,2,06,42,17,286,36,21,14,237,40,5*79
$GNGGA,153932.000,4005.101398,N,10513.207812,W,2,54,0.45,1583.126,M,-20.670,M,,*73
$GPGSV,3,1,11,30,88,352,43,14,65,303,41,07,56,125,45,22,47,279,42,1*6F
$GPGSV,3,2,11,48,39,209,46,13,36,300,36,02,31,096,40,21,28,077,39,1*63
$GPGSV,3,3,11,08,21,045,41,15,11,319,37,09,04,176,48,1*51
$GPGSV,1,1,04,30,88,352,40,14,65,303,37,08,21,045,37,09,04,176,49,8*66
$GLGSV,3,1,10,73,60,009,35,83,50,096,27,74,34,308,35,82,31,040,41,1*72
$GLGSV,3,2,10,72,28,299,43,80,27,081,39,71,26,245,42,84,17,165,37,1*77
$GLGSV,3,3,10,65,01,347,18,70,01,204,,1*72
$GAGSV,3,1,10,25,71,359,37,03,47,241,41,02,36,275,36,24,30,067,40,7*7A
$GAGSV,3,2,10,08,30,305,32,10,28,087,36,11,25,118,36,12,22,061,27,7*75
$GAGSV,3,3,10,05,20,186,47,36,05,162,47,7*7F
$GAGSV,3,1,10,25,71,359,35,03,47,241,41,02,36,275,36,24,30,067,29,1*71
$GAGSV,3,2,10,08,30,305,37,10,28,087,40,11,25,118,39,12,22,061,31,1*7F
$GAGSV,3,3,10,05,20,186,47,36,05,162,45,1*7B
$GBGSV,3,1,09,45,71,056,40,29,56,103,46,26,40,303,39,36,24,100,44,1*7D
$GBGSV,3,2,09,30,21,044,43,42,17,286,39,21,14,237,45,14,11,311,34,1*7F
$GBGSV,3,3,09,33,01,333,,1*4D
$GBGSV,2,1,06,45,71,056,27,29,56,103,37,36,24,100,42,30,21,044,31,5*7E
$GBGSV,2,2,06,42,17,286,36,21,14,237,40,5*79
$GNGGA,153937.000,4005.101440,N,10513.207962,W,2,53,0.45,1583.365,M,-20.670,M,,*70
$GPGSV,3,1,11,30,88,352,43,14,65,303,41,07,56,125,45,22,47,279,42,1*6F
$GPGSV,3,2,11,48,39,209,46,13,36,300,36,02,31,096,41,21,28,077,39,1*62
$GPGSV,3,3,11,08,21,045,41,15,11,319,37,09,04,176,48,1*51
$GPGSV,1,1,04,30,88,352,40,14,65,303,37,08,21,045,38,09,04,176,49,8*69
$GLGSV,3,1,10,73,60,009,33,83,50,096,27,74,34,308,35,82,31,040,41,1*74
$GLGSV,3,2,10,72,28,299,43,80,27,081,39,71,26,245,42,84,17,165,37,1*77
$GLGSV,3,3,10,65,01,347,18,70,01,204,,1*72
$GAGSV,3,1,10,25,71,359,37,03,47,241,41,02,36,275,36,24,30,067,40,7*7A
$GAGSV,3,2,10,08,30,305,31,10,28,087,36,11,25,118,36,12,22,061,28,7*79
$GAGSV,3,3,10,05,20,186,47,36,05,162,47,7*7F
$GAGSV,3,1,10,25,71,359,35,03,47,241,41,02,36,275,36,24,30,067,30,1*79
$GAGSV,3,2,10,08,30,305,37,10,28,087,40,11,25,118,39,12,22,061,31,1*7F
$GAGSV,3,3,10,05,20,186,47,36,05,162,45,1*7B
$GBGSV,3,1,09,45,71,056,40,29,56,103,46,26,40,303,39,36,24,100,44,1*7D
$GBGSV,3,2,09,30,21,044,43,42,17,286,39,21,14,237,44,57,11,179,,1*72
$GBGSV,3,3,09,14,11,311,35,1*4F
$GBGSV,2,1,06,45,71,056,27,29,56,103,37,36,24,100,42,30,21,044,31,5*7E
$GBGSV,2,2,06,42,17,286,36,21,14,237,40,5*79
$GNGGA,153942.000,4005.101476,N,10513.208106,W,2,54,0.45,1583.598,M,-20.670,M,,*71
$GPGSV,3,1,11,30,88,352,43,14,65,303,41,07,56,125,45,22,47,279,42,1*6F
$GPGSV,3,2,11,48,39,209,46,13,36,300,36,02,31,096,41,21,28,077,40,1*6C
$GPGSV,3,3,11,08,21,045,41,15,11,319,37,09,04,176,48,1*51
$GPGSV,1,1,04,30,88,352,40,14,65,303,37,08,21,045,38,09,04,176,49,8*69
$GLGSV,3,1,10,73,60,009,35,83,50,096,27,74,34,308,35,82,31,040,42,1*71
$GLGSV,3,2,10,72,28,299,42,80,27,081,40,71,26,245,42,84,17,165,37,1*78
$GLGSV,3,3,10,65,01,347,17,70,01,204,,1*7D
$GAGSV,3,1,10,25,71,359,37,03,46,240,41,02,37,276,37,24,30,067,40,7*79
$GAGSV,3,2,10,08,30,305,32,10,28,087,36,11,25,118,36,12,22,061,29,7*7B
$GAGSV,3,3,10,05,19,186,47,36,05,162,47,7*75
$GAGSV,3,1,10,25,71,359,35,03,46,240,41,02,37,276,36,24,30,067,31,1*7A
$GAGSV,3,2,10,08,30,305,37,10,28,087,40,11,25,118,39,12,22,061,30,1*7E
$GAGSV,3,3,10,05,19,186,47,36,05,162,44,1*70
$GBGSV,3,1,09,45,71,056,40,29,56,103,46,26,40,303,39,36,24,100,44,1*7D
$GBGSV,3,2,09,30,21,044,43,42,17,286,39,21,14,237,44,14,11,311,35,1*7F
$GBGSV,3,3,09,33,01,333,,1*4D
$GBGSV,2,1,06,45,71,056,26,29,56,103,37,36,24,100,42,30,21,044,32,5*7C
$GBGSV,2,2,06,42,17,286,36,21,14,237,41,5*78
$GNGGA,153947.000,4005.101536,N,10513.208178,W,2,53,0.45,1583.731,M,-20.670,M,,*7E
$GPGSV,3,1,11,30,88,352,43,14,65,303,41,07,56,125,45,22,47,279,42,1*6F
$GPGSV,3,2,11,48,39,209,46,13,36,300,36,02,31,096,41,21,28,077,40,1*6C
$GPGSV,3,3,11,08,21,045,42,15,11,319,37,09,04,176,48,1*52
$GPGSV,1,1,04,30,88,352,40,14,65,303,37,08,21,045,38,09,04,176,48,8*68
$GLGSV,3,1,10,73,60,009,36,83,50,096,28,74,34,308,35,82,31,040,42,1*7D
$GLGSV,3,2,10,72,28,299,41,80,27,081,40,71,26,245,42,84,17,165,36,1*7A
$GLGSV,3,3,10,65,01,347,17,70,01,204,,1*7D
$GAGSV,3,1,10,25,71,359,37,03,46,240,41,02,37,276,37,24,30,067,40,7*79
$GAGSV,3,2,10,08,30,304,32,10,28,086,36,11,26,117,36,12,22,061,29,7*77
$GAGSV,3,3,10,05,19,186,47,36,05,162,47,7*75
$GAGSV,3,1,10,25,71,359,35,03,46,240,41,02,37,276,36,24,30,067,31,1*7A
$GAGSV,3,2,10,08,30,304,37,10,28,086,40,11,26,117,39,12,22,061,30,1*72
$GAGSV,3,3,10,05,19,186,46,36,05,162,44,1*71
$GBGSV,3,1,09,45,71,056,40,29,56,103,46,26,40,303,39,36,24,100,44,1*7D
$GBGSV,3,2,09,30,21,044,43,42,17,286,39,21,14,237,44,57,11,179,,1*72
$GBGSV,3,3,09,14,11,311,35,1*4F
$GBGSV,2,1,06,45,71,056,26,29,56,103,37,36,24,100,42,30,21,044,32,5*7C
$GBGSV,2,2,06,42,17,286,35,21,14,237,41,5*7B
$GNGGA,153952.000,4005.101632,N,10513.208118,W,2,53,0.45,1583.763,M,-20.669,M,,*74
$GPGSV,3,1,11,30,88,352,43,14,65,303,41,07,56,125,45,22,47,279,42,1*6F
$GPGSV,3,2,11,48,39,209,46,13,36,300,36,02,31,096,41,21,28,077,40,1*6C
$GPGSV,3,3,11,08,21,045,42,15,11,319,37,09,04,176,48,1*52
$GPGSV,1,1,04,30,88,352,40,14,65,303,37,08,21,045,38,09,04,176,48,8*68
$GLGSV,3,1,10,73,60,009,36,83,50,096,29,74,34,308,35,82,31,040,42,1*7C
$GLGSV,3,2,10,72,28,299,41,80,27,081,40,71,26,245,43,84,17,165,36,1*7B
$GLGSV,3,3,10,65,01,347,16,70,01,204,,1*7C
$GAGSV,3,1,10,25,71,359,37,03,46,240,41,02,37,276,37,24,30,067,40,7*79
$GAGSV,3,2,10,08,30,304,32,10,28,086,36,11,26,117,36,12,22,060,29,7*76
$GAGSV,3,3,10,05,19,186,47,36,05,162,47,7*75
$GAGSV,3,1,10,25,71,359,35,03,46,240,41,02,37,276,36,24,30,067,31,1*7A
$GAGSV,3,2,10,08,30,304,37,10,28,086,40,11,26,117,39,12,22,060,30,1*73
$GAGSV,3,3,10,05,19,186,46,36,05,162,44,1*71
$GBGSV,3,1,09,45,71,056,40,29,56,103,46,26,40,303,39,36,24,100,44,1*7D
$GBGSV,3,2,09,30,21,044,43,42,17,286,39,21,14,237,44,57,11,179,,1*72
$GBGSV,3,3,09,14,11,311,35,1*4F
$GBGSV,2,1,06,45,71,056,26,29,56,103,38,36,24,100,43,30,21,044,33,5*73
$GBGSV,2,2,06,42,17,286,36,21,14,237,41,5*78
$GNGGA,153957.000,4005.101668,N,10513.208022,W,2,53,0.45,1583.929,M,-20.670,M,,*7E
$GPGSV,3,1,11,30,88,352,43,14,65,303,41,07,56,125,45,22,47,279,42,1*6F
$GPGSV,3,2,11,48,39,209,46,13,36,300,36,02,31,096,41,21,28,077,40,1*6C
$GPGSV,3,3,11,08,21,045,42,15,11,319,39,09,04,176,48,1*5C
$GPGSV,1,1,04,30,88,352,40,14,65,303,37,08,21,045,38,09,04,176,48,8*68
$GLGSV,3,1,10,73,60,009,35,83,50,096,28,74,34,308,35,82,31,040,42,1*7E
$GLGSV,3,2,10,72,28,299,40,80,27,081,40,71,26,245,43,84,17,165,36,1*7A
$GLGSV,3,3,10,65,01,347,16,70,01,204,,1*7C
$GAGSV,3,1,10,25,71,359,37,03,46,240,41,02,37,276,37,24,30,067,40,7*79
$GAGSV,3,2,10,08,30,304,32,10,28,086,36,11,26,117,36,12,22,060,27,7*78
$GAGSV,3,3,10,05,19,186,46,36,05,162,47,7*74
$GAGSV,3,1,10,25,71,359,35,03,46,240,41,02,37,276,36,24,30,067,32,1*79
$GAGSV,3,2,10,08,30,304,37,10,28,086,40,11,26,117,39,12,22,060,31,1*72
$GAGSV,3,3,10,05,19,186,46,36,05,162,43,1*76
$GBGSV,3,1,09,45,71,056,40,29,56,103,46,26,40,303,39,36,24,100,45,1*7C
$GBGSV,3,2,09,30,21,044,43,42,17,286,39,21,14,237,43,14,11,311,35,1*78
$GBGSV,3,3,09,33,01,333,,1*4D
$GBGSV,2,1,06,45,71,056,26,29,56,103,38,36,24,100,43,30,21,044,33,5*73
$GBGSV,2,2,06,42,17,286,36,21,14,237,42,5*7B
$GNGGA,154002.000,4005.101674,N,10513.207974,W,2,53,0.45,1584.025,M,-20.670,M,,*7A
$GPGSV,3,1,11,30,88,352,41,14,65,303,41,07,56,125,45,22,47,279,42,1*6D
$GPGSV,3,2,11,48,39,209,46,13,36,300,36,02,31,096,41,21,28,077,39,1*62
$GPGSV,3,3,11,08,21,045,42,15,11,319,39,09,04,176,49,1*5D
$GPGSV,1,1,04,30,88,352,40,14,65,303,37,08,21,045,38,09,04,176,48,8*68
$GLGSV,3,1,10,73,60,009,33,83,50,096,27,74,34,308,35,82,31,040,42,1*77
$GLGSV,3,2,10,72,28,299,41,80,27,081,40,71,26,245,43,84,17,165,36,1*7B
$GLGSV,3,3,10,65,01,347,17,70,01,204,,1*7D
$GAGSV,3,1,10,25,71,002,37,03,46,240,41,02,37,276,37,08,30,304,33,7*78
$GAGSV,3,2,10,24,29,068,40,10,28,086,36,11,26,117,36,12,22,060,26,7*73
$GAGSV,3,3,10,05,19,186,46,36,05,162,47,7*74
$GAGSV,3,1,10,25,71,002,35,03,46,240,41,02,37,276,36,08,30,304,37,1*79
$GAGSV,3,2,10,24,29,068,32,10,28,086,40,11,26,117,39,12,22,060,31,1*78
$GAGSV,3,3,10,05,19,186,46,36,05,162,43,1*76
$GBGSV,3,1,10,45,71,056,40,29,56,103,46,26,40,303,39,36,24,100,45,1*74
$GBGSV,3,2,10,30,21,044,43,42,17,286,39,21,14,237,42,14,11,311,35,1*71
$GBGSV,3,3,10,57,11,179,,33,01,333,,1*78
$GBGSV,2,1,06,45,71,056,27,29,56,103,38,36,24,100,43,30,21,044,34,5*75
$GBGSV,2,2,06,42,17,286,36,21,14,237,42,5*7B
$GNGGA,154007.000,4005.101698,N,10513.207980,W,2,54,0.45,1583.936,M,-20.669,M,,*75
$GPGSV,3,1,11,30,88,352,41,14,65,303,41,07,56,125,45,22,47,279,42,1*6D
$GPGSV,3,2,11,48,39,209,46,13,36,300,37,02,31,096,41,21,28,077,39,1*63
$GPGSV,3,3,11,08,21,045,42,15,11,319,39,09,04,176,49,1*5D
$GPGSV,1,1,04,30,88,352,40,14,65,303,37,08,21,045,38,09,04,176,48,8*68
$GLGSV,3,1,10,73,60,009,34,83,50,096,27,74,34,308,36,82,31,040,42,1*73
$GLGSV,3,2,10,72,28,299,41,80,27,081,40,71,26,245,43,84,17,165,35,1*78
$GLGSV,3,3,10,65,01,347,,70,01,204,,1*7B
$GAGSV,3,1,10,25,71,002,37,03,46,240,41,02,37,276,37,08,30,304,35,7*7E
$GAGSV,3,2,10,24,29,068,40,10,28,086,36,11,26,117,35,12,22,060,26,7*70
$GAGSV,3,3,10,05,19,186,46,36,05,162,47,7*74
$GAGSV,3,1,10,25,71,002,35,03,46,240,41,02,37,276,36,08,30,304,37,1*79
$GAGSV,3,2,10,24,29,068,32,10,28,086,40,11,26,117,39,12,22,060,31,1*78
$GAGSV,3,3,10,05,19,186,46,36,05,162,43,1*76
$GBGSV,3,1,10,45,71,056,40,29,56,103,46,26,40,303,39,36,24,100,45,1*74
$GBGSV,3,2,10,30,21,044,43,42,17,286,39,21,14,237,42,14,11,311,36,1*72
$GBGSV,3,3,10,57,11,179,,33,01,333,,1*78
$GBGSV,2,1,06,45,71,056,26,29,56,103,38,36,24,100,43,30,21,044,34,5*74
$GBGSV,2,2,06,42,17,286,36,21,14,237,42,5*7B
$GNGGA,154012.000,4005.101632,N,10513.207992,W,2,54,0.45,1583.981,M,-20.670,M,,*76
$GPGSV,3,1,11,30,88,352,41,14,65,303,41,07,56,125,45,22,47,279,42,1*6D
$GPGSV,3,2,11,48,39,209,46,13,36,300,38,02,31,096,41,21,28,077,39,1*6C
$GPGSV,3,3,11,08,21,045,42,15,11,319,39,09,04,176,49,1*5D
$GPGSV,1,1,04,30,88,352,40,14,65,303,37,08,21,045,38,09,04,176,48,8*68
$GLGSV,3,1,10,73,60,009,33,83,50,096,28,74,34,308,36,82,31,040,42,1*7B
$GLGSV,3,2,10,72,28,299,42,80,27,081,40,71,26,245,43,84,17,165,35,1*7B
$GLGSV,3,3,10,65,01,347,,70,01,204,,1*7B
$GAGSV,3,1,10,25,71,002,37,03,46,240,41,02,37,276,37,08,30,304,36,7*7D
$GAGSV,3,2,10,24,29,068,40,10,28,086,36,11,26,117,35,12,22,060,27,7*71
$GAGSV,3,3,10,05,19,186,46,36,06,162,47,7*77
$GAGSV,3,1,10,25,71,002,35,03,46,240,41,02,37,276,36,08,30,304,37,1*79
$GAGSV,3,2,10,24,29,068,32,10,28,086,40,11,26,117,39,12,22,060,31,1*78
$GAGSV,3,3,10,05,19,186,46,36,06,162,43,1*75
$GBGSV,2,1,08,45,71,056,41,29,56,103,46,26,40,303,39,36,24,100,45,1*7D
$GBGSV,2,2,08,30,21,044,43,42,17,286,39,21,14,237,41,14,11,311,36,1*79
$GBGSV,2,1,06,45,71,056,26,29,56,103,38,36,24,100,43,30,21,044,34,5*74
$GBGSV,2,2,06,42,17,286,36,21,14,237,42,5*7B
$GNGGA,154017.000,4005.101572,N,10513.208034,W,2,54,0.45,1583.980,M,-20.670,M,,*7F
$GPGSV,3,1,11,30,88,352,42,14,65,303,41,07,56,125,45,22,47,279,42,1*6E
$GPGSV,3,2,11,48,39,209,46,13,36,300,38,02,31,096,42,21,28,077,39,1*6F
$GPGSV,3,3,11,08,21,045,42,15,11,319,39,09,04,176,49,1*5D
$GPGSV,1,1,04,30,88,352,40,14,65,303,36,08,21,045,38,09,04,176,48,8*69
$GLGSV,3,1,10,73,60,009,31,83,50,096,28,74,34,308,32,82,31,040,42,1*7D
$GLGSV,3,2,10,72,28,299,43,80,27,081,40,71,26,245,43,84,17,165,33,1*7C
$GLGSV,3,3,10,65,02,346,,70,01,204,,1*79
$GAGSV,3,1,10,25,71,002,37,03,46,240,41,02,37,276,37,08,30,304,37,7*7C
$GAGSV,3,2,10,24,29,068,40,10,28,086,36,11,26,117,35,12,22,060,27,7*71
$GAGSV,3,3,10,05,19,186,45,36,06,162,47,7*74
$GAGSV,3,1,10,25,71,002,35,03,46,240,41,02,37,276,36,08,30,304,37,1*79
$GAGSV,3,2,10,24,29,068,32,10,28,086,40,11,26,117,39,12,22,060,31,1*78
$GAGSV,3,3,10,05,19,186,46,36,06,162,42,1*74
$GBGSV,3,1,10,45,71,056,41,29,56,103,46,26,40,303,39,36,24,100,45,1*75
$GBGSV,3,2,10,30,21,044,43,42,17,286,39,21,14,237,44,14,11,311,37,1*75
$GBGSV,3,3,10,57,11,179,,33,01,333,,1*78
$GBGSV,2,1,06,45,71,056,26,29,56,103,38,36,24,100,43,30,21,044,34,5*74
$GBGSV,2,2,06,42,17,286,36,21,14,237,42,5*7B
$GNGGA,154022.000,4005.101542,N,10513.208148,W,2,54,0.45,1583.909,M,-20.669,M,,*79
$GPGSV,3,1,11,30,88,352,42,14,65,303,41,07,56,125,45,22,47,279,42,1*6E
$GPGSV,3,2,11,48,39,209,46,13,36,300,37,02,31,096,42,21,28,077,39,1*60
$GPGSV,3,3,11,08,21,045,42,15,11,319,38,09,04,176,49,1*5C
$GPGSV,1,1,04,30,88,352,40,14,65,303,36,08,21,045,38,09,04,176,47,8*66
$GLGSV,3,1,09,73,61,012,30,83,50,096,28,74,35,310,32,82,31,040,42,1*77
$GLGSV,3,2,09,80,27,081,40,72,27,298,43,71,25,244,44,84,17,165,33,1*7F
$GLGSV,3,3,09,65,02,346,,1*41
$GAGSV,3,1,10,25,71,002,37,03,46,240,41,02,37,276,37,08,30,304,37,7*7C
$GAGSV,3,2,10,24,29,068,39,10,28,086,36,11,26,117,35,12,22,060,29,7*71
$GAGSV,3,3,10,05,19,186,45,36,06,162,47,7*74
$GAGSV,3,1,10,25,71,002,35,03,46,240,41,02,37,276,36,08,30,304,37,1*79
$GAGSV,3,2,10,24,29,068,32,10,28,086,40,11,26,117,39,12,22,060,31,1*78
$GAGSV,3,3,10,05,19,186,46,36,06,162,41,1*77
$GBGSV,3,1,10,45,71,056,41,29,56,103,46,26,40,303,39,36,24,100,45,1*75
$GBGSV,3,2,10,30,21,044,43,42,17,286,40,21,14,237,44,57,11,179,,1*74
$GBGSV,3,3,10,14,11,311,37,33,01,333,,1*77
$GBGSV,2,1,06,45,71,056,26,29,56,103,38,36,24,100,43,30,21,044,34,5*74
$GBGSV,2,2,06,42,17,286,36,21,14,237,42,5*7B
$GNGGA,154027.000,4005.101530,N,10513.208154,W,2,54,0.45,1583.704,M,-20.669,M,,*77
$GPGSV,3,1,11,30,88,352,42,14,65,303,41,07,56,125,45,22,47,279,42,1*6E
$GPGSV,3,2,11,48,39,209,46,13,36,300,37,02,31,096,42,21,28,077,39,1*60
$GPGSV,3,3,11,08,21,045,42,15,11,319,38,09,04,176,49,1*5C
$GPGSV,1,1,04,30,88,352,40,14,65,303,36,08,21,045,38,09,04,176,46,8*67
$GLGSV,3,1,09,73,61,012,28,83,50,096,28,74,35,310,32,82,31,040,42,1*7E
$GLGSV,3,2,09,80,27,081,40,72,27,298,43,71,25,244,44,84,17,165,33,1*7F
$GLGSV,3,3,09,65,02,346,,1*41
$GAGSV,3,1,10,25,71,002,37,03,46,240,41,02,37,276,37,08,30,304,36,7*7D
$GAGSV,3,2,10,24,29,068,39,10,28,086,36,11,26,117,35,12,22,060,29,7*71
$GAGSV,3,3,10,05,19,186,45,36,06,162,47,7*74
$GAGSV,3,1,10,25,71,002,35,03,46,240,41,02,37,276,36,08,30,304,37,1*79
$GAGSV,3,2,10,24,29,068,33,10,28,086,40,11,26,117,39,12,22,060,31,1*79
$GAGSV,3,3,10,05,19,186,46,36,06,162,41,1*77
$GBGSV,3,1,10,45,71,056,41,29,56,103,46,26,40,303,39,36,24,100,45,1*75
$GBGSV,3,2,10,30,21,044,43,42,17,286,40,21,14,237,45,57,11,179,,1*75
$GBGSV,3,3,10,14,11,311,37,33,01,333,,1*77
$GBGSV,2,1,06,45,71,056,26,29,56,103,38,36,24,100,43,30,21,044,34,5*74
$GBGSV,2,2,06,42,17,286,36,21,14,237,42,5*7B
$GNGGA,154032.000,4005.101500,N,10513.208154,W,2,55,0.45,1583.613,M,-20.670,M,,*7E
$GPGSV,3,1,11,30,88,352,42,14,65,303,41,07,56,125,45,22,47,279,42,1*6E
$GPGSV,3,2,11,48,39,209,46,13,36,300,38,02,31,096,42,21,28,077,39,1*6F
$GPGSV,3,3,11,08,21,045,42,15,11,319,38,09,04,176,49,1*5C
$GPGSV,1,1,04,30,88,352,40,14,65,303,36,08,21,045,38,09,04,176,46,8*67
$GLGSV,3,1,09,73,61,012,29,83,50,093,28,74,35,310,34,82,30,039,41,1*70
$GLGSV,3,2,09,72,27,298,42,80,26,082,40,71,25,244,43,84,19,165,34,1*72
$GLGSV,3,3,09,65,02,346,,1*41
$GAGSV,3,1,10,25,71,002,37,03,46,240,41,02,37,276,37,08,30,304,36,7*7D
$GAGSV,3,2,10,24,29,068,39,10,28,086,36,11,26,117,34,12,22,060,29,7*70
$GAGSV,3,3,10,05,19,186,45,36,06,162,47,7*74
$GAGSV,3,1,10,25,71,002,35,03,46,240,41,02,37,276,36,08,30,304,37,1*79
$GAGSV,3,2,10,24,29,068,33,10,28,086,40,11,26,117,39,12,22,060,31,1*79
$GAGSV,3,3,10,05,19,186,46,36,06,162,41,1*77
$GBGSV,3,1,09,45,71,056,41,29,56,103,46,26,40,303,39,36,24,100,45,1*7D
$GBGSV,3,2,09,30,21,044,43,42,17,286,40,21,14,237,43,14,11,311,37,1*74
$GBGSV,3,3,09,33,01,333,,1*4D
$GBGSV,2,1,07,45,71,056,26,29,56,103,38,26,40,303,22,36,24,100,43,5*72
$GBGSV,2,2,07,30,21,044,34,42,17,286,36,21,14,237,42,5*4D
$GNGGA,154037.000,4005.101476,N,10513.208172,W,2,55,0.45,1583.638,M,-20.670,M,,*76
$GPGSV,3,1,11,30,88,352,42,14,65,303,41,07,56,125,45,22,47,279,41,1*6D
$GPGSV,3,2,11,48,39,209,46,13,36,300,38,02,31,096,41,21,28,077,40,1*62
$GPGSV,3,3,11,08,21,045,41,15,11,319,38,09,04,176,50,1*57
$GPGSV,1,1,04,30,88,352,39,14,65,303,36,08,21,045,38,09,04,176,45,8*6A
$GLGSV,3,1,09,73,61,012,30,83,50,093,27,74,35,310,34,82,30,039,41,1*77
$GLGSV,3,2,09,72,27,298,42,80,26,082,40,71,25,244,43,84,19,165,33,1*75
$GLGSV,3,3,09,65,02,346,,1*41
$GAGSV,3,1,10,25,71,002,37,03,46,240,41,02,37,276,37,08,30,304,36,7*7D
$GAGSV,3,2,10,24,29,068,39,10,28,086,36,11,26,117,34,12,22,060,29,7*70
$GAGSV,3,3,10,05,19,186,44,36,06,162,47,7*75
