Serial<id=0x6d8d0f28, open=True>(port='/dev/ttyUSB0', baudrate=115200, bytesize=8, parity='N', stopbits=1, timeout=None, xonxoff=False, rtscts=False, dsrdtr=False)
Serial<id=0x768b61d8, open=True>(port='/dev/ttyUSB1', baudrate=19200, bytesize=8, parity='N', stopbits=1, timeout=None, xonxoff=False, rtscts=False, dsrdtr=False)
6
$GNGGA,170637.000,4005.098482,N,10513.207932,W,2,54,0.43,1584.612,M,-20.670,M,,*77
$GPGSV,3,1,11,22,69,345,38,14,66,051,37,30,48,159,45,48,39,209,46,1*69
$GPGSV,3,2,11,13,33,251,43,02,29,052,37,07,18,148,49,21,16,041,35,1*65
$GPGSV,3,3,11,15,16,283,42,06,11,179,49,24,10,317,37,1*5A
$GPGSV,1,1,04,14,66,051,35,30,48,159,44,06,11,179,47,24,10,317,41,8*61
$GLGSV,2,1,08,84,66,146,29,74,65,003,25,73,48,095,40,83,33,035,31,1*7C
$GLGSV,2,2,08,75,19,314,32,85,17,192,47,65,11,308,34,72,07,257,46,1*70
$GAGSV,3,1,12,02,57,311,40,25,56,067,39,11,44,081,38,36,37,149,43,7*72
$GAGSV,3,2,12,10,29,051,36,08,28,269,43,03,18,216,45,07,11,319,36,7*75
$GAGSV,3,3,12,12,11,034,35,30,10,285,40,24,09,093,28,34,02,187,47,7*7C
$GAGSV,3,1,12,02,57,311,38,25,56,067,34,11,44,081,34,36,37,149,42,1*7B
$GAGSV,3,2,12,10,29,051,35,08,28,269,35,03,18,216,36,07,11,319,40,1*74
$GAGSV,3,3,12,12,11,034,33,30,10,285,36,24,09,093,31,34,02,187,50,1*73
$GBGSV,2,1,08,26,73,321,42,45,46,118,46,29,42,052,44,44,23,208,50,1*76
$GBGSV,2,2,08,24,21,307,41,12,02,210,18,14,01,280,,58,,,27,1*47
$GBGSV,2,1,05,26,73,321,35,45,46,118,48,29,42,052,41,44,23,208,45,5*70
$GBGSV,2,2,05,24,21,307,39,5*4C
freq change count =  1
freq change count =  2
freq change count =  3
freq change count =  4
freq change count =  5
freq change count =  6
freq change count =  7
freq change count =  8
freq change count =  9
$GNGGA,170642.000,4005.098464,N,10513.208010,W,2,54,0.43,1584.725,M,-20.670,M,,*7E
$GPGSV,3,1,11,22,69,345,38,14,66,051,37,30,48,159,45,48,39,209,46,1*69
$GPGSV,3,2,11,13,33,251,43,02,29,052,37,07,18,148,49,15,16,283,42,1*6E
$GPGSV,3,3,11,21,16,041,35,06,11,179,49,24,10,317,37,1*51
$GPGSV,1,1,04,14,66,051,35,30,48,159,44,06,11,179,47,24,10,317,41,8*61
$GLGSV,3,1,09,84,66,146,28,74,65,003,21,73,48,095,41,83,33,035,31,1*78
$GLGSV,3,2,09,75,19,314,34,85,17,192,47,65,11,308,35,72,07,257,45,1*74
$GLGSV,3,3,09,66,01,354,,1*42
$GAGSV,3,1,12,02,57,311,40,25,56,067,39,11,44,081,38,36,37,149,43,7*72
$GAGSV,3,2,12,10,29,051,36,08,28,269,43,03,18,216,45,07,11,319,37,7*74
$GAGSV,3,3,12,12,11,034,35,30,10,285,40,24,09,093,29,34,02,187,46,7*7C
$GAGSV,3,1,12,02,57,311,37,25,56,067,34,11,44,081,34,36,37,149,42,1*74
$GAGSV,3,2,12,10,29,051,35,08,28,269,35,03,18,216,36,07,11,319,40,1*74
$GAGSV,3,3,12,12,11,034,33,30,10,285,36,24,09,093,31,34,02,187,50,1*73
$GBGSV,2,1,08,26,73,321,42,45,46,118,46,29,42,052,44,44,23,208,50,1*76
$GBGSV,2,2,08,24,21,307,41,12,02,210,20,14,01,280,,58,,,26,1*4D
$GBGSV,2,1,05,26,73,321,35,45,46,118,48,29,42,052,41,44,23,208,45,5*70
$GBGSV,2,2,05,24,21,307,39,5*4C
$GNGGA,170647.000,4005.098464,N,10513.208124,W,2,54,0.43,1584.883,M,-20.669,M,,*76
$GPGSV,3,1,11,22,69,345,38,14,66,051,37,30,48,159,45,48,39,209,46,1*69
$GPGSV,3,2,11,13,33,251,43,02,29,052,37,07,18,148,49,15,16,283,42,1*6E
$GPGSV,3,3,11,21,16,041,36,06,11,179,49,24,10,317,37,1*52
$GPGSV,1,1,04,14,66,051,35,30,48,159,44,06,11,179,48,24,10,317,41,8*6E
$GLGSV,3,1,09,84,66,146,28,74,65,006,23,73,47,097,41,83,33,035,31,1*72
$GLGSV,3,2,09,75,20,314,34,85,17,192,47,65,11,308,36,72,06,256,45,1*7D
$GLGSV,3,3,09,66,01,354,,1*42
$GAGSV,3,1,12,02,57,311,40,25,56,067,39,11,44,081,38,36,37,149,43,7*72
$GAGSV,3,2,12,10,29,051,36,08,28,269,43,03,18,216,46,07,11,319,37,7*77
$GAGSV,3,3,12,12,11,034,36,30,10,285,41,24,09,093,30,34,02,187,44,7*74
$GAGSV,3,1,12,02,57,311,37,25,56,067,35,11,44,081,34,36,37,149,43,1*74
$GAGSV,3,2,12,10,29,051,36,08,28,269,35,03,18,216,36,07,11,319,40,1*77
$GAGSV,3,3,12,12,11,034,34,30,10,285,36,24,09,093,32,34,02,187,50,1*77
$GBGSV,2,1,08,26,73,321,42,45,46,118,46,29,42,052,45,44,23,208,50,1*77
$GBGSV,2,2,08,24,21,307,41,12,02,210,16,14,01,280,,58,,,27,1*49
$GBGSV,2,1,05,26,73,321,35,45,46,118,48,29,42,052,41,44,23,208,46,5*73
$GBGSV,2,2,05,24,21,307,40,5*42
$GNGGA,170652.000,4005.098470,N,10513.208166,W,2,54,0.43,1584.998,M,-20.670,M,,*72
$GPGSV,3,1,11,22,69,345,38,14,66,051,37,30,48,159,45,48,39,209,46,1*69
$GPGSV,3,2,11,13,33,251,43,02,29,052,37,07,18,148,49,15,16,283,42,1*6E
$GPGSV,3,3,11,21,16,041,36,06,11,179,49,24,10,317,36,1*53
$GPGSV,1,1,04,14,66,051,35,30,48,159,44,06,11,179,48,24,10,317,41,8*6E
$GLGSV,3,1,09,84,66,146,30,74,65,006,26,73,47,097,39,83,33,035,32,1*72
$GLGSV,3,2,09,75,20,314,31,85,17,192,47,65,11,308,36,72,06,256,45,1*78
$GLGSV,3,3,09,66,01,354,,1*42
$GAGSV,3,1,12,02,57,311,40,25,56,067,39,11,44,081,38,36,37,149,43,7*72
$GAGSV,3,2,12,10,29,051,36,08,28,269,43,03,18,216,46,07,11,319,37,7*77
$GAGSV,3,3,12,12,11,034,36,30,10,285,41,24,09,093,31,34,02,187,44,7*75
$GAGSV,3,1,12,02,57,311,37,25,56,067,35,11,44,081,34,36,37,149,42,1*75
$GAGSV,3,2,12,10,29,051,36,08,28,269,35,03,18,216,36,07,11,319,40,1*77
$GAGSV,3,3,12,12,11,034,34,30,10,285,36,24,09,093,31,34,02,187,49,1*7C
$GBGSV,2,1,08,26,73,321,42,45,46,118,46,29,42,052,46,44,23,208,50,1*74
$GBGSV,2,2,08,24,21,307,41,12,02,210,26,14,01,280,,58,,,27,1*4A
$GBGSV,2,1,05,26,73,321,35,45,46,118,48,29,42,052,41,44,23,208,46,5*73
$GBGSV,2,2,05,24,21,307,40,5*42
$GNGGA,170657.000,4005.098512,N,10513.208124,W,2,54,0.43,1585.060,M,-20.670,M,,*7B
$GPGSV,3,1,11,22,69,345,38,14,66,051,37,30,48,159,45,48,39,209,46,1*69
$GPGSV,3,2,11,13,33,251,43,02,29,052,35,07,18,148,49,15,16,283,42,1*6C
$GPGSV,3,3,11,21,16,041,37,06,11,179,49,24,10,317,36,1*52
$GPGSV,1,1,04,14,66,051,35,30,48,159,44,06,11,179,48,24,10,317,41,8*6E
$GLGSV,3,1,09,84,67,144,30,74,65,006,29,73,47,097,39,83,32,034,32,1*7E
$GLGSV,3,2,09,75,20,314,27,85,18,193,46,65,11,308,34,72,06,256,46,1*71
$GLGSV,3,3,09,66,01,354,,1*42
$GAGSV,3,1,12,02,57,311,40,25,56,067,38,11,44,081,38,36,37,149,43,7*73
$GAGSV,3,2,12,10,29,051,36,08,28,269,43,03,18,216,46,07,11,319,37,7*77
$GAGSV,3,3,12,12,11,034,36,30,10,285,41,24,09,093,32,34,02,187,44,7*76
$GAGSV,3,1,12,02,57,311,37,25,56,067,35,11,44,081,34,36,37,149,42,1*75
$GAGSV,3,2,12,10,29,051,36,08,28,269,35,03,18,216,36,07,11,319,40,1*77
$GAGSV,3,3,12,12,11,034,34,30,10,285,36,24,09,093,30,34,02,187,49,1*7D
$GBGSV,2,1,08,26,73,321,42,45,46,118,46,29,42,052,46,44,23,208,50,1*74
$GBGSV,2,2,08,24,21,307,39,12,02,210,17,14,01,280,,58,,,26,1*46
$GBGSV,2,1,05,26,73,321,35,45,46,118,48,29,42,052,41,44,23,208,46,5*73
$GBGSV,2,2,05,24,21,307,40,5*42
$GNGGA,170702.000,4005.098626,N,10513.208028,W,2,54,0.43,1585.085,M,-20.669,M,,*70
$GPGSV,3,1,11,22,69,345,38,14,66,051,36,30,48,159,45,48,39,209,46,1*68
$GPGSV,3,2,11,13,33,251,43,02,29,052,33,07,18,148,49,15,16,283,42,1*6A
$GPGSV,3,3,11,21,16,041,37,06,11,179,49,24,10,317,35,1*51
$GPGSV,1,1,04,14,66,051,35,30,48,159,44,06,11,179,48,24,10,317,41,8*6E
$GLGSV,3,1,09,84,67,144,29,74,65,006,30,73,47,097,40,83,32,034,32,1*70
$GLGSV,3,2,09,75,20,314,25,85,18,193,46,65,11,308,34,72,06,256,46,1*73
$GLGSV,3,3,09,66,01,354,,1*42
$GAGSV,3,1,12,02,57,311,40,25,56,067,38,11,44,081,38,36,37,149,43,7*73
$GAGSV,3,2,12,10,29,051,36,08,28,269,43,03,18,216,46,07,11,319,37,7*77
$GAGSV,3,3,12,12,11,034,36,30,10,285,41,24,09,093,31,34,02,187,43,7*72
$GAGSV,3,1,12,02,57,311,37,25,56,067,35,11,44,081,34,36,37,149,42,1*75
$GAGSV,3,2,12,10,29,051,36,08,28,269,35,03,18,216,36,07,11,319,40,1*77
$GAGSV,3,3,12,12,11,034,34,30,10,285,36,24,09,093,30,34,02,187,49,1*7D
$GBGSV,2,1,08,26,73,321,43,45,46,118,46,29,42,052,46,44,23,208,50,1*75
$GBGSV,2,2,08,24,21,307,39,12,02,210,15,14,01,280,,58,,,26,1*44
$GBGSV,2,1,05,26,73,321,35,45,46,118,48,29,42,052,41,44,23,208,46,5*73
$GBGSV,2,2,05,24,21,307,39,5*4C
$GNGGA,170707.000,4005.098710,N,10513.207926,W,2,54,0.43,1585.212,M,-20.669,M,,*75
$GPGSV,3,1,11,22,69,345,38,14,66,051,36,30,48,159,44,48,39,209,46,1*69
$GPGSV,3,2,11,13,33,251,42,02,29,052,31,07,18,148,49,15,16,283,43,1*68
$GPGSV,3,3,11,21,16,041,37,06,11,179,49,24,10,317,34,1*50
$GPGSV,1,1,04,14,66,051,35,30,48,159,44,06,11,179,48,24,10,317,41,8*6E
$GLGSV,3,1,09,84,67,144,30,74,65,006,31,73,47,097,40,83,32,034,32,1*79
$GLGSV,3,2,09,75,20,314,29,85,18,193,46,65,11,308,34,72,06,256,46,1*7F
$GLGSV,3,3,09,66,01,354,,1*42
$GAGSV,3,1,12,02,57,311,40,25,56,067,38,11,44,081,38,36,37,149,43,7*73
$GAGSV,3,2,12,10,29,051,36,08,28,269,43,03,18,216,46,07,11,319,37,7*77
$GAGSV,3,3,12,12,11,034,36,30,10,285,41,24,09,093,32,34,02,187,41,7*73
$GAGSV,3,1,12,02,57,311,36,25,56,067,35,11,44,081,34,36,37,149,42,1*74
$GAGSV,3,2,12,10,29,051,36,08,28,269,34,03,18,216,36,07,11,319,40,1*76
$GAGSV,3,3,12,12,11,034,34,30,10,285,36,24,09,093,28,34,02,187,49,1*74
$GBGSV,2,1,08,26,73,321,43,45,46,118,46,29,42,052,46,44,23,208,50,1*75
$GBGSV,2,2,08,24,21,307,40,12,02,210,16,14,01,280,,58,,,26,1*49
$GBGSV,2,1,05,26,73,321,35,45,46,118,48,29,42,052,41,44,23,208,46,5*73
$GBGSV,2,2,05,24,21,307,39,5*4C
$GNGGA,170712.000,4005.098776,N,10513.207806,W,2,54,0.43,1585.222,M,-20.669,M,,*71
$GPGSV,3,1,11,22,69,345,38,14,66,051,36,30,48,159,44,48,39,209,46,1*69
$GPGSV,3,2,11,13,33,251,42,02,29,052,31,07,18,148,49,15,16,283,43,1*68
$GPGSV,3,3,11,21,16,041,36,06,11,179,49,24,10,317,34,1*51
$GPGSV,1,1,04,14,66,051,35,30,48,159,44,06,11,179,48,24,10,317,40,8*6F
$GLGSV,3,1,09,84,67,144,30,74,65,006,30,73,47,097,40,83,32,034,31,1*7B
$GLGSV,3,2,09,75,20,314,29,85,18,193,46,65,11,308,35,72,06,256,46,1*7E
$GLGSV,3,3,09,66,01,354,,1*42
$GAGSV,3,1,12,02,57,311,40,25,56,067,38,11,44,081,38,36,37,149,43,7*73
$GAGSV,3,2,12,10,29,051,36,08,28,269,43,03,18,216,46,07,11,319,37,7*77
$GAGSV,3,3,12,12,11,034,36,30,10,285,41,24,09,093,32,34,02,187,40,7*72
$GAGSV,3,1,12,02,57,311,36,25,56,067,35,11,44,081,34,36,37,149,42,1*74
$GAGSV,3,2,12,10,29,051,36,08,28,269,34,03,18,216,36,07,11,319,40,1*76
$GAGSV,3,3,12,12,11,034,34,30,10,285,36,24,09,093,28,34,02,187,49,1*74
$GBGSV,2,1,08,26,73,321,43,45,46,118,45,29,42,052,46,44,23,208,50,1*76
$GBGSV,2,2,08,24,21,307,40,12,03,210,17,14,01,280,,58,,,26,1*49
$GBGSV,2,1,05,26,73,321,35,45,46,118,48,29,42,052,41,44,23,208,46,5*73
$GBGSV,2,2,05,24,21,307,39,5*4C
$GNGGA,170717.000,4005.098782,N,10513.207794,W,2,54,0.43,1585.228,M,-20.669,M,,*71
$GPGSV,3,1,11,22,69,345,38,14,66,051,36,30,48,159,44,48,39,209,46,1*69
$GPGSV,3,2,11,13,33,251,42,02,29,052,31,07,18,148,48,15,16,283,43,1*69
$GPGSV,3,3,11,21,16,041,35,06,11,179,49,24,10,317,33,1*55
$GPGSV,1,1,04,14,66,051,34,30,48,159,44,06,11,179,48,24,10,317,40,8*6E
$GLGSV,3,1,09,84,67,144,29,74,65,006,29,73,47,097,40,83,32,034,31,1*7B
$GLGSV,3,2,09,75,20,314,31,85,18,193,46,65,11,308,35,72,06,256,46,1*77
$GLGSV,3,3,09,66,01,354,,1*42
$GAGSV,3,1,12,02,57,311,40,25,56,067,38,11,44,081,38,36,37,149,43,7*73
$GAGSV,3,2,12,10,29,051,36,08,28,269,43,03,18,216,47,07,11,319,35,7*74
$GAGSV,3,3,12,12,11,034,36,30,10,285,41,24,09,093,31,34,02,187,41,7*70
$GAGSV,3,1,12,02,57,311,36,25,56,067,34,11,44,081,34,36,37,149,42,1*75
$GAGSV,3,2,12,10,29,051,37,08,28,269,34,03,18,216,36,07,11,319,40,1*77
$GAGSV,3,3,12,12,11,034,34,30,10,285,36,24,09,093,27,34,02,187,49,1*7B
$GBGSV,2,1,07,26,73,321,43,45,46,118,45,29,42,052,46,44,23,208,50,1*79
$GBGSV,2,2,07,24,21,307,40,12,03,210,17,58,,,26,1*78
$GBGSV,2,1,05,26,73,321,35,45,46,118,48,29,42,052,41,44,23,208,46,5*73
$GBGSV,2,2,05,24,21,307,39,5*4C
$GNGGA,170722.000,4005.098746,N,10513.207764,W,2,54,0.43,1585.179,M,-20.670,M,,*7F
$GPGSV,3,1,11,22,69,345,38,14,66,051,36,30,48,159,44,48,39,209,46,1*69
$GPGSV,3,2,11,13,33,251,42,02,29,052,32,07,18,148,48,15,16,283,43,1*6A
$GPGSV,3,3,11,21,16,041,34,06,11,179,49,24,10,317,32,1*55
$GPGSV,1,1,04,14,66,051,34,30,48,159,44,06,11,179,48,24,10,317,40,8*6E
$GLGSV,3,1,09,84,67,144,29,74,65,006,29,73,47,097,40,83,32,034,30,1*7A
$GLGSV,3,2,09,75,20,314,30,85,18,193,46,65,11,308,34,72,06,256,46,1*77
$GLGSV,3,3,09,66,01,354,,1*42
$GAGSV,3,1,12,02,57,311,40,25,56,067,37,11,44,081,38,36,37,149,43,7*7C
$GAGSV,3,2,12,10,29,051,36,08,28,269,43,03,18,216,47,07,11,319,33,7*72
$GAGSV,3,3,12,12,11,034,36,30,10,285,41,24,09,093,32,34,02,187,42,7*70
$GAGSV,3,1,12,02,57,311,36,25,56,067,34,11,44,081,34,36,37,149,43,1*74
$GAGSV,3,2,12,10,29,051,37,08,28,269,34,03,18,216,36,07,11,319,40,1*77
$GAGSV,3,3,12,12,11,034,35,30,10,285,36,24,09,093,28,34,02,187,49,1*75
$GBGSV,2,1,06,26,73,321,43,45,46,118,45,29,42,052,46,44,23,208,50,1*78
$GBGSV,2,2,06,24,21,307,41,12,03,210,23,1*76
$GBGSV,2,1,05,26,73,321,35,45,46,118,48,29,42,052,41,44,23,208,46,5*73
$GBGSV,2,2,05,24,21,307,39,5*4C
$GNGGA,170727.000,4005.098668,N,10513.207728,W,2,54,0.43,1585.107,M,-20.670,M,,*76
$GPGSV,3,1,11,22,69,345,38,14,66,051,36,30,48,159,44,48,39,209,46,1*69
$GPGSV,3,2,11,13,33,251,42,02,29,052,33,07,18,148,48,15,16,283,43,1*6B
$GPGSV,3,3,11,21,16,041,34,06,11,179,49,24,10,317,32,1*55
$GPGSV,1,1,04,14,66,051,34,30,48,159,44,06,11,179,49,24,10,317,40,8*6F
$GLGSV,3,1,09,84,67,144,29,74,65,006,29,73,47,097,40,83,32,034,30,1*7A
$GLGSV,3,2,09,75,20,314,31,85,18,193,46,65,11,308,35,72,06,256,46,1*77
$GLGSV,3,3,09,66,01,354,,1*42
$GAGSV,3,1,12,02,57,311,40,25,56,067,37,11,44,081,37,36,37,149,43,7*73
$GAGSV,3,2,12,10,29,051,36,08,28,269,43,03,18,216,47,07,11,319,32,7*73
$GAGSV,3,3,12,12,11,034,36,30,10,285,41,24,09,093,31,34,02,187,41,7*70
$GAGSV,3,1,12,02,57,311,36,25,56,067,34,11,44,081,34,36,37,149,43,1*74
$GAGSV,3,2,12,10,29,051,37,08,28,269,34,03,18,216,36,07,11,319,40,1*77
$GAGSV,3,3,12,12,11,034,35,30,10,285,36,24,09,093,26,34,02,187,48,1*7A
$GBGSV,2,1,06,26,74,321,41,45,46,118,45,29,42,052,46,44,23,208,50,1*7D
$GBGSV,2,2,06,24,22,307,41,12,03,210,26,1*70
$GBGSV,2,1,05,26,74,321,35,45,46,118,48,29,42,052,41,44,23,208,46,5*74
$GBGSV,2,2,05,24,22,307,39,5*4F
$GNGGA,170732.000,4005.098626,N,10513.207800,W,2,54,0.43,1584.951,M,-20.670,M,,*77
$GPGSV,3,1,11,22,69,345,38,14,66,051,36,30,48,159,44,48,39,209,46,1*69
$GPGSV,3,2,11,13,33,251,42,02,29,052,32,07,18,148,48,15,16,283,43,1*6A
$GPGSV,3,3,11,21,16,041,35,06,11,179,49,24,10,317,32,1*54
$GPGSV,1,1,04,14,66,051,34,30,48,159,44,06,11,179,49,24,10,317,39,8*61
$GLGSV,3,1,09,84,67,144,29,74,65,006,29,73,47,097,41,83,32,034,30,1*7B
$GLGSV,3,2,09,75,20,314,31,85,18,193,46,65,11,308,36,72,06,256,46,1*74
$GLGSV,3,3,09,66,01,354,,1*42
$GAGSV,3,1,12,02,57,311,40,25,56,067,37,11,44,081,37,36,37,149,43,7*73
$GAGSV,3,2,12,10,29,051,35,08,28,269,43,03,18,216,47,07,11,319,32,7*70
$GAGSV,3,3,12,12,11,034,36,30,10,285,41,24,09,093,31,34,02,187,38,7*7E
$GAGSV,3,1,12,02,57,311,36,25,56,067,34,11,44,081,34,36,37,149,43,1*74
$GAGSV,3,2,12,10,29,051,37,08,28,269,34,03,18,216,36,07,11,319,40,1*77
$GAGSV,3,3,12,12,11,034,35,30,10,285,36,24,09,093,26,34,02,187,48,1*7A
$GBGSV,2,1,06,26,74,321,41,45,46,118,45,29,41,051,46,44,23,208,49,1*75
$GBGSV,2,2,06,24,22,307,41,12,03,210,27,1*71
$GBGSV,2,1,05,26,74,321,35,45,46,118,48,29,41,051,41,44,23,208,46,5*74
$GBGSV,2,2,05,24,22,307,39,5*4F
$GNGGA,170737.000,4005.098614,N,10513.207956,W,2,53,0.43,1584.900,M,-20.670,M,,*72
$GPGSV,3,1,11,22,69,345,38,14,66,051,36,30,48,159,43,48,39,209,46,1*6E
$GPGSV,3,2,11,13,33,251,41,02,29,052,32,07,18,148,48,15,16,283,43,1*69
$GPGSV,3,3,11,21,16,041,35,06,11,179,49,24,10,317,32,1*54
$GPGSV,1,1,04,14,66,051,34,30,48,159,44,06,11,179,49,24,10,317,39,8*61
$GLGSV,3,1,09,84,67,144,29,74,65,006,29,73,47,097,41,83,32,034,30,1*7B
$GLGSV,3,2,09,75,20,314,30,85,18,193,46,65,11,308,35,72,06,256,46,1*76
$GLGSV,3,3,09,66,01,354,,1*42
$GAGSV,3,1,12,02,57,311,40,25,56,067,37,11,44,081,37,36,37,149,43,7*73
$GAGSV,3,2,12,10,29,051,35,08,28,269,43,03,18,216,47,07,11,319,34,7*76
$GAGSV,3,3,12,12,11,034,36,30,10,285,41,24,09,093,33,34,02,187,38,7*7C
$GAGSV,3,1,12,02,57,311,37,25,56,067,34,11,44,081,34,36,37,149,43,1*75
$GAGSV,3,2,12,10,29,051,38,08,28,269,34,03,18,216,37,07,11,319,40,1*79
$GAGSV,3,3,12,12,11,034,35,30,10,285,36,24,09,093,25,34,02,187,48,1*79
$GBGSV,2,1,06,26,74,321,41,45,46,118,44,29,41,051,46,44,23,208,49,1*74
$GBGSV,2,2,06,24,22,307,41,12,03,210,26,1*70
$GBGSV,2,1,05,26,74,321,35,45,46,118,48,29,41,051,41,44,23,208,46,5*74
$GBGSV,2,2,05,24,22,307,39,5*4F
$GNGGA,170742.000,4005.098602,N,10513.208142,W,2,54,0.43,1585.161,M,-20.670,M,,*7C
$GPGSV,3,1,11,22,69,345,37,14,66,051,36,30,48,159,43,48,39,209,46,1*61
$GPGSV,3,2,11,13,33,251,41,02,29,052,34,07,18,148,48,15,16,283,43,1*6F
$GPGSV,3,3,11,21,16,041,35,06,11,179,49,24,10,317,33,1*55
$GPGSV,1,1,04,14,66,051,34,30,48,159,44,06,11,179,49,24,10,317,39,8*61
$GLGSV,3,1,09,84,67,144,29,74,65,006,32,73,47,097,40,83,32,034,30,1*70
$GLGSV,3,2,09,75,20,314,28,85,18,193,46,65,11,308,35,72,06,256,46,1*7F
$GLGSV,3,3,09,66,01,354,,1*42
$GAGSV,3,1,12,02,57,311,40,25,56,067,37,11,44,081,37,36,37,149,43,7*73
$GAGSV,3,2,12,10,29,051,35,08,28,269,43,03,18,216,47,07,11,319,35,7*77
$GAGSV,3,3,12,12,11,034,36,30,10,285,41,24,09,093,33,34,02,187,38,7*7C
$GAGSV,3,1,12,02,57,311,37,25,56,067,34,11,44,081,34,36,37,149,43,1*75
$GAGSV,3,2,12,10,29,051,38,08,28,269,34,03,18,216,37,07,11,319,40,1*79
$GAGSV,3,3,12,12,11,034,35,30,10,285,36,24,09,093,25,34,02,187,48,1*79
$GBGSV,2,1,06,26,74,321,41,45,46,118,44,29,41,051,46,44,23,208,49,1*74
$GBGSV,2,2,06,24,22,307,40,12,03,210,25,1*72
$GBGSV,2,1,05,26,74,321,35,45,46,118,48,29,41,051,41,44,23,208,46,5*74
$GBGSV,2,2,05,24,22,307,39,5*4F
$GNGGA,170747.000,4005.098590,N,10513.208166,W,2,53,0.43,1585.497,M,-20.670,M,,*7C
$GPGSV,3,1,11,22,69,345,37,14,66,051,36,30,48,159,43,48,39,209,46,1*61
$GPGSV,3,2,11,13,33,251,41,02,29,052,35,07,18,148,47,15,16,283,43,1*61
$GPGSV,3,3,11,21,16,041,35,06,11,179,49,24,10,317,34,1*52
$GPGSV,1,1,04,14,66,051,34,30,48,159,44,06,11,179,49,24,10,317,39,8*61
$GLGSV,3,1,09,84,67,144,27,74,65,006,32,73,47,097,39,83,32,034,30,1*70
$GLGSV,3,2,09,75,20,314,27,85,18,193,46,65,11,308,34,72,06,256,47,1*70
$GLGSV,3,3,09,66,01,354,,1*42
$GAGSV,3,1,12,02,57,311,40,25,56,067,37,11,44,081,37,36,37,149,43,7*73
$GAGSV,3,2,12,10,29,051,35,08,28,269,43,03,18,216,47,07,11,319,35,7*77
$GAGSV,3,3,12,12,11,034,36,30,10,285,41,24,09,093,33,34,02,187,39,7*7D
$GAGSV,3,1,12,02,57,311,36,25,56,067,34,11,44,081,34,36,37,149,43,1*74
$GAGSV,3,2,12,10,29,051,38,08,28,269,34,03,18,216,38,07,11,319,40,1*76
$GAGSV,3,3,12,12,11,034,35,30,10,285,36,24,09,093,25,34,02,187,48,1*79
$GBGSV,2,1,06,26,74,321,42,45,46,119,44,29,41,051,46,44,24,209,49,1*70
$GBGSV,2,2,06,24,22,307,40,12,03,210,26,1*71
$GBGSV,2,1,05,26,74,321,35,45,46,119,48,29,41,051,40,44,24,209,46,5*72
$GBGSV,2,2,05,24,22,307,39,5*4F
$GNGGA,170752.000,4005.098608,N,10513.208106,W,2,53,0.43,1585.615,M,-20.670,M,,*74
$GPGSV,3,1,11,22,69,345,37,14,66,051,36,30,48,159,43,48,39,209,46,1*61
$GPGSV,3,2,11,13,33,251,41,02,29,052,35,07,18,148,47,15,16,283,43,1*61
$GPGSV,3,3,11,21,16,041,35,06,11,179,49,24,10,317,34,1*52
$GPGSV,1,1,04,14,66,051,34,30,48,159,44,06,11,179,49,24,10,317,39,8*61
$GLGSV,3,1,09,84,67,144,28,74,65,006,31,73,47,097,40,83,32,034,28,1*7B
$GLGSV,3,2,09,75,20,314,27,85,18,193,46,65,11,308,36,72,06,256,47,1*72
$GLGSV,3,3,09,66,01,354,,1*42
$GAGSV,3,1,12,02,57,311,40,25,56,067,36,11,44,081,37,36,37,149,43,7*72
$GAGSV,3,2,12,10,29,051,35,08,28,269,43,03,18,216,47,07,11,319,35,7*77
$GAGSV,3,3,12,12,11,034,36,30,10,285,41,24,09,093,33,34,02,187,39,7*7D
$GAGSV,3,1,12,02,57,311,36,25,56,067,35,11,44,081,34,36,37,149,43,1*75
$GAGSV,3,2,12,10,29,051,38,08,28,269,34,03,18,216,38,07,11,319,40,1*76
$GAGSV,3,3,12,12,11,034,35,30,10,285,36,24,09,093,23,34,02,187,48,1*7F
$GBGSV,2,1,06,26,74,321,42,45,46,119,43,29,41,051,46,44,24,209,49,1*77
$GBGSV,2,2,06,24,22,307,40,12,03,210,27,1*70
$GBGSV,2,1,05,26,74,321,35,45,46,119,48,29,41,051,40,44,24,209,46,5*72
$GBGSV,2,2,05,24,22,307,39,5*4F
$GNGGA,170757.000,4005.098614,N,10513.208016,W,2,53,0.43,1585.638,M,-20.670,M,,*73
$GPGSV,3,1,11,22,69,345,37,14,66,051,37,30,48,159,42,48,39,209,46,1*61
$GPGSV,3,2,11,13,33,251,41,02,29,052,35,07,18,148,47,15,16,283,43,1*61
$GPGSV,3,3,11,21,16,041,35,06,11,179,49,24,10,317,34,1*52
$GPGSV,1,1,04,14,66,051,34,30,48,159,44,06,11,179,49,24,10,317,38,8*60
$GLGSV,3,1,09,84,67,144,28,74,65,006,32,73,47,097,40,83,32,034,28,1*78
$GLGSV,3,2,09,75,20,314,26,85,18,193,47,65,11,308,36,72,06,256,47,1*72
$GLGSV,3,3,09,66,01,354,,1*42
$GAGSV,3,1,12,02,57,311,40,25,56,067,36,11,44,081,37,36,37,149,43,7*72
$GAGSV,3,2,12,10,29,051,35,08,28,269,43,03,18,216,47,07,11,319,34,7*76
$GAGSV,3,3,12,12,11,034,36,30,10,285,41,24,09,093,33,34,02,187,27,7*72
$GAGSV,3,1,12,02,57,311,36,25,56,067,35,11,44,081,34,36,37,149,43,1*75
$GAGSV,3,2,12,10,29,051,38,08,28,269,34,03,18,216,38,07,11,319,39,1*78
$GAGSV,3,3,12,12,11,034,35,30,10,285,34,24,09,093,24,34,02,187,48,1*7A
$GBGSV,2,1,06,26,74,321,43,45,46,119,43,29,41,051,46,44,24,209,48,1*77
$GBGSV,2,2,06,24,22,307,40,12,03,210,27,1*70
$GBGSV,2,1,05,26,74,321,34,45,46,119,48,29,41,051,40,44,24,209,45,5*70
$GBGSV,2,2,05,24,22,307,39,5*4F
$GNGGA,170802.000,4005.098620,N,10513.207890,W,2,53,0.43,1585.548,M,-20.670,M,,*76
$GPGSV,3,1,11,22,69,345,37,14,66,051,37,30,48,159,42,48,39,209,46,1*61
$GPGSV,3,2,11,13,33,251,41,02,29,052,35,07,18,148,47,15,16,283,43,1*61
$GPGSV,3,3,11,21,16,041,37,06,11,179,49,24,10,317,34,1*50
$GPGSV,1,1,04,14,66,051,34,30,48,159,44,06,11,179,49,24,10,317,38,8*60
$GLGSV,3,1,09,84,67,144,28,74,65,006,31,73,47,097,40,83,32,034,28,1*7B
$GLGSV,3,2,09,75,20,314,27,85,18,193,47,65,11,308,36,72,06,256,47,1*73
$GLGSV,3,3,09,66,01,354,,1*42
$GAGSV,3,1,12,02,57,311,40,25,56,067,36,11,44,081,37,36,37,149,43,7*72
$GAGSV,3,2,12,10,29,051,35,08,28,269,44,03,18,216,47,07,11,319,34,7*71
$GAGSV,3,3,12,12,11,034,36,30,10,285,40,24,09,093,34,34,02,187,33,7*71
$GAGSV,3,1,12,02,57,311,36,25,56,067,35,11,44,081,34,36,37,149,43,1*75
$GAGSV,3,2,12,10,29,051,38,08,28,269,34,03,18,216,38,07,11,319,39,1*78
$GAGSV,3,3,12,12,11,034,35,30,10,285,35,24,09,093,24,34,02,187,48,1*7B
$GBGSV,2,1,06,26,74,321,43,45,46,119,42,29,41,051,46,44,24,209,48,1*76
$GBGSV,2,2,06,24,22,307,39,12,03,210,28,1*71
$GBGSV,2,1,05,26,74,321,34,45,46,119,48,29,41,051,40,44,24,209,45,5*70
$GBGSV,2,2,05,24,22,307,39,5*4F
$GNGGA,170807.000,4005.098638,N,10513.207818,W,2,54,0.43,1585.271,M,-20.669,M,,*78
$GPGSV,3,1,11,22,69,345,38,14,66,051,37,30,48,159,41,48,39,209,46,1*6D
$GPGSV,3,2,11,13,33,251,41,02,28,051,35,07,18,148,47,15,16,283,43,1*63
$GPGSV,3,3,11,21,16,041,38,06,11,179,49,24,10,317,34,1*5F
$GPGSV,1,1,04,14,66,051,34,30,48,159,44,06,11,179,50,24,10,317,37,8*67
$GLGSV,3,1,09,84,67,144,28,74,65,006,32,73,47,097,40,83,32,034,26,1*76
$GLGSV,3,2,09,75,20,314,26,85,18,193,47,65,11,308,35,72,06,256,47,1*71
$GLGSV,3,3,09,66,01,354,,1*42
$GAGSV,3,1,12,02,57,311,40,25,56,067,36,11,44,081,37,36,37,149,43,7*72
$GAGSV,3,2,12,10,29,051,33,08,28,269,44,03,18,216,47,07,11,319,34,7*77
$GAGSV,3,3,12,12,11,034,36,30,10,285,40,24,09,093,34,34,02,187,37,7*75
$GAGSV,3,1,12,02,57,311,36,25,56,067,34,11,44,081,34,36,37,149,44,1*73
$GAGSV,3,2,12,10,29,051,38,08,28,269,34,03,18,216,39,07,11,319,38,1*78
$GAGSV,3,3,12,12,11,034,33,30,10,285,35,24,09,093,25,34,02,187,47,1*73
$GBGSV,2,1,06,26,74,321,43,45,46,119,41,29,41,051,46,44,24,209,48,1*75
$GBGSV,2,2,06,24,22,307,39,12,03,210,30,1*78
$GBGSV,2,1,05,26,74,321,34,45,46,119,48,29,41,051,40,44,24,209,45,5*70
$GBGSV,2,2,05,24,22,307,39,5*4F
$GNGGA,170812.000,4005.098662,N,10513.207800,W,2,53,0.43,1585.158,M,-20.670,M,,*7D
$GPGSV,3,1,11,22,69,345,38,14,66,051,37,30,48,159,41,48,39,209,46,1*6D
$GPGSV,3,2,11,13,33,251,41,02,28,051,35,07,16,148,46,15,16,283,43,1*6C
$GPGSV,3,3,11,21,16,041,38,06,12,179,49,24,10,317,34,1*5C
$GPGSV,1,1,04,14,66,051,34,30,48,159,44,06,12,179,50,24,10,317,37,8*64
$GLGSV,3,1,09,84,67,144,27,74,65,006,32,73,47,097,41,83,32,034,26,1*78
$GLGSV,3,2,09,75,20,314,27,85,18,193,48,65,11,308,34,72,06,256,47,1*7E
$GLGSV,3,3,09,66,01,354,,1*42
$GAGSV,3,1,12,02,57,311,40,25,56,067,36,11,44,081,37,36,37,149,43,7*72
$GAGSV,3,2,12,10,29,051,33,08,28,269,44,03,18,216,47,07,11,319,34,7*77
$GAGSV,3,3,12,12,11,034,36,30,10,285,40,24,09,093,36,34,02,187,37,7*77
$GAGSV,3,1,12,02,57,311,36,25,56,067,34,11,44,081,34,36,37,149,44,1*73
$GAGSV,3,2,12,10,29,051,38,08,28,269,34,03,18,216,39,07,11,319,38,1*78
$GAGSV,3,3,12,12,11,034,33,30,10,285,35,24,09,093,25,34,02,187,47,1*73
$GBGSV,2,1,06,26,74,321,43,45,46,119,41,29,41,051,46,44,24,209,47,1*7A
$GBGSV,2,2,06,24,22,307,38,12,03,210,31,1*78
$GBGSV,2,1,05,26,74,321,34,45,46,119,48,29,41,051,40,44,24,209,45,5*70
$GBGSV,2,2,05,24,22,307,39,5*4F
$GNGGA,170817.000,4005.098692,N,10513.207824,W,2,53,0.43,1585.106,M,-20.670,M,,*7A
$GPGSV,3,1,11,22,69,345,38,14,66,054,37,30,48,159,41,48,39,209,46,1*68
$GPGSV,3,2,11,13,32,250,41,02,28,051,35,07,16,148,46,15,16,283,43,1*6C
$GPGSV,3,3,11,21,16,041,39,06,12,179,49,24,10,317,34,1*5D
$GPGSV,1,1,04,14,66,054,34,30,48,159,44,06,12,179,50,24,10,317,37,8*61
$GLGSV,3,1,09,84,67,144,27,74,65,006,31,73,47,097,41,83,32,034,23,1*7E
$GLGSV,3,2,09,75,20,314,28,85,18,193,48,65,11,308,34,72,06,256,47,1*71
$GLGSV,3,3,09,66,01,354,,1*42
$GAGSV,3,1,12,02,57,311,40,25,56,067,36,11,44,081,37,36,37,149,43,7*72
$GAGSV,3,2,12,10,29,051,32,08,28,269,44,03,18,216,47,07,11,319,32,7*70
$GAGSV,3,3,12,12,11,034,36,30,10,285,40,24,09,093,36,34,02,187,36,7*76
$GAGSV,3,1,12,02,57,311,36,25,56,067,34,11,44,081,34,36,37,149,44,1*73
$GAGSV,3,2,12,10,29,051,38,08,28,269,34,03,18,216,39,07,11,319,38,1*78
$GAGSV,3,3,12,12,11,034,33,30,10,285,34,24,09,093,25,34,02,187,46,1*73
$GBGSV,2,1,06,26,74,321,43,45,46,119,41,29,41,051,46,44,24,209,47,1*7A
$GBGSV,2,2,06,24,22,307,37,12,03,210,31,1*77
$GBGSV,2,1,05,26,74,321,33,45,46,119,48,29,41,051,39,44,24,209,45,5*79
$GBGSV,2,2,05,24,22,307,38,5*4E
$GNGGA,170822.000,4005.098746,N,10513.207926,W,2,54,0.43,1585.104,M,-20.670,M,,*72
$GPGSV,3,1,11,22,69,345,38,14,66,054,37,30,48,159,41,48,39,209,46,1*68
$GPGSV,3,2,11,13,32,250,41,02,28,051,34,07,16,148,45,15,16,282,43,1*6F
$GPGSV,3,3,11,21,16,041,40,06,12,179,49,24,10,317,34,1*53
$GPGSV,1,1,04,14,66,054,35,30,48,159,45,06,12,179,50,24,10,317,37,8*61
$GLGSV,3,1,09,84,67,144,28,74,65,006,31,73,47,097,41,83,32,034,23,1*71
$GLGSV,3,2,09,75,20,314,31,85,18,193,48,65,11,308,34,72,06,256,47,1*79
$GLGSV,3,3,09,66,01,354,,1*42
$GAGSV,3,1,12,02,57,311,40,25,56,067,36,11,44,081,37,36,37,149,43,7*72
$GAGSV,3,2,12,10,29,051,31,08,28,269,44,03,18,216,47,07,11,319,33,7*72
$GAGSV,3,3,12,12,11,034,36,30,10,285,40,24,09,093,37,34,02,187,38,7*79
$GAGSV,3,1,12,02,57,311,36,25,56,067,35,11,44,081,34,36,37,149,44,1*72
$GAGSV,3,2,12,10,29,051,38,08,28,269,34,03,18,216,40,07,11,319,37,1*79
$GAGSV,3,3,12,12,11,034,33,30,10,285,34,24,09,093,24,34,02,187,46,1*72
$GBGSV,2,1,06,26,74,321,43,45,46,119,40,29,41,051,46,44,24,209,47,1*7B
$GBGSV,2,2,06,24,22,307,37,12,03,210,28,1*7F
$GBGSV,2,1,05,26,74,321,33,45,46,119,48,29,41,051,39,44,24,209,45,5*79
$GBGSV,2,2,05,24,22,307,38,5*4E
$GNGGA,170827.000,4005.098782,N,10513.207962,W,2,54,0.43,1585.081,M,-20.669,M,,*7B
$GPGSV,3,1,11,22,70,348,38,14,66,054,37,30,48,159,41,48,39,209,46,1*6D
$GPGSV,3,2,11,13,32,250,41,02,28,051,34,15,16,282,43,07,16,148,45,1*6F
$GPGSV,3,3,11,21,15,040,40,06,12,179,49,24,12,317,34,1*53
$GPGSV,1,1,04,14,66,054,35,30,48,159,45,24,12,317,36,06,12,179,50,8*62
$GLGSV,3,1,09,84,67,144,27,74,65,006,30,73,47,097,40,83,32,034,24,1*79
$GLGSV,3,2,09,75,20,314,33,85,18,193,49,65,11,308,35,72,06,256,47,1*7B
$GLGSV,3,3,09,66,01,354,,1*42
$GAGSV,3,1,12,02,57,311,40,25,56,067,36,11,44,081,38,36,37,149,43,7*7D
$GAGSV,3,2,12,10,29,051,30,08,28,269,44,03,18,216,48,07,11,319,34,7*7B
$GAGSV,3,3,12,12,11,034,36,30,10,285,40,24,09,093,37,34,02,187,37,7*76
$GAGSV,3,1,12,02,57,311,36,25,56,067,35,11,44,081,34,36,37,149,44,1*72
$GAGSV,3,2,12,10,29,051,38,08,28,269,34,03,18,216,40,07,11,319,37,1*79
$GAGSV,3,3,12,12,11,034,33,30,10,285,34,24,09,093,16,34,02,187,46,1*73
$GBGSV,2,1,06,26,74,321,42,45,46,119,40,29,41,051,46,44,24,209,47,1*7A
$GBGSV,2,2,06,24,22,307,37,12,03,210,26,1*71
$GBGSV,2,1,05,26,74,321,33,45,46,119,48,29,41,051,39,44,24,209,45,5*79
$GBGSV,2,2,05,24,22,307,38,5*4E
$GNGGA,170832.000,4005.098788,N,10513.207944,W,2,54,0.43,1585.170,M,-20.669,M,,*7E
$GPGSV,3,1,11,22,70,348,38,14,66,054,37,30,48,159,42,48,39,209,46,1*6E
$GPGSV,3,2,11,13,32,250,41,02,28,051,35,15,16,282,43,07,16,148,45,1*6E
$GPGSV,3,3,11,21,15,040,40,06,12,179,49,24,12,317,34,1*53
$GPGSV,1,1,04,14,66,054,35,30,48,159,45,24,12,317,36,06,12,179,50,8*62
$GLGSV,3,1,09,84,67,144,28,74,65,006,30,73,47,097,39,83,32,034,24,1*78
$GLGSV,3,2,09,75,20,314,33,85,18,193,49,65,11,308,37,72,06,256,47,1*79
$GLGSV,3,3,09,66,01,354,,1*42
$GAGSV,3,1,12,02,57,311,40,25,56,067,36,11,44,081,38,36,37,149,43,7*7D
$GAGSV,3,2,12,10,29,051,29,08,28,269,44,03,18,216,48,07,11,319,34,7*73
$GAGSV,3,3,12,12,11,034,36,30,10,285,40,24,09,093,37,34,02,187,36,7*77
$GAGSV,3,1,12,02,57,311,36,25,56,067,34,11,44,081,34,36,37,149,44,1*73
$GAGSV,3,2,12,10,29,051,37,08,28,269,34,03,18,216,40,07,11,319,36,1*77
$GAGSV,3,3,12,12,11,034,33,30,10,285,34,24,09,093,17,34,02,187,45,1*71
$GBGSV,2,1,06,26,74,321,41,45,46,119,40,29,41,051,46,44,24,209,47,1*79
$GBGSV,2,2,06,24,22,307,37,12,03,210,27,1*70
$GBGSV,2,1,05,26,74,321,33,45,46,119,48,29,41,051,38,44,24,209,45,5*78
$GBGSV,2,2,05,24,22,307,38,5*4E
$GNGGA,170837.000,4005.098770,N,10513.207830,W,2,53,0.43,1585.106,M,-20.670,M,,*70
$GPGSV,3,1,11,22,70,348,38,14,66,054,37,30,47,159,42,48,39,209,46,1*61
$GPGSV,3,2,11,13,32,250,41,02,28,051,36,15,16,282,43,07,16,148,44,1*6C
$GPGSV,3,3,11,21,15,040,40,06,12,179,49,24,12,317,34,1*53
$GPGSV,1,1,04,14,66,054,35,30,47,159,45,06,12,179,50,24,12,317,35,8*6E
$GLGSV,3,1,09,84,67,144,28,74,65,006,31,73,47,097,40,83,32,034,24,1*77
$GLGSV,3,2,09,75,20,314,33,85,18,193,49,65,11,308,35,72,06,256,48,1*74
$GLGSV,3,3,09,66,01,354,,1*42
$GAGSV,3,1,12,02,57,311,40,25,56,067,36,11,44,081,38,36,37,149,43,7*7D
$GAGSV,3,2,12,10,29,051,27,08,28,269,44,03,18,216,48,07,11,319,35,7*7C
$GAGSV,3,3,12,12,11,034,36,30,10,285,40,24,09,093,37,34,02,187,36,7*77
$GAGSV,3,1,11,02,57,311,36,25,56,067,34,11,44,081,34,36,37,149,44,1*70
$GAGSV,3,2,11,10,29,051,37,08,28,269,33,03,18,216,40,12,11,034,32,1*7F
$GAGSV,3,3,11,07,11,319,36,30,10,285,33,34,02,187,45,1*4B
$GBGSV,2,1,06,26,74,321,41,45,46,119,40,29,41,051,46,44,24,209,47,1*79
$GBGSV,2,2,06,24,22,307,37,12,03,210,27,1*70
$GBGSV,2,1,05,26,74,321,33,45,46,119,48,29,41,051,38,44,24,209,44,5*79
$GBGSV,2,2,05,24,22,307,38,5*4E
$GNGGA,170842.000,4005.098758,N,10513.207800,W,2,53,0.43,1584.963,M,-20.670,M,,*71
$GPGSV,3,1,11,22,70,348,38,14,66,054,37,30,47,159,42,48,39,209,46,1*61
$GPGSV,3,2,11,13,32,250,41,02,28,051,37,15,16,282,44,07,16,148,44,1*6A
$GPGSV,3,3,11,21,15,040,40,06,12,179,49,24,12,317,34,1*53
$GPGSV,1,1,04,14,66,054,35,30,47,159,45,06,12,179,50,24,12,317,36,8*6D
$GLGSV,3,1,09,84,67,144,28,74,65,006,32,73,47,097,41,83,32,034,24,1*75
$GLGSV,3,2,09,75,20,314,34,85,18,193,49,65,11,308,35,72,06,256,47,1*7C
$GLGSV,3,3,09,66,01,354,,1*42
$GAGSV,3,1,12,02,57,311,40,25,56,067,36,11,44,081,38,36,37,149,43,7*7D
$GAGSV,3,2,12,10,29,051,26,08,28,269,44,03,18,216,48,07,11,319,36,7*7E
$GAGSV,3,3,12,12,11,034,36,30,10,285,39,24,09,093,37,34,02,187,41,7*79
$GAGSV,3,1,11,02,57,311,36,25,56,067,34,11,44,081,34,36,37,149,44,1*70
$GAGSV,3,2,11,10,29,051,38,08,28,269,33,03,18,216,40,12,11,034,32,1*70
$GAGSV,3,3,11,07,11,319,35,30,10,285,33,34,02,187,45,1*48
$GBGSV,2,1,06,26,74,321,42,45,46,119,40,29,41,051,46,44,24,209,47,1*7A
$GBGSV,2,2,06,24,22,307,37,12,03,210,26,1*71
$GBGSV,2,1,05,26,74,321,33,45,46,119,48,29,41,051,38,44,24,209,44,5*79
$GBGSV,2,2,05,24,22,307,38,5*4E
$GNGGA,170847.000,4005.098752,N,10513.207836,W,2,53,0.43,1584.516,M,-20.669,M,,*7D
$GPGSV,3,1,11,22,70,348,38,14,66,054,38,30,47,159,42,48,39,209,46,1*6E
$GPGSV,3,2,11,13,32,250,42,02,28,051,38,15,16,282,44,07,16,148,44,1*66
$GPGSV,3,3,11,21,15,040,40,06,12,179,49,24,12,317,34,1*53
$GPGSV,1,1,04,14,66,054,35,30,47,159,45,06,12,179,50,24,12,317,33,8*68
$GLGSV,3,1,09,84,67,144,28,74,65,006,31,73,47,097,41,83,32,034,24,1*76
$GLGSV,3,2,09,75,20,314,33,85,18,193,49,65,11,308,36,72,06,256,47,1*78
$GLGSV,3,3,09,66,01,354,,1*42
$GAGSV,3,1,12,02,58,312,40,25,56,067,36,11,44,081,38,36,37,149,43,7*71
$GAGSV,3,2,12,10,29,051,26,08,28,269,44,03,17,216,48,07,11,319,35,7*72
$GAGSV,3,3,12,12,11,034,36,30,10,285,39,24,09,093,37,34,02,187,42,7*7A
$GAGSV,3,1,11,02,58,312,36,25,56,067,34,11,44,081,33,36,37,149,44,1*7B
$GAGSV,3,2,11,10,29,051,38,08,28,269,33,03,17,216,40,12,11,034,32,1*7F
$GAGSV,3,3,11,07,11,319,33,30,10,285,32,34,02,187,45,1*4F
$GBGSV,2,1,06,26,74,321,42,45,46,119,40,29,41,051,46,44,24,209,47,1*7A
$GBGSV,2,2,06,24,22,307,35,12,03,210,28,1*7D
$GBGSV,2,1,05,26,74,321,33,45,46,119,48,29,41,051,37,44,24,209,43,5*71
$GBGSV,2,2,05,24,22,307,37,5*41
$GNGGA,170852.000,4005.098728,N,10513.207836,W,2,53,0.43,1584.092,M,-20.670,M,,*75
$GPGSV,3,1,11,22,70,348,38,14,66,054,38,30,47,159,41,48,39,209,46,1*6D
$GPGSV,3,2,11,13,32,250,42,02,28,051,39,15,16,282,44,07,16,148,44,1*67
$GPGSV,3,3,11,21,15,040,40,06,12,179,49,24,12,317,33,1*54
$GPGSV,1,1,04,14,66,054,35,30,47,159,45,06,12,179,50,24,12,317,32,8*69
$GLGSV,3,1,09,84,67,144,28,74,65,006,32,73,47,097,41,83,32,034,24,1*75
$GLGSV,3,2,09,75,20,314,32,85,18,193,49,65,11,308,36,72,06,256,47,1*79
$GLGSV,3,3,09,66,01,354,,1*42
$GAGSV,3,1,12,02,58,312,40,25,56,067,36,11,44,081,38,36,37,149,43,7*71
$GAGSV,3,2,12,08,28,268,44,10,28,050,27,03,17,216,48,07,11,319,35,7*72
$GAGSV,3,3,12,12,11,034,36,30,10,285,39,24,09,093,38,34,02,187,41,7*76
$GAGSV,3,1,11,02,58,312,36,25,56,067,34,11,44,081,33,36,37,149,44,1*7B
$GAGSV,3,2,11,10,28,050,38,08,28,268,33,03,17,216,41,12,11,034,32,1*7F
$GAGSV,3,3,11,07,11,319,33,30,10,285,32,34,02,187,45,1*4F
$GBGSV,2,1,06,26,74,321,43,45,46,119,39,29,41,051,46,44,24,209,47,1*75
$GBGSV,2,2,06,24,22,307,35,12,03,210,31,1*75
$GBGSV,2,1,05,26,74,321,33,45,46,119,48,29,41,051,37,44,24,209,43,5*71
$GBGSV,2,2,05,24,22,307,37,5*41
$GNGGA,170857.000,4005.098716,N,10513.207800,W,2,53,0.43,1583.864,M,-20.670,M,,*7E
$GPGSV,3,1,11,22,70,348,38,14,66,054,38,30,47,159,41,48,39,209,46,1*6D
$GPGSV,3,2,11,13,32,250,42,02,28,051,38,15,16,282,44,07,16,148,44,1*66
$GPGSV,3,3,11,21,15,040,40,06,12,179,48,24,12,317,33,1*55
$GPGSV,1,1,04,14,66,054,34,30,47,159,46,06,12,179,50,24,12,317,32,8*6B
$GLGSV,3,1,09,84,67,144,28,74,65,006,32,73,47,097,40,83,32,034,23,1*73
$GLGSV,3,2,09,75,20,314,34,85,18,193,49,65,11,308,37,72,06,256,47,1*7E
$GLGSV,3,3,09,66,01,354,,1*42
$GAGSV,3,1,12,02,58,312,40,25,56,067,36,11,44,079,38,36,37,149,43,7*76
$GAGSV,3,2,12,08,28,268,44,10,28,050,26,03,17,216,48,07,11,319,35,7*73
$GAGSV,3,3,12,12,11,033,36,30,10,285,39,24,09,093,38,34,02,187,41,7*71
$GAGSV,3,1,11,02,58,312,36,25,56,067,35,11,44,079,33,36,37,149,44,1*7D
$GAGSV,3,2,11,10,28,050,38,08,28,268,33,03,17,216,41,12,11,033,32,1*78
$GAGSV,3,3,11,07,11,319,34,30,10,285,33,34,02,187,44,1*48
$GBGSV,2,1,06,26,74,321,43,45,46,119,37,29,41,051,46,44,24,209,47,1*7B
$GBGSV,2,2,06,24,22,307,36,12,03,210,33,1*74
$GBGSV,2,1,05,26,74,321,33,45,46,119,48,29,41,051,37,44,24,209,43,5*71
$GBGSV,2,2,05,24,22,307,37,5*41
$GNGGA,170902.000,4005.098662,N,10513.207794,W,2,53,0.43,1583.831,M,-20.669,M,,*77
$GPGSV,3,1,11,22,70,348,38,14,66,054,39,30,47,159,41,48,39,209,46,1*6C
$GPGSV,3,2,11,13,32,250,42,02,28,051,38,15,16,282,44,07,16,148,44,1*66
$GPGSV,3,3,11,21,15,040,40,06,12,179,48,24,12,317,33,1*55
$GPGSV,1,1,04,14,66,054,34,30,47,159,46,06,12,179,50,24,12,317,32,8*6B
$GLGSV,3,1,09,84,67,144,28,74,65,006,31,73,47,097,40,83,32,034,21,1*72
$GLGSV,3,2,09,75,20,314,34,85,18,193,49,65,11,308,37,72,06,256,47,1*7E
$GLGSV,3,3,09,66,01,354,,1*42
$GAGSV,3,1,12,02,58,312,40,25,56,067,36,11,44,079,38,36,37,149,43,7*76
$GAGSV,3,2,12,08,28,268,44,10,28,050,27,03,17,216,48,07,11,319,34,7*73
$GAGSV,3,3,12,12,11,033,36,30,10,285,39,24,09,093,38,34,02,187,42,7*72
$GAGSV,3,1,11,02,58,312,36,25,56,067,35,11,44,079,33,36,37,149,44,1*7D
$GAGSV,3,2,11,10,28,050,38,08,28,268,33,03,17,216,41,12,11,033,32,1*78
$GAGSV,3,3,11,07,11,319,34,30,10,285,33,34,02,187,43,1*4F
$GBGSV,2,1,06,26,74,321,43,45,46,119,35,29,41,051,46,44,24,209,47,1*79
$GBGSV,2,2,06,24,22,307,36,12,03,210,32,1*75
$GBGSV,2,1,05,26,74,321,33,45,46,119,48,29,41,051,37,44,24,209,43,5*71
$GBGSV,2,2,05,24,22,307,37,5*41
$GNGGA,170907.000,4005.098596,N,10513.207902,W,2,53,0.43,1583.936,M,-20.670,M,,*75
$GPGSV,3,1,11,22,70,348,38,14,66,054,39,30,47,159,41,48,39,209,46,1*6C
$GPGSV,3,2,11,13,32,250,42,02,28,051,38,15,16,282,44,07,16,148,43,1*61
$GPGSV,3,3,11,21,15,040,41,06,12,179,47,24,12,317,33,1*5B
$GPGSV,1,1,04,14,66,054,34,30,47,159,46,06,12,179,50,24,12,317,32,8*6B
$GLGSV,3,1,09,84,67,144,27,74,65,006,30,73,47,097,40,83,32,034,18,1*76
$GLGSV,3,2,09,75,20,314,34,85,18,193,50,65,11,308,37,72,06,256,47,1*76
$GLGSV,3,3,09,66,01,354,,1*42
$GAGSV,3,1,12,02,58,312,40,25,56,069,36,11,44,079,38,36,37,149,43,7*78
$GAGSV,3,2,12,08,28,268,44,10,28,050,28,03,17,216,48,07,11,319,34,7*7C
$GAGSV,3,3,12,12,11,033,36,30,10,285,38,24,08,094,38,34,02,187,43,7*74
$GAGSV,3,1,11,02,58,312,36,25,56,069,35,11,44,079,33,36,37,149,45,1*72
$GAGSV,3,2,11,10,28,050,38,08,28,268,33,03,17,216,42,12,11,033,33,1*7A
$GAGSV,3,3,11,07,11,319,34,30,10,285,33,34,02,187,43,1*4F
$GBGSV,2,1,06,26,74,321,43,45,46,119,35,29,41,051,46,44,24,209,47,1*79
$GBGSV,2,2,06,24,22,307,36,12,03,210,32,1*75
$GBGSV,2,1,05,26,74,321,33,45,46,119,48,29,41,051,38,44,24,209,43,5*7E
$GBGSV,2,2,05,24,22,307,37,5*41
$GNGGA,170912.000,4005.098560,N,10513.207986,W,2,53,0.43,1583.978,M,-20.670,M,,*7E
$GPGSV,3,1,11,22,70,348,38,14,66,054,39,30,47,159,41,48,39,209,46,1*6C
$GPGSV,3,2,11,13,32,250,43,02,28,051,38,15,16,282,44,07,16,148,43,1*60
$GPGSV,3,3,11,21,15,040,42,06,12,179,47,24,12,317,33,1*58
$GPGSV,1,1,04,14,66,054,34,30,47,159,46,06,12,179,50,24,12,317,32,8*6B
$GLGSV,3,1,09,84,67,144,27,74,65,006,30,73,47,097,40,83,32,034,16,1*78
$GLGSV,3,2,09,75,20,314,34,85,18,193,50,65,11,308,34,72,06,256,47,1*75
$GLGSV,3,3,09,66,01,354,,1*42
$GAGSV,3,1,12,02,58,312,40,25,56,069,36,11,44,079,38,36,37,149,43,7*78
$GAGSV,3,2,12,08,28,268,44,10,28,050,29,03,17,216,48,07,11,319,34,7*7D
$GAGSV,3,3,12,12,11,033,36,30,10,285,38,24,08,094,38,34,02,187,43,7*74
$GAGSV,3,1,11,02,58,312,36,25,56,069,35,11,44,079,33,36,37,149,45,1*72
$GAGSV,3,2,11,10,28,050,38,08,28,268,33,03,17,216,42,12,11,033,33,1*7A
$GAGSV,3,3,11,07,11,319,34,30,10,285,33,34,02,187,43,1*4F
$GBGSV,2,1,06,26,74,321,43,45,46,119,35,29,41,051,46,44,24,209,47,1*79
$GBGSV,2,2,06,24,22,307,37,12,03,210,36,1*70
$GBGSV,2,1,05,26,74,321,33,45,46,119,48,29,41,051,38,44,24,209,43,5*7E
$GBGSV,2,2,05,24,22,307,36,5*40
$GNGGA,170917.000,4005.098548,N,10513.207974,W,2,53,0.43,1584.064,M,-20.670,M,,*7F
$GPGSV,3,1,11,22,70,348,38,14,66,054,39,30,47,159,42,48,39,209,46,1*6F
$GPGSV,3,2,11,13,32,250,43,02,28,051,38,15,16,282,44,07,16,148,43,1*60
$GPGSV,3,3,11,21,15,040,42,06,12,179,47,24,12,317,32,1*59
$GPGSV,1,1,04,14,66,054,34,30,47,159,46,06,12,179,50,24,12,317,32,8*6B
$GLGSV,3,1,09,84,67,144,26,74,65,006,31,73,47,097,40,83,32,034,15,1*7B
$GLGSV,3,2,09,75,20,314,34,85,18,193,50,65,11,308,34,72,06,256,46,1*74
$GLGSV,3,3,09,66,01,354,,1*42
$GAGSV,3,1,12,02,58,312,40,25,56,069,35,11,44,079,38,36,37,149,43,7*7B
$GAGSV,3,2,12,08,28,268,44,10,28,050,31,03,17,216,48,07,11,319,34,7*74
$GAGSV,3,3,12,12,11,033,35,30,10,285,38,24,08,094,38,34,03,186,44,7*70
$GAGSV,3,1,11,02,58,312,36,25,56,069,35,11,44,079,33,36,37,149,45,1*72
$GAGSV,3,2,11,10,28,050,38,08,28,268,33,03,17,216,42,12,11,033,33,1*7A
$GAGSV,3,3,11,07,11,319,34,30,10,285,33,34,03,186,43,1*4F
$GBGSV,2,1,06,26,74,321,43,45,46,119,35,29,41,051,46,44,24,209,47,1*79
$GBGSV,2,2,06,24,22,307,37,12,03,210,36,1*70
$GBGSV,2,1,05,26,74,321,33,45,46,119,48,29,41,051,38,44,24,209,43,5*7E
$GBGSV,2,2,05,24,22,307,34,5*42
$GNGGA,170922.000,4005.098518,N,10513.207920,W,2,53,0.43,1584.231,M,-20.670,M,,*7F
$GPGSV,3,1,11,22,70,348,38,14,66,054,39,30,47,159,42,48,39,209,46,1*6F
$GPGSV,3,2,11,13,32,250,43,02,28,051,38,15,16,282,44,07,16,148,43,1*60
$GPGSV,3,3,11,21,15,040,42,06,12,179,47,24,12,317,32,1*59
$GPGSV,1,1,04,14,66,054,34,30,47,159,46,06,12,179,50,24,12,317,32,8*6B
$GLGSV,3,1,09,84,67,144,27,74,65,006,32,73,47,097,40,83,32,034,18,1*74
$GLGSV,3,2,09,75,20,314,33,85,18,193,50,65,10,307,35,72,06,256,46,1*7C
$GLGSV,3,3,09,66,01,352,,1*44
$GAGSV,3,1,12,02,58,312,40,25,56,069,35,11,44,079,38,36,38,149,43,7*74
$GAGSV,3,2,12,08,28,268,44,10,28,050,31,03,17,216,48,07,11,319,35,7*75
$GAGSV,3,3,12,12,11,033,34,30,10,285,38,24,08,094,39,34,03,186,45,7*71
$GAGSV,3,1,11,02,58,312,36,25,56,069,35,11,44,079,33,36,38,149,45,1*7D
$GAGSV,3,2,11,10,28,050,38,08,28,268,33,03,17,216,42,12,11,033,33,1*7A
$GAGSV,3,3,11,07,11,319,34,30,10,285,34,34,03,186,42,1*49
$GBGSV,2,1,06,26,74,321,43,45,46,119,35,29,41,051,46,44,24,209,47,1*79
$GBGSV,2,2,06,24,22,307,37,12,03,210,36,1*70
$GBGSV,2,1,05,26,74,321,33,45,46,119,48,29,41,051,38,44,24,209,43,5*7E
$GBGSV,2,2,05,24,22,307,34,5*42
$GNGGA,170927.000,4005.098500,N,10513.207896,W,2,53,0.43,1584.430,M,-20.670,M,,*78
$GPGSV,3,1,11,22,70,348,39,14,66,054,39,30,47,159,42,48,39,209,46,1*6E
$GPGSV,3,2,11,13,32,250,43,02,28,051,38,15,16,282,44,07,16,148,43,1*60
$GPGSV,3,3,11,21,15,040,42,06,12,179,46,24,12,317,31,1*5B
$GPGSV,1,1,04,14,66,054,34,30,47,159,46,06,12,179,50,24,12,317,32,8*6B
$GLGSV,3,1,09,84,67,144,28,74,65,006,31,73,46,099,40,83,32,034,18,1*77
$GLGSV,3,2,09,75,20,314,35,85,18,193,50,65,10,307,36,72,05,255,46,1*79
$GLGSV,3,3,09,66,01,352,,1*44
$GAGSV,3,1,12,02,58,312,40,25,56,069,35,11,44,079,38,36,38,149,43,7*74
$GAGSV,3,2,12,08,28,268,44,10,28,050,31,03,17,216,48,07,11,319,35,7*75
$GAGSV,3,3,12,12,11,033,33,30,10,285,38,24,08,094,39,34,03,186,46,7*75
$GAGSV,3,1,11,02,58,312,36,25,56,069,35,11,44,079,33,36,38,149,45,1*7D
$GAGSV,3,2,11,10,28,050,38,08,28,268,33,03,17,216,42,12,11,033,33,1*7A
$GAGSV,3,3,11,07,11,319,34,30,10,285,34,34,03,186,42,1*49
$GBGSV,2,1,06,26,74,321,43,45,46,119,34,29,41,051,46,44,24,209,47,1*78
$GBGSV,2,2,06,24,22,307,37,12,03,210,38,1*7E
$GBGSV,2,1,05,26,74,321,33,45,46,119,48,29,41,051,38,44,24,209,42,5*7F
$GBGSV,2,2,05,24,22,307,34,5*42
$GNGGA,170932.000,4005.098440,N,10513.207920,W,2,53,0.43,1584.487,M,-20.670,M,,*79
$GPGSV,3,1,11,22,70,348,39,14,66,054,39,30,47,159,42,48,39,209,46,1*6E
$GPGSV,3,2,11,13,32,250,43,02,28,051,39,15,16,282,44,07,16,148,43,1*61
$GPGSV,3,3,11,21,15,040,42,06,12,179,46,24,12,317,29,1*52
$GPGSV,1,1,04,14,66,054,34,30,47,159,46,06,12,179,49,24,12,317,32,8*63
$GLGSV,3,1,09,84,67,144,28,74,66,009,31,73,46,099,40,83,32,034,18,1*7B
$GLGSV,3,2,09,75,21,315,35,85,18,193,50,65,10,307,36,72,05,255,46,1*79
$GLGSV,3,3,09,66,01,352,,1*44
$GAGSV,3,1,12,02,58,312,40,25,56,069,35,11,44,079,38,36,38,149,43,7*74
$GAGSV,3,2,12,08,28,268,44,10,28,050,31,03,17,216,48,07,11,319,35,7*75
$GAGSV,3,3,12,12,11,033,32,30,10,285,38,24,08,094,39,34,03,186,45,7*77
$GAGSV,3,1,11,02,58,312,36,25,56,069,35,11,44,079,33,36,38,149,45,1*7D
$GAGSV,3,2,11,10,28,050,38,08,28,268,33,03,17,216,42,12,11,033,32,1*7B
$GAGSV,3,3,11,07,11,319,34,30,10,285,32,34,03,186,41,1*4C
$GBGSV,2,1,06,26,74,321,43,45,46,119,33,29,41,051,46,44,24,209,47,1*7F
$GBGSV,2,2,06,24,22,307,34,12,03,210,40,1*72
$GBGSV,2,1,05,26,74,321,32,45,46,119,47,29,41,051,38,44,24,209,42,5*71
$GBGSV,2,2,05,24,22,307,34,5*42
$GNGGA,170937.000,4005.098398,N,10513.207836,W,2,53,0.43,1584.154,M,-20.670,M,,*73
$GPGSV,3,1,11,22,70,348,39,14,66,054,39,30,47,159,42,48,39,209,46,1*6E
$GPGSV,3,2,11,13,32,250,43,02,28,051,40,15,16,282,44,07,16,148,43,1*6F
$GPGSV,3,3,11,21,15,040,41,06,12,179,46,24,12,317,26,1*5E
$GPGSV,1,1,04,14,66,054,34,30,47,159,47,06,12,179,49,24,12,317,32,8*62
$GLGSV,3,1,09,84,67,144,28,74,66,009,30,73,46,099,40,83,31,033,16,1*70
$GLGSV,3,2,09,75,21,315,35,85,18,193,50,65,10,307,35,72,05,255,45,1*79
$GLGSV,3,3,09,66,01,352,,1*44
$GAGSV,3,1,12,02,58,312,40,25,56,069,35,11,44,079,37,36,38,149,43,7*7B
$GAGSV,3,2,12,08,28,268,44,10,28,050,30,03,17,216,48,07,11,319,34,7*75
$GAGSV,3,3,12,12,11,033,32,30,10,285,38,24,08,094,39,34,03,186,45,7*77
$GAGSV,3,1,11,02,58,312,36,25,56,069,35,11,44,079,33,36,38,149,45,1*7D
$GAGSV,3,2,11,10,28,050,38,08,28,268,33,03,17,216,42,12,11,033,32,1*7B
$GAGSV,3,3,11,07,11,319,35,30,10,285,32,34,03,186,40,1*4C
$GBGSV,2,1,06,26,74,321,43,45,46,119,32,29,41,051,46,44,24,209,47,1*7E
$GBGSV,2,2,06,24,22,307,34,12,03,210,40,1*72
$GBGSV,2,1,05,26,74,321,31,45,46,119,47,29,41,051,38,44,24,209,42,5*72
$GBGSV,2,2,05,24,22,307,34,5*42
$GNGGA,170942.000,4005.098380,N,10513.207614,W,2,54,0.43,1583.811,M,-20.670,M,,*7E
$GPGSV,3,1,11,22,70,348,39,14,66,054,39,30,47,159,42,48,39,209,46,1*6E
$GPGSV,3,2,11,13,32,250,43,02,28,051,41,15,16,282,44,07,16,148,43,1*6E
$GPGSV,3,3,11,21,15,040,40,06,12,179,46,24,12,317,22,1*5B
$GPGSV,1,1,04,14,66,054,34,30,47,159,47,24,12,317,32,06,12,179,49,8*62
$GLGSV,3,1,09,84,69,141,28,74,66,009,29,73,46,099,39,83,31,033,16,1*7D
$GLGSV,3,2,09,75,21,315,35,85,19,193,50,65,10,307,35,72,05,255,46,1*7B
$GLGSV,3,3,09,66,01,352,,1*44
$GAGSV,3,1,12,02,58,312,40,25,56,069,36,11,44,079,37,36,38,149,43,7*78
$GAGSV,3,2,12,08,28,268,44,10,28,050,29,03,17,216,48,07,11,319,34,7*7D
$GAGSV,3,3,12,12,11,033,32,30,10,285,38,24,08,094,39,34,03,186,46,7*74
$GAGSV,3,1,12,02,58,312,36,25,56,069,35,11,44,079,33,36,38,149,46,1*7D
$GAGSV,3,2,12,10,28,050,38,08,28,268,34,03,17,216,43,07,11,319,35,1*76
$GAGSV,3,3,12,12,11,033,32,30,10,285,32,24,08,094,22,34,03,186,40,1*74
$GBGSV,2,1,06,26,74,321,43,45,46,119,34,29,41,051,46,44,24,209,47,1*78
$GBGSV,2,2,06,24,22,307,34,12,03,210,42,1*70
$GBGSV,2,1,05,26,74,321,32,45,46,119,47,29,41,051,38,44,24,209,42,5*71
$GBGSV,2,2,05,24,22,307,34,5*42
$GNGGA,170947.000,4005.098344,N,10513.207452,W,2,53,0.43,1583.537,M,-20.670,M,,*7D
$GPGSV,3,1,11,22,70,348,39,14,66,054,39,30,47,159,42,48,39,209,46,1*6E
$GPGSV,3,2,11,13,32,250,44,02,28,051,42,15,16,282,44,07,16,148,43,1*6A
$GPGSV,3,3,11,21,15,040,40,06,12,179,45,24,12,317,19,1*50
$GPGSV,1,1,04,14,66,054,34,30,47,159,47,24,12,317,32,06,12,179,49,8*62
$GLGSV,3,1,09,84,69,141,28,74,66,009,29,73,46,099,40,83,31,033,18,1*7D
$GLGSV,3,2,09,75,21,315,35,85,19,193,50,65,10,307,35,72,05,255,46,1*7B
$GLGSV,3,3,09,66,01,352,,1*44
$GAGSV,3,1,12,02,58,312,40,25,56,069,36,11,44,079,37,36,38,149,43,7*78
$GAGSV,3,2,12,08,28,268,44,10,28,050,31,03,17,216,48,07,11,319,35,7*75
$GAGSV,3,3,12,12,11,033,31,30,10,285,38,24,08,094,39,34,03,186,46,7*77
$GAGSV,3,1,12,02,58,312,36,25,56,069,35,11,44,079,33,36,38,149,46,1*7D
$GAGSV,3,2,12,10,28,050,38,08,28,268,34,03,17,216,43,07,11,319,36,1*75
$GAGSV,3,3,12,12,11,033,32,30,10,285,31,24,08,094,21,34,03,186,38,1*7B
$GBGSV,2,1,06,26,74,321,43,45,46,119,34,29,41,051,46,44,24,209,48,1*77
$GBGSV,2,2,06,24,22,307,34,12,03,210,44,1*76
$GBGSV,2,1,05,26,74,321,31,45,46,119,47,29,41,051,38,44,24,209,41,5*71
$GBGSV,2,2,05,24,22,307,34,5*42
$GNGGA,170952.000,4005.098278,N,10513.207260,W,2,53,0.43,1583.306,M,-20.670,M,,*74
$GPGSV,3,1,11,22,70,348,39,14,66,054,39,30,47,159,42,48,39,209,46,1*6E
$GPGSV,3,2,11,13,32,250,44,02,28,051,42,15,16,282,44,07,16,148,43,1*6A
$GPGSV,3,3,11,21,15,040,40,06,12,179,45,24,12,317,15,1*5C
$GPGSV,1,1,04,14,66,054,34,30,47,159,48,24,12,317,31,06,12,179,49,8*6E
$GLGSV,3,1,09,84,69,141,28,74,66,009,29,73,46,099,40,83,31,033,22,1*74
$GLGSV,3,2,09,75,21,315,34,85,19,193,50,65,10,307,37,72,05,255,45,1*7B
$GLGSV,3,3,09,66,01,352,,1*44
$GAGSV,3,1,12,02,58,312,40,25,56,069,35,11,44,079,37,36,38,149,43,7*7B
$GAGSV,3,2,12,08,28,268,44,10,28,050,32,03,17,216,48,07,11,319,36,7*75
$GAGSV,3,3,12,12,11,033,31,30,10,285,37,24,08,094,39,34,03,186,46,7*78
$GAGSV,3,1,12,02,58,312,36,25,56,069,36,11,44,079,33,36,38,149,46,1*7E
$GAGSV,3,2,12,10,28,050,38,08,28,268,34,03,17,216,43,07,11,319,36,1*75
$GAGSV,3,3,12,12,11,033,32,30,10,285,32,24,08,094,21,34,03,186,37,1*77
$GBGSV,2,1,06,26,74,321,43,45,46,119,34,29,41,051,46,44,24,209,48,1*77
$GBGSV,2,2,06,24,22,307,35,12,03,210,45,1*76
$GBGSV,2,1,05,26,74,321,31,45,46,119,47,29,41,051,37,44,24,209,41,5*7E
$GBGSV,2,2,05,24,22,307,33,5*45
$GNGGA,170957.000,4005.098200,N,10513.207212,W,2,53,0.43,1583.093,M,-20.670,M,,*74
$GPGSV,3,1,11,22,70,348,39,14,66,054,39,30,47,159,43,48,39,209,46,1*6F
$GPGSV,3,2,11,13,32,250,44,02,28,051,42,15,16,282,44,07,16,148,43,1*6A
$GPGSV,3,3,11,21,15,040,40,06,12,179,45,24,12,317,15,1*5C
$GPGSV,1,1,04,14,66,054,34,30,47,159,48,24,12,317,30,06,12,179,49,8*6F
$GLGSV,3,1,09,84,69,141,28,74,66,009,30,73,46,099,41,83,31,033,26,1*79
$GLGSV,3,2,09,75,21,315,33,85,19,193,50,65,10,307,37,72,05,255,45,1*7C
$GLGSV,3,3,09,66,01,352,,1*44
$GAGSV,3,1,12,02,58,312,40,25,56,069,34,11,44,079,37,36,38,149,43,7*7A
$GAGSV,3,2,12,08,28,268,44,10,28,050,32,03,17,216,48,07,11,319,36,7*75
$GAGSV,3,3,12,12,11,033,31,30,10,285,37,24,08,094,39,34,03,186,46,7*78
$GAGSV,3,1,12,02,58,312,36,25,56,069,36,11,44,079,33,36,38,149,46,1*7E
$GAGSV,3,2,12,10,28,050,38,08,28,268,34,03,17,216,43,07,11,319,36,1*75
$GAGSV,3,3,12,12,11,033,32,30,10,285,33,24,08,094,20,34,03,186,36,1*76
$GBGSV,2,1,06,26,74,321,43,45,46,119,34,29,41,051,45,44,24,209,48,1*74
$GBGSV,2,2,06,24,22,307,35,12,03,211,46,1*74
$GBGSV,2,1,05,26,74,321,31,45,46,119,47,29,41,051,37,44,24,209,41,5*7E
$GBGSV,2,2,05,24,22,307,33,5*45
$GNGGA,171002.000,4005.098158,N,10513.207206,W,2,53,0.43,1582.957,M,-20.669,M,,*7F
$GPGSV,3,1,11,22,70,348,39,14,66,054,39,30,47,159,44,48,39,209,46,1*68
$GPGSV,3,2,11,13,32,250,44,02,28,051,42,15,16,282,44,07,16,148,43,1*6A
$GPGSV,3,3,11,21,15,040,41,06,12,179,45,24,12,317,18,1*50
$GPGSV,1,1,04,14,66,054,34,30,47,159,48,24,12,317,28,06,12,179,49,8*66
$GLGSV,3,1,09,84,69,141,27,74,66,009,32,73,46,099,41,83,31,033,26,1*74
$GLGSV,3,2,09,75,21,315,33,85,19,193,50,65,10,307,36,72,05,255,45,1*7D
$GLGSV,3,3,09,66,01,352,,1*44
$GAGSV,3,1,12,02,58,312,40,25,56,069,33,11,44,079,37,36,38,149,43,7*7D
$GAGSV,3,2,12,08,28,268,44,10,28,050,33,03,17,216,48,07,11,319,36,7*74
$GAGSV,3,3,12,12,11,033,31,30,10,285,37,24,08,094,39,34,03,186,47,7*79
$GAGSV,3,1,12,02,58,312,35,25,56,069,36,11,44,079,33,36,38,149,46,1*7D
$GAGSV,3,2,12,10,28,050,38,08,28,268,34,03,17,216,44,07,11,319,36,1*72
$GAGSV,3,3,12,12,11,033,32,30,10,285,32,24,08,094,20,34,03,186,37,1*76
$GBGSV,2,1,06,26,74,321,43,45,46,119,33,29,41,051,45,44,24,209,48,1*73
$GBGSV,2,2,06,24,22,307,34,12,03,211,47,1*74
$GBGSV,2,1,05,26,74,321,31,45,46,119,47,29,41,051,37,44,24,209,41,5*7E
$GBGSV,2,2,05,24,22,307,33,5*45
$GNGGA,171007.000,4005.098140,N,10513.207242,W,2,53,0.43,1582.906,M,-20.670,M,,*7F
$GPGSV,3,1,11,22,70,348,39,14,66,054,39,30,47,159,45,48,39,209,46,1*69
$GPGSV,3,2,11,13,32,250,44,02,28,051,41,15,16,282,44,07,16,148,43,1*69
$GPGSV,3,3,11,21,15,040,41,06,12,179,45,24,12,317,20,1*5B
$GPGSV,1,1,04,14,66,054,34,30,47,159,48,24,12,317,26,06,12,179,49,8*68
$GLGSV,3,1,09,84,69,141,27,74,66,009,32,73,46,099,41,83,31,033,24,1*76
$GLGSV,3,2,09,75,21,315,33,85,19,193,50,65,10,307,35,72,05,255,45,1*7E
$GLGSV,3,3,09,66,01,352,,1*44
$GAGSV,3,1,12,02,58,312,40,25,56,069,32,11,44,079,37,36,38,149,43,7*7C
$GAGSV,3,2,12,08,28,268,44,10,28,050,33,03,17,216,48,07,11,319,35,7*77
$GAGSV,3,3,12,12,11,033,31,30,10,285,37,24,08,094,39,34,03,186,47,7*79
$GAGSV,3,1,12,02,58,312,35,25,56,069,36,11,44,079,33,36,38,149,46,1*7D
$GAGSV,3,2,12,10,28,050,38,08,28,268,34,03,17,216,44,07,11,319,37,1*73
$GAGSV,3,3,12,12,11,033,32,30,10,285,32,24,08,094,22,34,03,186,38,1*7B
$GBGSV,2,1,06,26,74,321,43,45,46,119,31,29,41,051,44,44,24,209,48,1*70
$GBGSV,2,2,06,24,23,308,34,12,03,211,48,1*75
$GBGSV,2,1,05,26,74,321,31,45,46,119,47,29,41,051,37,44,24,209,40,5*7F
$GBGSV,2,2,05,24,23,308,32,5*4A
$GNGGA,171012.000,4005.098134,N,10513.207284,W,2,54,0.43,1583.006,M,-20.670,M,,*7D
$GPGSV,3,1,11,22,70,348,39,14,66,054,39,30,47,159,45,48,39,209,46,1*69
$GPGSV,3,2,11,13,32,250,44,02,28,051,41,15,16,282,44,07,16,148,44,1*6E
$GPGSV,3,3,11,21,15,040,42,06,12,179,45,24,12,317,21,1*59
$GPGSV,1,1,04,14,66,054,34,30,47,159,48,24,12,317,22,06,12,179,49,8*6C
$GLGSV,3,1,09,84,69,141,28,74,66,009,32,73,46,099,40,83,31,033,22,1*7E
$GLGSV,3,2,09,75,21,315,32,85,19,193,51,65,10,307,36,72,05,255,45,1*7D
$GLGSV,3,3,09,66,01,352,,1*44
$GAGSV,3,1,12,02,58,312,40,25,56,069,32,11,44,079,37,36,38,149,43,7*7C
$GAGSV,3,2,12,08,28,268,44,10,28,050,33,03,17,216,48,07,11,319,35,7*77
$GAGSV,3,3,12,12,11,033,31,30,10,285,37,24,08,094,40,34,03,186,47,7*77
$GAGSV,3,1,12,02,58,312,35,25,56,069,36,11,44,079,33,36,38,149,46,1*7D
$GAGSV,3,2,12,10,28,050,38,08,28,268,33,03,17,216,44,07,11,319,37,1*74
$GAGSV,3,3,12,12,11,033,31,30,10,285,31,24,08,094,23,34,03,186,37,1*75
$GBGSV,2,1,06,26,75,321,42,45,46,119,31,29,40,050,44,44,24,209,48,1*70
$GBGSV,2,2,06,24,23,308,34,12,03,211,49,1*74
$GBGSV,2,1,05,26,75,321,31,45,46,119,47,29,40,050,37,44,24,209,40,5*7E
$GBGSV,2,2,05,24,23,308,31,5*49
$GNGGA,171017.000,4005.098110,N,10513.207380,W,2,53,0.43,1583.302,M,-20.670,M,,*7B
$GPGSV,3,1,11,22,70,348,39,14,66,054,39,30,47,159,45,48,39,209,46,1*69
$GPGSV,3,2,11,13,32,250,44,02,28,051,41,15,16,282,44,07,16,148,44,1*6E
$GPGSV,3,3,11,21,15,040,42,06,12,179,45,24,12,317,21,1*59
$GPGSV,1,1,04,14,66,054,34,30,47,159,48,24,12,317,17,06,12,179,49,8*6A
$GLGSV,3,1,09,84,69,141,28,74,66,009,32,73,46,099,41,83,31,033,19,1*77
$GLGSV,3,2,09,75,21,315,33,85,19,193,51,65,10,307,36,72,05,255,43,1*7A
$GLGSV,3,3,09,66,01,352,,1*44
$GAGSV,3,1,12,02,58,312,40,25,56,069,32,11,44,079,38,36,38,149,43,7*73
$GAGSV,3,2,12,08,28,268,44,10,28,050,33,03,17,216,48,07,11,319,35,7*77
$GAGSV,3,3,12,12,11,033,31,30,10,285,37,24,08,094,40,34,03,186,48,7*78
$GAGSV,3,1,12,02,58,312,35,25,56,069,36,11,44,079,33,36,38,149,46,1*7D
$GAGSV,3,2,12,10,28,050,38,08,28,268,33,03,17,216,44,07,11,319,37,1*74
$GAGSV,3,3,12,12,11,033,31,30,10,285,30,24,08,094,24,34,03,186,33,1*77
$GBGSV,2,1,06,26,75,321,41,45,46,119,31,29,40,050,44,44,24,209,48,1*73
$GBGSV,2,2,06,24,23,308,32,12,03,211,50,1*7A
$GBGSV,2,1,05,26,75,321,31,45,46,119,47,29,40,050,37,44,24,209,40,5*7E
$GBGSV,2,2,05,24,23,308,31,5*49
$GNGGA,171022.000,4005.098056,N,10513.207596,W,2,51,0.44,1583.724,M,-20.670,M,,*7A
$GPGSV,3,1,11,22,70,348,39,14,66,054,39,30,47,159,45,48,39,209,46,1*69
$GPGSV,3,2,11,13,32,250,44,02,28,051,41,15,16,282,44,07,16,148,45,1*6F
$GPGSV,3,3,11,21,15,040,42,06,12,179,45,24,12,317,22,1*5A
$GPGSV,1,1,03,14,66,054,34,30,47,159,48,06,12,179,49,8*5B
$GLGSV,3,1,09,84,69,141,28,74,66,009,32,73,46,099,41,83,31,033,22,1*7F
$GLGSV,3,2,09,75,21,315,35,85,19,193,51,65,10,307,37,72,05,255,44,1*7A
$GLGSV,3,3,09,66,01,352,,1*44
$GAGSV,3,1,12,02,58,312,40,25,56,069,31,11,44,079,38,36,38,149,43,7*70
$GAGSV,3,2,12,08,28,268,44,10,28,050,33,03,17,216,48,07,11,319,35,7*77
$GAGSV,3,3,12,12,11,033,30,30,10,285,37,24,08,094,40,34,03,186,48,7*79
$GAGSV,3,1,12,02,58,312,35,25,56,069,36,11,44,079,33,36,38,149,46,1*7D
$GAGSV,3,2,12,10,28,050,38,08,28,268,33,03,17,216,44,12,11,033,31,1*7D
$GAGSV,3,3,12,07,11,319,37,30,10,285,31,24,08,094,26,34,03,186,30,1*7E
$GBGSV,2,1,06,26,75,321,41,45,46,119,33,29,40,050,44,44,24,209,48,1*71
$GBGSV,2,2,06,24,23,308,32,12,03,211,50,1*7A
$GBGSV,2,1,05,26,75,321,31,45,46,119,47,29,40,050,37,44,24,209,39,5*70
$GBGSV,2,2,05,24,23,308,28,5*41
$GNGGA,171027.000,4005.098038,N,10513.207800,W,2,51,0.44,1583.966,M,-20.670,M,,*7D
$GPGSV,3,1,11,22,70,348,39,14,66,054,39,30,47,159,45,48,39,209,46,1*69
$GPGSV,3,2,11,13,32,250,44,02,28,051,41,15,16,282,44,07,16,148,45,1*6F
$GPGSV,3,3,11,21,15,040,42,06,12,179,45,24,12,317,21,1*59
$GPGSV,1,1,03,14,66,054,34,30,47,159,48,06,12,179,49,8*5B
$GLGSV,3,1,09,84,69,141,28,74,66,009,31,73,46,099,42,83,31,033,26,1*7B
$GLGSV,3,2,09,75,21,315,37,85,19,193,51,65,10,307,35,72,05,255,44,1*7A
$GLGSV,3,3,09,66,01,352,,1*44
$GAGSV,3,1,12,02,58,312,40,25,56,069,31,11,44,079,38,36,38,149,43,7*70
$GAGSV,3,2,12,08,28,268,44,10,28,050,33,03,17,216,48,07,11,319,35,7*77
$GAGSV,3,3,12,12,11,033,30,30,10,285,37,24,08,094,40,34,03,186,48,7*79
$GAGSV,3,1,12,02,58,312,34,25,56,069,36,11,44,079,33,36,38,149,46,1*7C
$GAGSV,3,2,12,10,28,050,38,08,28,268,33,03,17,216,44,12,11,033,31,1*7D
$GAGSV,3,3,12,07,11,319,37,30,10,285,31,24,08,094,26,34,03,186,29,1*76
$GBGSV,2,1,06,26,75,321,40,45,45,120,34,29,40,050,44,44,25,209,48,1*7F
$GBGSV,2,2,06,24,23,308,31,12,03,211,50,1*79
$GBGSV,2,1,05,26,75,321,31,45,45,120,47,29,40,050,37,44,25,209,38,5*79
$GBGSV,2,2,05,24,23,308,27,5*4E
$GNGGA,171032.000,4005.098026,N,10513.207944,W,2,52,0.44,1584.149,M,-20.670,M,,*76
$GPGSV,3,1,11,22,70,348,39,14,66,054,39,30,47,159,45,48,39,209,46,1*69
$GPGSV,3,2,11,13,32,250,44,02,28,051,41,15,16,282,44,07,16,148,46,1*6C
$GPGSV,3,3,11,21,15,040,42,06,12,179,45,24,12,317,21,1*59
$GPGSV,1,1,03,14,66,054,35,30,47,159,48,06,12,179,48,8*5B
$GLGSV,3,1,09,84,69,141,28,74,66,009,32,73,46,099,41,83,31,033,28,1*75
$GLGSV,3,2,09,75,21,315,37,85,19,193,51,65,10,307,35,72,05,255,42,1*7C
$GLGSV,3,3,09,66,01,352,,1*44
$GAGSV,3,1,12,02,58,312,40,25,56,069,31,11,44,079,38,36,38,149,43,7*70
$GAGSV,3,2,12,08,28,268,44,10,28,050,33,03,17,216,48,07,11,319,34,7*76
$GAGSV,3,3,12,12,11,033,30,30,10,285,35,24,08,094,40,34,03,186,48,7*7B
$GAGSV,3,1,12,02,58,312,34,25,56,069,36,11,44,079,33,36,38,149,46,1*7C
$GAGSV,3,2,12,10,28,050,38,08,28,268,33,03,17,216,44,12,11,033,31,1*7D
$GAGSV,3,3,12,07,11,319,38,30,10,285,31,24,08,094,26,34,03,186,30,1*71
$GBGSV,2,1,06,26,75,321,40,45,45,120,36,29,40,050,44,44,25,209,48,1*7D
$GBGSV,2,2,06,24,23,308,30,12,03,211,50,1*78
$GBGSV,2,1,05,26,75,321,31,45,45,120,47,29,40,050,37,44,25,209,37,5*76
$GBGSV,2,2,05,24,23,308,27,5*4E
$GNGGA,171037.000,4005.098116,N,10513.207932,W,2,51,0.43,1584.312,M,-20.670,M,,*78
$GPGSV,3,1,11,22,70,348,39,14,66,054,39,30,47,159,45,48,39,209,46,1*69
$GPGSV,3,2,11,13,32,250,45,02,28,051,41,15,16,282,44,07,16,148,46,1*6D
$GPGSV,3,3,11,21,15,040,42,06,12,179,44,24,12,317,21,1*58
$GPGSV,1,1,04,14,66,054,35,30,47,159,49,24,12,317,25,06,12,179,48,8*6A
$GLGSV,3,1,09,84,69,141,27,74,66,009,31,73,46,099,40,83,31,033,28,1*78
$GLGSV,3,2,09,75,21,315,37,85,19,193,51,65,10,307,35,72,05,255,40,1*7E
$GLGSV,3,3,09,66,01,352,,1*44
$GAGSV,3,1,12,02,58,312,40,25,56,069,31,11,44,079,38,36,38,149,43,7*70
$GAGSV,3,2,12,08,28,268,44,10,28,050,33,03,17,216,48,07,11,319,33,7*71
$GAGSV,3,3,12,12,11,033,30,30,10,285,35,24,08,094,41,34,03,186,48,7*7A
$GAGSV,3,1,12,02,58,312,34,25,56,069,36,11,44,079,34,36,38,149,47,1*7A
$GAGSV,3,2,12,10,28,050,38,08,28,268,34,03,17,216,45,07,11,319,39,1*7C
$GAGSV,3,3,12,12,11,033,31,30,10,285,31,24,08,094,27,34,03,186,31,1*77
$GBGSV,2,1,06,26,75,321,40,45,45,120,36,29,40,050,44,44,25,209,48,1*7D
$GBGSV,2,2,06,24,23,308,31,12,03,211,49,1*71
$GBGSV,2,1,05,26,75,321,30,45,45,120,47,29,40,050,37,44,25,209,37,5*77
$GBGSV,2,2,05,24,23,308,27,5*4E
$GNGGA,171042.000,4005.098212,N,10513.207920,W,2,52,0.43,1584.530,M,-20.670,M,,*7B
$GPGSV,3,1,11,22,70,348,39,14,66,054,39,30,47,159,45,48,39,209,46,1*69
$GPGSV,3,2,11,13,32,250,45,02,28,051,40,15,16,282,44,07,16,148,46,1*6C
$GPGSV,3,3,11,21,15,040,42,06,12,179,44,24,12,317,21,1*58
$GPGSV,1,1,04,14,66,054,35,30,47,159,49,24,12,317,26,06,12,179,48,8*69
$GLGSV,3,1,09,84,69,141,28,74,66,009,31,73,46,099,40,83,31,033,28,1*77
$GLGSV,3,2,09,75,21,315,37,85,19,193,51,65,10,307,36,72,05,255,42,1*7F
$GLGSV,3,3,09,66,01,352,,1*44
$GAGSV,3,1,12,02,58,312,39,25,56,069,31,11,44,079,38,36,38,149,43,7*7E
$GAGSV,3,2,12,08,28,268,44,10,28,050,33,03,17,216,48,07,11,319,34,7*76
$GAGSV,3,3,12,12,11,033,30,30,10,285,34,24,08,094,41,34,03,186,48,7*7B
$GAGSV,3,1,12,02,58,312,34,25,56,069,36,11,44,079,33,36,38,149,47,1*7D
$GAGSV,3,2,12,10,28,050,38,08,28,268,34,03,17,216,45,07,11,319,39,1*7C
$GAGSV,3,3,12,12,11,033,31,30,10,285,30,24,08,094,27,34,03,186,32,1*75
$GBGSV,2,1,06,26,75,321,40,45,45,120,37,29,40,050,44,44,25,209,48,1*7C
$GBGSV,2,2,06,24,23,308,31,12,03,211,48,1*70
$GBGSV,2,1,05,26,75,321,30,45,45,120,46,29,40,050,37,44,25,209,37,5*76
$GBGSV,2,2,05,24,23,308,26,5*4F
$GNGGA,171047.000,4005.098266,N,10513.207866,W,2,51,0.43,1584.657,M,-20.670,M,,*7F
$GPGSV,3,1,11,22,70,348,39,14,66,054,39,30,47,159,45,48,39,209,46,1*69
$GPGSV,3,2,11,13,32,250,45,02,27,050,40,15,16,282,44,07,16,148,47,1*63
$GPGSV,3,3,11,21,15,040,42,06,12,179,44,24,12,317,19,1*53
$GPGSV,1,1,04,14,66,054,35,30,47,159,49,24,12,317,26,06,12,179,48,8*69
$GLGSV,3,1,09,84,69,141,28,74,66,009,30,73,46,099,40,83,31,033,29,1*77
$GLGSV,3,2,09,75,21,315,36,85,19,193,51,65,10,307,36,72,05,255,43,1*7F
$GLGSV,3,3,09,66,01,352,,1*44
$GAGSV,3,1,12,02,58,312,39,25,56,069,31,11,44,079,38,36,38,149,43,7*7E
$GAGSV,3,2,12,08,28,268,44,10,28,050,33,03,17,216,48,07,11,319,34,7*76
$GAGSV,3,3,12,12,11,033,30,30,10,285,34,24,08,094,41,34,03,186,48,7*7B
$GAGSV,3,1,12,02,58,312,34,25,56,069,36,11,44,079,33,36,38,149,47,1*7D
$GAGSV,3,2,12,10,28,050,38,08,28,268,34,03,17,216,45,07,11,319,39,1*7C
$GAGSV,3,3,12,12,11,033,31,30,10,285,30,24,08,094,27,34,03,186,32,1*75
