$GNRMC,174456.000,A,4000.585714,N,10514.616036,W,0.03,0.00,220324,,,A,V*10
$GNVTG,0.00,T,,M,0.03,N,0.05,K,A*25
$GNGGA,174456.000,4000.585714,N,10514.616036,W,1,25,1.20,1609.231,M,-20.635,M,,*7B
$GNGSA,A,3,17,30,19,13,07,06,,,,,,,1.64,1.20,1.12,1*0D
$GNGSA,A,3,88,81,68,,,,,,,,,,1.64,1.20,1.12,2*07
$GNGSA,A,3,26,33,04,,,,,,,,,,1.64,1.20,1.12,3*01
$GNGSA,A,3,46,30,37,29,,,,,,,,,1.64,1.20,1.12,4*08
$GPGSV,2,1,08,17,81,230,37,30,54,157,46,19,49,225,40,44,42,197,47,1*68
$GPGSV,2,2,08,13,35,256,27,07,22,146,48,06,06,180,47,01,,,25,1*58
$GPGSV,1,1,03,30,54,157,37,06,06,180,40,01,,,20,8*65
$GLGSV,1,1,03,88,60,159,43,81,12,192,38,68,11,259,32,1*4D
$GAGSV,1,1,04,26,45,100,42,33,28,159,47,09,28,285,14,04,26,229,41,7*74
$GAGSV,1,1,03,26,45,100,33,33,28,159,40,04,26,229,33,1*48
$GBGSV,1,1,04,46,68,105,33,30,57,186,42,37,14,120,36,29,07,210,46,1*78
$GBGSV,1,1,04,46,68,105,29,30,57,186,35,37,14,120,28,29,07,210,39,5*70
$GNGLL,4000.585714,N,10514.616036,W,174456.000,A,A*5B
$GNRMC,174457.000,A,4000.585666,N,10514.616066,W,0.01,0.00,220324,,,A,V*12
$GNVTG,0.00,T,,M,0.01,N,0.02,K,A*20
$GNGGA,174457.000,4000.585666,N,10514.616066,W,1,25,1.20,1609.332,M,-20.635,M,,*79
$GNGSA,A,3,17,30,19,13,07,06,,,,,,,1.64,1.20,1.12,1*0D
$GNGSA,A,3,88,81,68,,,,,,,,,,1.64,1.20,1.12,2*07
$GNGSA,A,3,26,33,04,,,,,,,,,,1.64,1.20,1.12,3*01
$GNGSA,A,3,46,30,37,29,,,,,,,,,1.64,1.20,1.12,4*08
$GPGSV,2,1,08,17,81,230,37,30,54,157,46,19,49,225,40,44,42,197,47,1*68
$GPGSV,2,2,08,13,35,256,26,07,22,146,48,06,06,180,47,01,,,24,1*58
$GPGSV,1,1,03,30,54,157,37,06,06,180,40,01,,,20,8*65
$GLGSV,1,1,03,88,60,159,43,81,12,192,38,68,11,259,32,1*4D
$GAGSV,1,1,04,26,45,100,42,33,28,159,46,09,28,285,14,04,26,229,41,7*75
$GAGSV,1,1,03,26,45,100,33,33,28,159,40,04,26,229,33,1*48
$GBGSV,1,1,04,46,68,105,34,30,57,186,42,37,14,120,37,29,07,210,46,1*7E
$GBGSV,1,1,04,46,68,105,29,30,57,186,35,37,14,120,29,29,07,210,39,5*71
$GNGLL,4000.585666,N,10514.616066,W,174457.000,A,A*5B
$GNRMC,174458.000,A,4000.585642,N,10514.616090,W,0.03,0.00,220324,,,A,V*10
$GNVTG,0.00,T,,M,0.03,N,0.05,K,A*25
$GNGGA,174458.000,4000.585642,N,10514.616090,W,1,25,1.20,1609.316,M,-20.635,M,,*7F
$GNGSA,A,3,17,30,19,13,07,06,,,,,,,1.64,1.20,1.12,1*0D
$GNGSA,A,3,88,81,68,,,,,,,,,,1.64,1.20,1.12,2*07
$GNGSA,A,3,26,33,04,,,,,,,,,,1.64,1.20,1.12,3*01
$GNGSA,A,3,46,30,37,29,,,,,,,,,1.64,1.20,1.12,4*08
$GPGSV,2,1,08,17,81,230,37,30,54,157,46,19,49,225,40,44,42,197,47,1*68
$GPGSV,2,2,08,13,35,256,26,07,22,146,48,06,06,180,47,01,,,24,1*58
$GPGSV,1,1,03,30,54,157,37,06,06,180,40,01,,,20,8*65
$GLGSV,1,1,03,88,60,159,44,81,12,192,37,68,11,259,31,1*46
$GAGSV,1,1,04,26,45,100,42,33,28,159,46,09,28,285,14,04,26,229,40,7*74
$GAGSV,1,1,03,26,45,100,33,33,28,159,40,04,26,229,33,1*48
$GBGSV,1,1,04,46,68,105,34,30,57,186,42,37,14,120,37,29,07,210,45,1*7D
$GBGSV,1,1,04,46,68,105,30,30,57,186,35,37,14,120,29,29,07,210,39,5*79
$GNGLL,4000.585642,N,10514.616090,W,174458.000,A,A*5B
$GNRMC,174459.000,A,4000.585630,N,10514.616108,W,0.02,0.00,220324,,,A,V*15
$GNVTG,0.00,T,,M,0.02,N,0.04,K,A*25
$GNGGA,174459.000,4000.585630,N,10514.616108,W,1,25,1.20,1609.278,M,-20.635,M,,*72
$GNGSA,A,3,17,30,19,13,07,06,,,,,,,1.64,1.20,1.12,1*0D
$GNGSA,A,3,88,81,68,,,,,,,,,,1.64,1.20,1.12,2*07
$GNGSA,A,3,26,33,04,,,,,,,,,,1.64,1.20,1.12,3*01
$GNGSA,A,3,46,30,37,29,,,,,,,,,1.64,1.20,1.12,4*08
$GPGSV,2,1,08,17,81,230,36,30,54,157,46,19,49,225,40,44,42,197,47,1*69
$GPGSV,2,2,08,13,35,256,27,07,22,146,48,06,06,180,47,01,,,23,1*5E
$GPGSV,1,1,03,30,54,157,37,06,06,180,40,01,,,20,8*65
$GLGSV,1,1,03,88,60,159,44,81,12,192,36,68,11,259,32,1*44
$GAGSV,1,1,04,26,45,100,42,33,28,159,46,09,28,285,14,04,26,229,40,7*74
$GAGSV,1,1,03,26,45,100,33,33,28,159,40,04,26,229,33,1*48
$GBGSV,1,1,04,46,68,105,34,30,57,186,41,37,14,120,37,29,07,210,45,1*7E
$GBGSV,1,1,04,46,68,105,30,30,57,186,35,37,14,120,29,29,07,210,39,5*79
$GNGLL,4000.585630,N,10514.616108,W,174459.000,A,A*5F
$GNRMC,174500.000,A,4000.585648,N,10514.616198,W,0.02,0.00,220324,,,A,V*1E
$GNVTG,0.00,T,,M,0.02,N,0.04,K,A*25
$GNGGA,174500.000,4000.585648,N,10514.616198,W,1,25,1.20,1609.194,M,-20.635,M,,*78
$GNGSA,A,3,17,30,19,13,07,06,,,,,,,1.64,1.20,1.12,1*0D
$GNGSA,A,3,88,81,68,,,,,,,,,,1.64,1.20,1.12,2*07
$GNGSA,A,3,26,33,04,,,,,,,,,,1.64,1.20,1.12,3*01
$GNGSA,A,3,46,30,37,29,,,,,,,,,1.64,1.20,1.12,4*08
$GPGSV,2,1,07,17,81,230,36,30,54,157,46,19,49,225,40,44,42,197,47,1*66
$GPGSV,2,2,07,13,35,256,29,07,22,146,48,06,06,180,47,1*5F
$GPGSV,1,1,02,30,54,157,37,06,06,180,40,8*67
$GLGSV,1,1,03,88,60,159,44,81,12,192,34,68,11,259,31,1*45
$GAGSV,1,1,04,26,45,100,42,09,28,285,15,33,28,159,46,04,26,229,41,7*74
$GAGSV,1,1,03,26,45,100,33,33,28,159,40,04,26,229,33,1*48
$GBGSV,1,1,04,46,68,105,34,30,57,186,41,37,14,120,36,29,07,210,45,1*7F
$GBGSV,1,1,04,46,68,105,30,30,57,186,34,37,14,120,30,29,07,210,39,5*70
$GNGLL,4000.585648,N,10514.616198,W,174500.000,A,A*54
$GNRMC,174501.000,A,4000.585648,N,10514.616240,W,0.01,0.00,220324,,,A,V*1A
$GNVTG,0.00,T,,M,0.01,N,0.01,K,A*23
$GNGGA,174501.000,4000.585648,N,10514.616240,W,1,25,1.20,1609.151,M,-20.634,M,,*77
$GNGSA,A,3,17,30,19,13,07,06,,,,,,,1.64,1.20,1.12,1*0D
$GNGSA,A,3,88,81,68,,,,,,,,,,1.64,1.20,1.12,2*07
$GNGSA,A,3,26,33,04,,,,,,,,,,1.64,1.20,1.12,3*01
$GNGSA,A,3,46,30,37,29,,,,,,,,,1.64,1.20,1.12,4*08
$GPGSV,2,1,07,17,81,230,36,30,54,157,46,19,49,225,39,44,42,197,47,1*68
$GPGSV,2,2,07,13,35,256,30,07,22,146,48,06,06,180,47,1*57
$GPGSV,1,1,02,30,54,157,38,06,06,180,40,8*68
$GLGSV,1,1,03,88,60,159,44,81,12,192,33,68,11,259,29,1*4B
$GAGSV,1,1,04,26,45,100,42,09,28,285,15,33,28,159,46,04,26,229,41,7*74
$GAGSV,1,1,03,26,45,100,33,33,28,159,40,04,26,229,34,1*4F
$GBGSV,1,1,04,46,68,105,34,30,57,186,41,37,14,120,35,29,07,210,44,1*7D
$GBGSV,1,1,04,46,68,105,30,30,57,186,34,37,14,120,30,29,07,210,39,5*70
$GNGLL,4000.585648,N,10514.616240,W,174501.000,A,A*53
$GNRMC,174502.000,A,4000.585528,N,10514.616288,W,0.02,0.00,220324,,,A,V*1B
$GNVTG,0.00,T,,M,0.02,N,0.03,K,A*22
$GNGGA,174502.000,4000.585528,N,10514.616288,W,1,25,1.20,1609.218,M,-20.635,M,,*7A
$GNGSA,A,3,17,30,19,13,07,06,,,,,,,1.64,1.20,1.12,1*0D
$GNGSA,A,3,88,81,68,,,,,,,,,,1.64,1.20,1.12,2*07
$GNGSA,A,3,26,33,04,,,,,,,,,,1.64,1.20,1.12,3*01
$GNGSA,A,3,46,30,37,29,,,,,,,,,1.64,1.20,1.12,4*08
$GPGSV,2,1,08,17,81,230,36,30,54,157,46,19,49,225,38,44,42,197,47,1*66
$GPGSV,2,2,08,13,35,256,29,07,22,146,47,06,06,180,47,01,,,17,1*58
$GPGSV,1,1,03,30,54,157,38,06,06,180,40,01,,,19,8*60
$GLGSV,1,1,03,88,60,159,44,81,12,192,33,68,11,259,21,1*43
$GAGSV,1,1,04,26,45,100,42,33,28,159,46,09,28,285,15,04,26,229,42,7*77
$GAGSV,1,1,03,26,45,100,33,33,28,159,40,04,26,229,35,1*4E
$GBGSV,1,1,04,46,68,105,34,30,57,186,41,37,14,120,35,29,07,210,44,1*7D
$GBGSV,1,1,04,46,68,105,30,30,57,186,34,37,14,120,30,29,07,210,39,5*70
$GNGLL,4000.585528,N,10514.616288,W,174502.000,A,A*51
$PAIR010,0,0,2306,496040*33
$PAIR010,0,1,2306,496040*32
$PAIR010,0,3,2306,496040*30
$PAIR010,0,2,2306,496040*31
$GNRMC,174503.000,A,4000.585450,N,10514.616342,W,0.01,0.00,220324,,,A,V*10
$GNVTG,0.00,T,,M,0.01,N,0.02,K,A*20
$GNGGA,174503.000,4000.585450,N,10514.616342,W,1,25,1.20,1609.306,M,-20.635,M,,*7C
$GNGSA,A,3,17,30,19,13,07,06,,,,,,,1.64,1.20,1.12,1*0D
$GNGSA,A,3,88,81,68,,,,,,,,,,1.64,1.20,1.12,2*07
$GNGSA,A,3,26,33,04,,,,,,,,,,1.64,1.20,1.12,3*01
$GNGSA,A,3,46,30,37,29,,,,,,,,,1.64,1.20,1.12,4*08
$GPGSV,2,1,08,17,81,230,36,30,54,157,46,19,49,225,37,44,42,197,47,1*69
$GPGSV,2,2,08,13,35,256,29,07,22,146,47,06,06,180,47,01,,,18,1*57
$GPGSV,1,1,03,30,54,157,38,06,06,180,40,01,,,19,8*60
$GLGSV,1,1,03,88,60,159,44,81,12,192,33,68,11,259,22,1*40
$GAGSV,1,1,04,26,45,100,42,33,28,159,46,09,28,285,15,04,26,229,42,7*77
$GAGSV,1,1,03,26,45,100,33,33,28,159,40,04,26,229,35,1*4E
$GBGSV,1,1,04,46,68,105,35,30,57,186,42,37,14,120,35,29,07,210,44,1*7F
$GBGSV,1,1,04,46,68,105,30,30,57,186,34,37,14,120,30,29,07,210,39,5*70
$GNGLL,4000.585450,N,10514.616342,W,174503.000,A,A*59
$GNRMC,174504.000,A,4000.585504,N,10514.616324,W,0.02,0.00,220324,,,A,V*14
$GNVTG,0.00,T,,M,0.02,N,0.04,K,A*25
$GNGGA,174504.000,4000.585504,N,10514.616324,W,1,25,1.20,1609.224,M,-20.635,M,,*7A
$GNGSA,A,3,17,30,19,13,07,06,,,,,,,1.64,1.20,1.12,1*0D
$GNGSA,A,3,88,81,68,,,,,,,,,,1.64,1.20,1.12,2*07
$GNGSA,A,3,26,33,04,,,,,,,,,,1.64,1.20,1.12,3*01
$GNGSA,A,3,46,30,37,29,,,,,,,,,1.64,1.20,1.12,4*08
$GPGSV,2,1,08,17,81,230,36,30,54,157,47,19,49,225,37,44,42,197,47,1*68
$GPGSV,2,2,08,13,35,256,30,07,22,146,47,06,06,180,47,01,,,19,1*5E
$GPGSV,1,1,03,30,54,157,38,06,06,180,40,01,,,19,8*60
$GLGSV,1,1,03,88,60,159,44,81,12,192,34,68,11,259,22,1*47
$GAGSV,1,1,04,26,45,100,42,33,28,159,46,09,28,285,16,04,26,229,42,7*74
$GAGSV,1,1,03,26,45,100,33,33,28,159,40,04,26,229,35,1*4E
$GBGSV,1,1,04,46,68,105,35,30,57,186,42,37,14,120,35,29,07,210,44,1*7F
$GBGSV,1,1,04,46,68,105,30,30,57,186,34,37,14,120,30,29,07,210,40,5*7E
$GNGLL,4000.585504,N,10514.616324,W,174504.000,A,A*5E
$GNRMC,174505.000,A,4000.585474,N,10514.616342,W,0.02,0.00,220324,,,A,V*13
$GNVTG,0.00,T,,M,0.02,N,0.04,K,A*25
$GNGGA,174505.000,4000.585474,N,10514.616342,W,1,25,1.20,1609.247,M,-20.635,M,,*78
$GNGSA,A,3,17,30,19,13,07,06,,,,,,,1.64,1.20,1.12,1*0D
$GNGSA,A,3,88,81,68,,,,,,,,,,1.64,1.20,1.12,2*07
$GNGSA,A,3,26,33,04,,,,,,,,,,1.64,1.20,1.12,3*01
$GNGSA,A,3,46,30,37,29,,,,,,,,,1.64,1.20,1.12,4*08
$GPGSV,2,1,08,17,81,230,36,30,54,157,47,19,49,225,37,44,42,197,47,1*68
$GPGSV,2,2,08,13,35,256,29,07,22,146,47,06,06,180,47,01,,,18,1*57
$GPGSV,1,1,03,30,54,157,38,06,06,180,40,01,,,19,8*60
$GLGSV,1,1,03,88,60,159,44,81,12,192,41,68,11,259,22,1*45
$GAGSV,1,1,04,26,45,100,42,33,28,159,46,09,28,285,17,04,26,229,42,7*75
$GAGSV,1,1,03,26,45,100,33,33,28,159,40,04,26,229,35,1*4E
$GBGSV,1,1,04,46,68,105,35,30,57,186,41,37,14,120,34,29,07,210,43,1*7A
$GBGSV,1,1,04,46,68,105,30,30,57,186,33,37,14,120,30,29,07,210,39,5*77
$GNGLL,4000.585474,N,10514.616342,W,174505.000,A,A*59
$GNRMC,174506.000,A,4000.585474,N,10514.616336,W,0.02,0.00,220324,,,A,V*13
$GNVTG,0.00,T,,M,0.02,N,0.04,K,A*25
$GNGGA,174506.000,4000.585474,N,10514.616336,W,1,25,1.20,1609.226,M,-20.635,M,,*7F
$GNGSA,A,3,17,30,19,13,07,06,,,,,,,1.64,1.20,1.12,1*0D
$GNGSA,A,3,88,81,68,,,,,,,,,,1.64,1.20,1.12,2*07
$GNGSA,A,3,26,33,04,,,,,,,,,,1.64,1.20,1.12,3*01
$GNGSA,A,3,46,30,37,29,,,,,,,,,1.64,1.20,1.12,4*08
$GPGSV,2,1,08,17,81,230,36,30,54,157,47,19,49,225,37,44,42,197,47,1*68
$GPGSV,2,2,08,13,35,256,28,07,22,146,47,06,06,180,47,01,,,17,1*59
$GPGSV,1,1,03,30,54,157,38,06,06,180,40,01,,,19,8*60
$GLGSV,1,1,04,88,60,159,44,87,47,044,27,81,12,192,40,68,11,259,21,1*79
$GAGSV,2,1,05,26,45,100,42,33,28,159,46,09,28,285,19,04,26,229,42,7*79
$GAGSV,2,2,05,13,20,042,,7*40
$GAGSV,1,1,03,26,45,100,33,33,28,159,40,04,26,229,35,1*4E
$GBGSV,1,1,04,46,68,105,35,30,57,186,41,37,14,120,34,29,07,210,43,1*7A
$GBGSV,1,1,04,46,68,105,30,30,57,186,33,37,14,120,29,29,07,210,39,5*7F
$GNGLL,4000.585474,N,10514.616336,W,174506.000,A,A*59
$GNRMC,174507.000,A,4000.585468,N,10514.616342,W,0.01,0.00,220324,,,A,V*1F
$GNVTG,0.00,T,,M,0.01,N,0.01,K,A*23
$GNGGA,174507.000,4000.585468,N,10514.616342,W,1,25,1.20,1609.218,M,-20.634,M,,*7C
$GNGSA,A,3,17,30,19,13,07,06,,,,,,,1.64,1.20,1.12,1*0D
$GNGSA,A,3,88,81,68,,,,,,,,,,1.64,1.20,1.12,2*07
$GNGSA,A,3,26,33,04,,,,,,,,,,1.64,1.20,1.12,3*01
$GNGSA,A,3,46,30,37,29,,,,,,,,,1.64,1.20,1.12,4*08
$GPGSV,2,1,08,17,81,230,36,30,54,157,47,19,49,225,37,44,42,197,47,1*68
$GPGSV,2,2,08,13,35,256,25,07,22,146,47,06,06,180,47,01,,,18,1*5B
$GPGSV,1,1,03,30,54,157,38,06,06,180,40,01,,,19,8*60
$GLGSV,1,1,04,88,60,159,44,87,47,044,27,81,12,192,39,68,11,259,20,1*76
$GAGSV,2,1,05,26,45,100,41,33,28,159,46,09,28,285,20,04,26,229,42,7*70
$GAGSV,2,2,05,13,20,042,,7*40
$GAGSV,1,1,03,26,45,100,33,33,28,159,40,04,26,229,35,1*4E
$GBGSV,1,1,04,46,68,105,35,30,57,186,41,37,14,120,34,29,07,210,43,1*7A
$GBGSV,1,1,04,46,68,105,30,30,57,186,33,37,14,120,30,29,07,210,39,5*77
$GNGLL,4000.585468,N,10514.616342,W,174507.000,A,A*56
$GNRMC,174508.000,A,4000.585468,N,10514.616342,W,0.01,0.00,220324,,,A,V*10
$GNVTG,0.00,T,,M,0.01,N,0.02,K,A*20
$GNGGA,174508.000,4000.585468,N,10514.616342,W,1,24,1.25,1609.203,M,-20.635,M,,*7C
$GNGSA,A,3,17,30,19,07,06,,,,,,,,1.68,1.25,1.12,1*06
$GNGSA,A,3,88,81,68,,,,,,,,,,1.68,1.25,1.12,2*0E
$GNGSA,A,3,26,33,04,,,,,,,,,,1.68,1.25,1.12,3*08
$GNGSA,A,3,46,30,37,29,,,,,,,,,1.68,1.25,1.12,4*01
$GPGSV,2,1,08,17,81,230,36,30,54,157,47,19,49,225,38,44,42,197,47,1*67
$GPGSV,2,2,08,13,35,256,,07,22,146,47,06,06,180,47,01,,,20,1*57
$GPGSV,1,1,03,30,54,157,38,06,06,180,40,01,,,18,8*61
$GLGSV,1,1,04,88,60,159,44,87,47,044,23,81,12,192,40,68,11,259,19,1*76
$GAGSV,2,1,05,26,45,100,40,33,28,159,46,09,28,285,21,04,26,229,42,7*70
$GAGSV,2,2,05,13,20,042,,7*40
$GAGSV,1,1,03,26,45,100,32,33,28,159,40,04,26,229,35,1*4F
$GBGSV,1,1,04,46,68,105,34,30,57,186,41,37,14,120,34,29,07,210,43,1*7B
$GBGSV,1,1,04,46,68,105,30,30,57,186,33,37,14,120,29,29,07,210,38,5*7E
$GNGLL,4000.585468,N,10514.616342,W,174508.000,A,A*59
$GNRMC,174509.000,A,4000.585462,N,10514.616342,W,0.01,0.00,220324,,,A,V*1B
$GNVTG,0.00,T,,M,0.01,N,0.01,K,A*23
$GNGGA,174509.000,4000.585462,N,10514.616342,W,1,24,1.25,1609.192,M,-20.634,M,,*7D
$GNGSA,A,3,17,30,19,07,06,,,,,,,,1.68,1.25,1.12,1*06
$GNGSA,A,3,88,81,68,,,,,,,,,,1.68,1.25,1.12,2*0E
$GNGSA,A,3,26,33,04,,,,,,,,,,1.68,1.25,1.12,3*08
$GNGSA,A,3,46,30,37,29,,,,,,,,,1.68,1.25,1.12,4*01
$GPGSV,2,1,08,17,81,230,36,30,54,157,47,19,49,225,38,44,42,197,47,1*67
$GPGSV,2,2,08,13,35,256,,07,22,146,47,06,06,180,47,01,,,29,1*5E
$GPGSV,1,1,03,30,54,157,38,06,06,180,39,01,,,17,8*60
$GLGSV,1,1,04,88,60,159,44,87,47,044,21,81,12,192,40,68,11,259,30,1*7F
$GAGSV,2,1,05,26,45,100,40,33,28,159,46,09,28,285,21,04,26,229,42,7*70
$GAGSV,2,2,05,13,20,042,,7*40
$GAGSV,1,1,03,26,45,100,32,33,28,159,40,04,26,229,35,1*4F
$GBGSV,1,1,04,46,68,105,33,30,57,186,41,37,14,120,35,29,07,210,42,1*7C
$GBGSV,1,1,04,46,68,105,30,30,57,186,33,37,14,120,29,29,07,210,38,5*7E
$GNGLL,4000.585462,N,10514.616342,W,174509.000,A,A*52
$GNRMC,174510.000,A,4000.585468,N,10514.616342,W,0.02,0.00,220324,,,A,V*1A
$GNVTG,0.00,T,,M,0.02,N,0.04,K,A*25
$GNGGA,174510.000,4000.585468,N,10514.616342,W,1,24,1.25,1609.187,M,-20.635,M,,*7A
$GNGSA,A,3,17,30,19,07,06,,,,,,,,1.68,1.25,1.12,1*06
$GNGSA,A,3,88,81,68,,,,,,,,,,1.68,1.25,1.12,2*0E
$GNGSA,A,3,26,33,04,,,,,,,,,,1.68,1.25,1.12,3*08
$GNGSA,A,3,46,30,37,29,,,,,,,,,1.68,1.25,1.12,4*01
$GPGSV,2,1,08,17,81,230,35,30,54,157,46,19,49,225,38,44,42,197,47,1*65
$GPGSV,2,2,08,13,35,256,,07,22,146,47,06,06,180,47,01,,,28,1*5F
$GPGSV,1,1,03,30,54,157,39,06,06,180,39,01,,,17,8*61
$GLGSV,1,1,04,88,60,159,44,87,47,044,24,81,12,192,41,68,11,259,33,1*78
$GAGSV,2,1,05,26,45,100,40,33,28,159,46,09,28,285,22,04,26,229,42,7*73
$GAGSV,2,2,05,13,20,042,,7*40
$GAGSV,1,1,03,26,45,100,32,33,28,159,40,04,26,229,35,1*4F
$GBGSV,1,1,04,46,68,105,32,30,57,186,41,37,14,120,36,29,07,210,42,1*7E
$GBGSV,1,1,04,46,68,105,31,30,57,186,33,37,14,120,30,29,07,210,38,5*77
$GNGLL,4000.585468,N,10514.616342,W,174510.000,A,A*50
$GNRMC,174511.000,A,4000.585468,N,10514.616342,W,0.01,0.00,220324,,,A,V*18
$GNVTG,0.00,T,,M,0.01,N,0.01,K,A*23
$GNGGA,174511.000,4000.585468,N,10514.616342,W,1,24,1.25,1609.181,M,-20.635,M,,*7D
$GNGSA,A,3,17,30,19,07,06,,,,,,,,1.68,1.25,1.12,1*06
$GNGSA,A,3,88,81,68,,,,,,,,,,1.68,1.25,1.12,2*0E
$GNGSA,A,3,26,33,04,,,,,,,,,,1.68,1.25,1.12,3*08
$GNGSA,A,3,46,30,37,29,,,,,,,,,1.68,1.25,1.12,4*01
$GPGSV,2,1,08,17,81,230,35,30,54,157,46,19,49,225,38,44,42,197,47,1*65
$GPGSV,2,2,08,13,35,256,,07,22,146,47,06,06,180,47,01,,,28,1*5F
$GPGSV,1,1,03,30,54,157,40,06,06,180,40,01,,,17,8*61
$GLGSV,1,1,04,88,60,159,44,87,47,044,26,81,12,192,41,68,11,259,37,1*7E
$GAGSV,2,1,05,26,45,100,40,33,28,159,46,09,28,285,23,04,26,229,42,7*72
$GAGSV,2,2,05,13,20,042,,7*40
$GAGSV,1,1,03,26,45,100,32,33,28,159,41,04,26,229,36,1*4D
$GBGSV,1,1,04,46,68,105,31,30,57,186,41,37,14,120,37,29,07,210,42,1*7C
$GBGSV,1,1,04,46,68,105,32,30,57,186,34,37,14,120,30,29,07,210,39,5*72
$GNGLL,4000.585468,N,10514.616342,W,174511.000,A,A*51
$GNRMC,174512.000,A,4000.585468,N,10514.616342,W,0.01,0.00,220324,,,A,V*1B
$GNVTG,0.00,T,,M,0.01,N,0.01,K,A*23
$GNGGA,174512.000,4000.585468,N,10514.616342,W,1,24,1.25,1609.175,M,-20.635,M,,*75
$GNGSA,A,3,17,30,19,07,06,,,,,,,,1.68,1.25,1.12,1*06
$GNGSA,A,3,88,81,68,,,,,,,,,,1.68,1.25,1.12,2*0E
$GNGSA,A,3,26,33,04,,,,,,,,,,1.68,1.25,1.12,3*08
$GNGSA,A,3,46,30,37,29,,,,,,,,,1.68,1.25,1.12,4*01
$GPGSV,2,1,08,17,81,230,35,30,54,157,46,19,49,225,38,44,42,197,47,1*65
$GPGSV,2,2,08,13,35,256,,07,22,146,47,06,06,180,47,01,,,27,1*50
$GPGSV,1,1,03,30,54,157,40,06,06,180,40,01,,,17,8*61
$GLGSV,1,1,04,88,60,159,43,87,47,044,26,81,12,192,41,68,11,259,37,1*79
$GAGSV,2,1,05,26,45,100,40,33,28,159,46,09,28,285,23,04,26,229,42,7*72
$GAGSV,2,2,05,13,20,042,22,7*40
$GAGSV,1,1,03,26,45,100,33,33,28,159,41,04,26,229,36,1*4C
$GBGSV,1,1,04,46,68,105,31,30,57,186,41,37,14,120,37,29,07,210,42,1*7C
$GBGSV,1,1,04,46,68,105,32,30,57,186,34,37,14,120,30,29,07,210,39,5*72
$GNGLL,4000.585468,N,10514.616342,W,174512.000,A,A*52
$GNRMC,174513.000,A,4000.585462,N,10514.616342,W,0.01,0.00,220324,,,A,V*10
$GNVTG,0.00,T,,M,0.01,N,0.02,K,A*20
$GNGGA,174513.000,4000.585462,N,10514.616342,W,1,24,1.25,1609.167,M,-20.635,M,,*7D
$GNGSA,A,3,17,30,19,07,06,,,,,,,,1.68,1.25,1.12,1*06
$GNGSA,A,3,88,81,68,,,,,,,,,,1.68,1.25,1.12,2*0E
$GNGSA,A,3,26,33,04,,,,,,,,,,1.68,1.25,1.12,3*08
$GNGSA,A,3,46,30,37,29,,,,,,,,,1.68,1.25,1.12,4*01
$GPGSV,2,1,08,17,81,230,35,30,54,157,46,19,49,225,38,44,42,197,47,1*65
$GPGSV,2,2,08,13,35,256,,07,22,146,47,06,06,180,47,01,,,26,1*51
$GPGSV,1,1,03,30,54,157,39,06,06,180,40,01,,,17,8*6F
$GLGSV,1,1,04,88,60,159,43,87,47,044,26,81,12,192,40,68,11,259,37,1*78
$GAGSV,2,1,05,26,45,100,40,33,28,159,46,09,28,285,23,04,26,229,42,7*72
$GAGSV,2,2,05,13,20,042,21,7*43
$GAGSV,1,1,03,26,45,100,32,33,28,159,41,04,26,229,36,1*4D
$GBGSV,1,1,04,46,68,105,30,30,57,186,40,37,14,120,37,29,07,210,41,1*7F
$GBGSV,1,1,04,46,68,105,31,30,57,186,34,37,14,120,29,29,07,210,39,5*79
$GNGLL,4000.585462,N,10514.616342,W,174513.000,A,A*59
$GNRMC,174514.000,A,4000.585468,N,10514.616336,W,0.01,0.00,220324,,,A,V*1E
$GNVTG,0.00,T,,M,0.01,N,0.01,K,A*23
$GNGGA,174514.000,4000.585468,N,10514.616336,W,1,24,1.25,1609.161,M,-20.635,M,,*75
$GNGSA,A,3,17,30,19,07,06,,,,,,,,1.68,1.25,1.12,1*06
$GNGSA,A,3,88,81,68,,,,,,,,,,1.68,1.25,1.12,2*0E
$GNGSA,A,3,26,33,04,,,,,,,,,,1.68,1.25,1.12,3*08
$GNGSA,A,3,46,30,37,29,,,,,,,,,1.68,1.25,1.12,4*01
$GPGSV,2,1,07,17,81,230,35,30,54,157,46,19,49,225,39,44,42,197,47,1*6B
$GPGSV,2,2,07,13,35,256,,07,22,146,47,06,06,180,47,1*5B
$GPGSV,1,1,02,30,54,157,38,06,06,180,39,8*66
$GLGSV,1,1,04,88,60,159,43,87,47,044,24,81,12,192,40,68,11,259,38,1*75
$GAGSV,2,1,05,26,45,100,39,09,28,285,22,33,28,159,46,04,26,229,41,7*7E
$GAGSV,2,2,05,13,20,042,22,7*40
$GAGSV,1,1,03,26,45,100,31,33,28,159,40,04,26,229,35,1*4C
$GBGSV,1,1,04,46,68,105,30,30,57,186,39,37,14,120,37,29,07,210,41,1*71
$GBGSV,1,1,04,46,68,105,30,30,57,186,33,37,14,120,29,29,07,210,38,5*7E
$GNGLL,4000.585468,N,10514.616336,W,174514.000,A,A*57
$GNRMC,174515.000,A,4000.585468,N,10514.616330,W,0.02,0.00,220324,,,A,V*1A
$GNVTG,0.00,T,,M,0.02,N,0.03,K,A*22
$GNGGA,174515.000,4000.585468,N,10514.616330,W,1,24,1.25,1609.159,M,-20.635,M,,*79
$GNGSA,A,3,17,30,19,07,06,,,,,,,,1.68,1.25,1.12,1*06
$GNGSA,A,3,88,81,68,,,,,,,,,,1.68,1.25,1.12,2*0E
$GNGSA,A,3,26,33,04,,,,,,,,,,1.68,1.25,1.12,3*08
$GNGSA,A,3,46,30,37,29,,,,,,,,,1.68,1.25,1.12,4*01
$GPGSV,2,1,07,17,81,230,36,30,54,157,46,19,49,225,40,44,42,197,47,1*66
$GPGSV,2,2,07,13,35,256,,07,22,146,47,06,06,180,47,1*5B
$GPGSV,1,1,02,30,54,157,38,06,06,180,39,8*66
$GLGSV,1,1,04,88,60,159,43,87,47,044,16,81,12,192,40,68,11,259,38,1*74
$GAGSV,2,1,05,26,45,100,39,09,28,285,22,33,28,159,46,04,26,229,41,7*7E
$GAGSV,2,2,05,13,20,042,24,7*46
$GAGSV,1,1,03,26,45,100,32,33,28,159,40,04,26,229,35,1*4F
$GBGSV,1,1,04,46,68,105,30,30,57,186,39,37,14,120,36,29,07,210,40,1*71
$GBGSV,1,1,04,46,68,105,30,30,57,186,33,37,14,120,28,29,07,210,38,5*7F
$GNGLL,4000.585468,N,10514.616330,W,174515.000,A,A*50
$GNRMC,174516.000,A,4000.585462,N,10514.616324,W,0.01,0.00,220324,,,A,V*15
$GNVTG,0.00,T,,M,0.01,N,0.02,K,A*20
$GNGGA,174516.000,4000.585462,N,10514.616324,W,1,24,1.25,1609.153,M,-20.635,M,,*7F
$GNGSA,A,3,17,30,19,07,06,,,,,,,,1.68,1.25,1.12,1*06
$GNGSA,A,3,88,81,68,,,,,,,,,,1.68,1.25,1.12,2*0E
$GNGSA,A,3,26,33,04,,,,,,,,,,1.68,1.25,1.12,3*08
$GNGSA,A,3,46,30,37,29,,,,,,,,,1.68,1.25,1.12,4*01
$GPGSV,2,1,07,17,81,230,36,30,54,157,46,19,49,225,40,44,42,197,47,1*66
$GPGSV,2,2,07,13,35,256,,07,22,146,47,06,06,180,47,1*5B
$GPGSV,1,1,02,30,54,157,38,06,06,180,39,8*66
$GLGSV,1,1,04,88,60,159,43,87,47,044,17,81,12,192,40,68,11,259,38,1*75
$GAGSV,2,1,05,26,45,100,39,09,28,285,21,33,28,159,46,04,26,229,41,7*7D
$GAGSV,2,2,05,13,20,042,23,7*41
$GAGSV,1,1,03,26,45,100,33,33,28,159,40,04,26,229,35,1*4E
$GBGSV,1,1,04,46,68,105,31,30,57,186,39,37,14,120,36,29,07,210,40,1*70
$GBGSV,1,1,04,46,68,105,30,30,57,186,34,37,14,120,27,29,07,210,38,5*77
$GNGLL,4000.585462,N,10514.616324,W,174516.000,A,A*5C
$GNRMC,174517.000,A,4000.585450,N,10514.616324,W,0.03,0.00,220324,,,A,V*17
$GNVTG,0.00,T,,M,0.03,N,0.06,K,A*26
$GNGGA,174517.000,4000.585450,N,10514.616324,W,1,24,1.25,1609.138,M,-20.635,M,,*72
$GNGSA,A,3,17,30,19,07,06,,,,,,,,1.68,1.25,1.12,1*06
$GNGSA,A,3,88,81,68,,,,,,,,,,1.68,1.25,1.12,2*0E
$GNGSA,A,3,26,33,04,,,,,,,,,,1.68,1.25,1.12,3*08
$GNGSA,A,3,46,30,37,29,,,,,,,,,1.68,1.25,1.12,4*01
$GPGSV,2,1,07,17,81,230,36,30,54,157,46,19,49,225,40,44,42,197,47,1*66
$GPGSV,2,2,07,13,35,256,,07,22,146,47,06,06,180,47,1*5B
$GPGSV,1,1,02,30,54,157,38,06,06,180,39,8*66
$GLGSV,1,1,04,88,60,159,44,87,47,044,25,81,12,192,41,68,11,259,38,1*72
$GAGSV,2,1,05,26,45,100,39,09,28,285,21,33,28,159,46,04,26,229,41,7*7D
$GAGSV,2,2,05,13,20,042,24,7*46
$GAGSV,1,1,03,26,45,100,33,33,28,159,40,04,26,229,35,1*4E
$GBGSV,1,1,04,46,68,105,32,30,57,186,39,37,14,120,36,29,07,210,40,1*73
$GBGSV,1,1,04,46,68,105,30,30,57,186,34,37,14,120,27,29,07,210,38,5*77
$GNGLL,4000.585450,N,10514.616324,W,174517.000,A,A*5C
$GNRMC,174518.000,A,4000.585456,N,10514.616312,W,0.02,0.00,220324,,,A,V*1A
$GNVTG,0.00,T,,M,0.02,N,0.04,K,A*25
$GNGGA,174518.000,4000.585456,N,10514.616312,W,1,25,1.20,1609.139,M,-20.635,M,,*7B
$GNGSA,A,3,17,30,19,13,07,06,,,,,,,1.64,1.20,1.12,1*0D
$GNGSA,A,3,88,81,68,,,,,,,,,,1.64,1.20,1.12,2*07
$GNGSA,A,3,26,33,04,,,,,,,,,,1.64,1.20,1.12,3*01
$GNGSA,A,3,46,30,37,29,,,,,,,,,1.64,1.20,1.12,4*08
$GPGSV,2,1,07,17,81,230,36,30,54,157,46,19,49,225,40,44,42,197,47,1*66
$GPGSV,2,2,07,13,35,256,20,07,22,146,47,06,06,180,47,1*59
$GPGSV,1,1,02,30,54,157,38,06,06,180,39,8*66
$GLGSV,1,1,04,88,60,159,45,87,47,044,26,81,12,192,41,68,11,259,38,1*70
$GAGSV,2,1,05,26,45,100,39,09,28,285,21,33,28,159,46,04,26,229,41,7*7D
$GAGSV,2,2,05,13,20,042,24,7*46
$GAGSV,1,1,03,26,45,100,33,33,28,159,40,04,26,229,35,1*4E
$GBGSV,1,1,04,46,68,105,33,30,57,186,39,37,14,120,36,29,07,210,40,1*72
$GBGSV,1,1,04,46,68,105,30,30,57,186,34,37,14,120,27,29,07,210,39,5*76
$GNGLL,4000.585456,N,10514.616312,W,174518.000,A,A*50
$GNRMC,174519.000,A,4000.585462,N,10514.616312,W,0.00,0.00,220324,,,A,V*1E
$GNVTG,0.00,T,,M,0.00,N,0.01,K,A*22
$GNGGA,174519.000,4000.585462,N,10514.616312,W,1,24,1.25,1609.127,M,-20.635,M,,*76
$GNGSA,A,3,17,30,19,07,06,,,,,,,,1.68,1.25,1.12,1*06
$GNGSA,A,3,88,81,68,,,,,,,,,,1.68,1.25,1.12,2*0E
$GNGSA,A,3,26,33,04,,,,,,,,,,1.68,1.25,1.12,3*08
$GNGSA,A,3,46,30,37,29,,,,,,,,,1.68,1.25,1.12,4*01
$GPGSV,2,1,07,17,81,230,36,30,54,157,46,19,49,225,40,44,42,197,47,1*66
$GPGSV,2,2,07,13,35,256,,07,22,146,47,06,06,180,47,1*5B
$GPGSV,1,1,03,30,54,157,38,06,06,180,39,01,,,17,8*60
$GLGSV,1,1,04,88,60,159,45,87,47,044,26,81,12,192,41,68,11,259,38,1*70
$GAGSV,2,1,05,26,45,100,39,09,28,285,21,33,28,159,46,04,26,229,41,7*7D
$GAGSV,2,2,05,13,20,042,24,7*46
$GAGSV,1,1,03,26,45,100,33,33,28,159,40,04,26,229,35,1*4E
$GBGSV,1,1,04,46,68,105,34,30,57,186,39,37,14,120,36,29,07,210,40,1*75
$GBGSV,1,1,04,46,68,105,30,30,57,186,34,37,14,120,27,29,07,210,39,5*76
$GNGLL,4000.585462,N,10514.616312,W,174519.000,A,A*56
$GNRMC,174520.000,A,4000.585462,N,10514.616306,W,0.00,0.00,220324,,,A,V*11
$GNVTG,0.00,T,,M,0.00,N,0.01,K,A*22
$GNGGA,174520.000,4000.585462,N,10514.616306,W,1,24,1.25,1609.113,M,-20.635,M,,*7E
$GNGSA,A,3,17,30,19,07,06,,,,,,,,1.68,1.25,1.12,1*06
$GNGSA,A,3,88,81,68,,,,,,,,,,1.68,1.25,1.12,2*0E
$GNGSA,A,3,26,33,04,,,,,,,,,,1.68,1.25,1.12,3*08
$GNGSA,A,3,46,30,37,29,,,,,,,,,1.68,1.25,1.12,4*01
$GPGSV,2,1,07,17,81,230,35,30,54,157,46,19,49,225,40,44,42,197,47,1*65
$GPGSV,2,2,07,13,35,256,,07,22,146,47,06,06,180,47,1*5B
$GPGSV,1,1,03,30,54,157,38,06,06,180,38,01,,,17,8*61
$GLGSV,1,1,04,88,60,159,45,87,47,044,25,81,12,192,41,68,11,259,37,1*7C
$GAGSV,2,1,05,26,45,100,39,09,28,285,21,33,28,159,46,04,26,229,41,7*7D
$GAGSV,2,2,05,13,20,042,24,7*46
$GAGSV,1,1,03,26,45,100,33,33,28,159,40,04,26,229,35,1*4E
$GBGSV,1,1,04,46,68,105,34,30,57,186,39,37,14,120,36,29,07,210,40,1*75
$GBGSV,1,1,04,46,68,105,30,30,57,186,34,37,14,120,26,29,07,210,39,5*77
$GNGLL,4000.585462,N,10514.616306,W,174520.000,A,A*59
$GNRMC,174521.000,A,4000.585468,N,10514.616312,W,0.00,0.00,220324,,,A,V*1F
$GNVTG,0.00,T,,M,0.00,N,0.01,K,A*22
$GNGGA,174521.000,4000.585468,N,10514.616312,W,1,24,1.25,1609.102,M,-20.635,M,,*70
$GNGSA,A,3,17,30,19,07,06,,,,,,,,1.68,1.25,1.12,1*06
$GNGSA,A,3,88,81,68,,,,,,,,,,1.68,1.25,1.12,2*0E
$GNGSA,A,3,26,33,04,,,,,,,,,,1.68,1.25,1.12,3*08
$GNGSA,A,3,46,30,37,29,,,,,,,,,1.68,1.25,1.12,4*01
$GPGSV,2,1,07,17,81,230,35,30,54,157,46,19,49,225,40,44,42,197,47,1*65
$GPGSV,2,2,07,13,35,256,,07,22,146,47,06,06,180,47,1*5B
$GPGSV,1,1,03,30,54,157,38,06,06,180,38,01,,,17,8*61
$GLGSV,1,1,04,88,60,159,45,87,47,044,24,81,12,192,41,68,11,259,38,1*72
$GAGSV,2,1,05,26,45,100,40,09,28,285,20,33,28,159,46,04,26,229,41,7*72
$GAGSV,2,2,05,13,20,042,24,7*46
$GAGSV,1,1,03,26,45,100,33,33,28,159,40,04,26,229,35,1*4E
$GBGSV,1,1,04,46,68,105,35,30,57,186,39,37,14,120,36,29,07,210,39,1*7A
$GBGSV,1,1,04,46,68,105,30,30,57,186,34,37,14,120,26,29,07,210,39,5*77
$GNGLL,4000.585468,N,10514.616312,W,174521.000,A,A*57
$GNRMC,174522.000,A,4000.585480,N,10514.616300,W,0.03,0.00,220324,,,A,V*1A
$GNVTG,0.00,T,,M,0.03,N,0.05,K,A*25
$GNGGA,174522.000,4000.585480,N,10514.616300,W,1,24,1.25,1609.106,M,-20.635,M,,*72
$GNGSA,A,3,17,30,19,07,06,,,,,,,,1.68,1.25,1.12,1*06
$GNGSA,A,3,88,81,68,,,,,,,,,,1.68,1.25,1.12,2*0E
$GNGSA,A,3,26,33,04,,,,,,,,,,1.68,1.25,1.12,3*08
$GNGSA,A,3,46,30,37,29,,,,,,,,,1.68,1.25,1.12,4*01
$GPGSV,2,1,07,17,81,230,35,30,54,157,46,19,49,225,40,44,42,197,47,1*65
$GPGSV,2,2,07,13,35,256,,07,22,146,47,06,06,180,46,1*5A
$GPGSV,1,1,03,30,54,157,38,06,06,180,38,01,,,17,8*61
$GLGSV,1,1,04,88,60,159,45,87,47,044,22,81,12,192,41,68,10,259,38,1*75
$GAGSV,2,1,05,26,45,100,40,09,28,285,19,33,28,159,46,04,26,229,41,7*78
$GAGSV,2,2,05,13,20,042,24,7*46
$GAGSV,1,1,03,26,45,100,33,33,28,159,40,04,26,229,35,1*4E
$GBGSV,1,1,04,46,68,105,35,30,57,186,39,37,14,120,36,29,07,210,38,1*7B
$GBGSV,1,1,04,46,68,105,30,30,57,186,34,37,14,120,27,29,07,210,39,5*76
$GNGLL,4000.585480,N,10514.616300,W,174522.000,A,A*51
$GNRMC,174523.000,A,4000.585492,N,10514.616300,W,0.03,0.00,220324,,,A,V*18
$GNVTG,0.00,T,,M,0.03,N,0.05,K,A*25
$GNGGA,174523.000,4000.585492,N,10514.616300,W,1,24,1.25,1609.105,M,-20.635,M,,*73
$GNGSA,A,3,17,30,19,07,06,,,,,,,,1.68,1.25,1.12,1*06
$GNGSA,A,3,88,81,68,,,,,,,,,,1.68,1.25,1.12,2*0E
$GNGSA,A,3,26,33,04,,,,,,,,,,1.68,1.25,1.12,3*08
$GNGSA,A,3,46,30,37,29,,,,,,,,,1.68,1.25,1.12,4*01
$GPGSV,2,1,07,17,81,230,35,30,54,157,46,19,49,225,40,44,42,197,47,1*65
$GPGSV,2,2,07,13,35,256,,07,22,146,48,06,06,180,46,1*55
$GPGSV,1,1,03,30,54,157,38,06,06,180,38,01,,,17,8*61
$GLGSV,1,1,04,88,60,159,45,87,47,044,20,81,12,192,41,68,10,259,38,1*77
$GAGSV,2,1,05,26,45,100,40,09,28,285,17,33,28,159,46,04,26,229,41,7*76
$GAGSV,2,2,05,13,20,042,24,7*46
$GAGSV,1,1,03,26,45,100,33,33,28,159,40,04,26,229,35,1*4E
$GBGSV,1,1,04,46,68,105,35,30,57,186,38,37,14,120,36,29,07,210,38,1*7A
$GBGSV,1,1,04,46,68,105,30,30,57,186,34,37,14,120,26,29,07,210,39,5*77
$GNGLL,4000.585492,N,10514.616300,W,174523.000,A,A*53
$GNRMC,174524.000,A,4000.585504,N,10514.616294,W,0.01,0.00,220324,,,A,V*1F
$GNVTG,0.00,T,,M,0.01,N,0.02,K,A*20
$GNGGA,174524.000,4000.585504,N,10514.616294,W,1,24,1.25,1609.096,M,-20.635,M,,*7D
$GNGSA,A,3,17,30,19,07,06,,,,,,,,1.68,1.25,1.12,1*06
$GNGSA,A,3,88,81,68,,,,,,,,,,1.68,1.25,1.12,2*0E
$GNGSA,A,3,26,33,04,,,,,,,,,,1.68,1.25,1.12,3*08
$GNGSA,A,3,46,30,37,29,,,,,,,,,1.68,1.25,1.12,4*01
$GPGSV,2,1,07,17,81,230,35,30,54,157,46,19,49,225,40,44,42,197,47,1*65
$GPGSV,2,2,07,13,35,256,,07,22,146,48,06,06,180,46,1*55
$GPGSV,1,1,03,30,54,157,38,06,06,180,38,01,,,17,8*61
$GLGSV,1,1,04,88,60,159,45,87,47,044,12,81,12,192,41,68,10,259,38,1*76
$GAGSV,2,1,05,26,45,100,40,09,28,285,15,33,28,159,46,04,26,229,41,7*74
$GAGSV,2,2,05,13,20,042,24,7*46
$GAGSV,1,1,03,26,45,100,33,33,28,159,40,04,26,229,35,1*4E
$GBGSV,1,1,04,46,68,105,36,30,57,186,38,37,14,120,37,29,07,210,39,1*79
$GBGSV,1,1,04,46,68,105,31,30,57,186,34,37,14,120,27,29,07,210,40,5*79
$GNGLL,4000.585504,N,10514.616294,W,174524.000,A,A*56
$GNRMC,174525.000,A,4000.585498,N,10514.616300,W,0.02,0.00,220324,,,A,V*15
$GNVTG,0.00,T,,M,0.02,N,0.03,K,A*22
$GNGGA,174525.000,4000.585498,N,10514.616300,W,1,24,1.25,1609.086,M,-20.635,M,,*75
$GNGSA,A,3,17,30,19,07,06,,,,,,,,1.68,1.25,1.12,1*06
$GNGSA,A,3,88,81,68,,,,,,,,,,1.68,1.25,1.12,2*0E
$GNGSA,A,3,26,33,04,,,,,,,,,,1.68,1.25,1.12,3*08
$GNGSA,A,3,46,30,37,29,,,,,,,,,1.68,1.25,1.12,4*01
$GPGSV,2,1,07,17,81,230,35,30,54,157,46,19,49,225,40,44,42,197,47,1*65
$GPGSV,2,2,07,13,35,256,,07,22,146,48,06,06,180,46,1*55
$GPGSV,1,1,03,30,54,157,38,06,06,180,38,01,,,17,8*61
$GLGSV,1,1,04,88,60,159,45,87,47,044,12,81,12,192,41,68,10,259,38,1*76
$GAGSV,2,1,05,26,45,100,40,09,28,285,15,33,28,159,46,04,26,229,41,7*74
$GAGSV,2,2,05,13,20,042,24,7*46
$GAGSV,1,1,03,26,45,100,33,33,28,159,40,04,26,229,35,1*4E
$GBGSV,1,1,04,46,68,105,36,30,57,186,38,37,14,120,37,29,07,210,38,1*78
$GBGSV,1,1,04,46,68,105,32,30,57,186,34,37,14,120,28,29,07,210,40,5*75
$GNGLL,4000.585498,N,10514.616300,W,174525.000,A,A*5F
$GNRMC,174526.000,A,4000.585498,N,10514.616312,W,0.01,0.00,220324,,,A,V*16
$GNVTG,0.00,T,,M,0.01,N,0.01,K,A*23
$GNGGA,174526.000,4000.585498,N,10514.616312,W,1,24,1.25,1609.076,M,-20.635,M,,*7A
$GNGSA,A,3,17,30,19,07,06,,,,,,,,1.68,1.25,1.12,1*06
$GNGSA,A,3,88,81,68,,,,,,,,,,1.68,1.25,1.12,2*0E
$GNGSA,A,3,26,33,04,,,,,,,,,,1.68,1.25,1.12,3*08
$GNGSA,A,3,46,30,37,29,,,,,,,,,1.68,1.25,1.12,4*01
$GPGSV,2,1,07,17,81,230,34,30,54,157,46,19,49,225,40,44,42,197,47,1*64
$GPGSV,2,2,07,13,35,256,,07,22,146,48,06,06,180,46,1*55
$GPGSV,1,1,03,30,54,157,38,06,06,180,38,01,,,17,8*61
$GLGSV,1,1,04,88,60,159,44,87,47,044,13,81,12,192,41,68,10,259,38,1*76
$GAGSV,2,1,05,26,45,100,40,09,28,285,14,33,28,159,46,04,26,229,41,7*75
$GAGSV,2,2,05,13,20,042,23,7*41
$GAGSV,1,1,03,26,45,100,33,33,28,159,40,04,26,229,35,1*4E
$GBGSV,1,1,04,46,68,105,36,30,57,186,38,37,14,120,37,29,07,210,37,1*77
$GBGSV,1,1,04,46,68,105,31,30,57,186,34,37,14,120,27,29,07,210,40,5*79
$GNGLL,4000.585498,N,10514.616312,W,174526.000,A,A*5F
$GNRMC,174527.000,A,4000.585498,N,10514.616312,W,0.01,0.00,220324,,,A,V*17
$GNVTG,0.00,T,,M,0.01,N,0.01,K,A*23
$GNGGA,174527.000,4000.585498,N,10514.616312,W,1,25,1.20,1609.072,M,-20.635,M,,*7B
$GNGSA,A,3,17,30,19,13,07,06,,,,,,,1.64,1.20,1.12,1*0D
$GNGSA,A,3,88,81,68,,,,,,,,,,1.64,1.20,1.12,2*07
$GNGSA,A,3,26,33,04,,,,,,,,,,1.64,1.20,1.12,3*01
$GNGSA,A,3,46,30,37,29,,,,,,,,,1.64,1.20,1.12,4*08
$GPGSV,2,1,07,17,81,230,34,30,54,157,46,19,49,225,40,44,42,197,47,1*64
$GPGSV,2,2,07,13,35,256,27,07,22,146,48,06,06,180,46,1*50
$GPGSV,1,1,03,30,54,157,38,06,06,180,38,01,,,17,8*61
$GLGSV,1,1,04,88,60,159,44,87,47,044,13,81,12,192,42,68,10,259,38,1*75
$GAGSV,2,1,05,26,45,100,40,09,28,285,14,33,28,159,46,04,26,229,41,7*75
$GAGSV,2,2,05,13,20,042,23,7*41
$GAGSV,1,1,03,26,45,100,32,33,28,159,39,04,26,229,35,1*41
$GBGSV,1,1,04,46,68,105,37,30,57,186,39,37,14,120,38,29,07,210,38,1*77
$GBGSV,1,1,04,46,68,105,31,30,57,186,34,37,14,120,28,29,07,210,40,5*76
$GNGLL,4000.585498,N,10514.616312,W,174527.000,A,A*5E
$GNRMC,174528.000,A,4000.585492,N,10514.616312,W,0.02,0.00,220324,,,A,V*11
$GNVTG,0.00,T,,M,0.02,N,0.03,K,A*22
$GNGGA,174528.000,4000.585492,N,10514.616312,W,1,25,1.20,1609.063,M,-20.635,M,,*7E
$GNGSA,A,3,17,30,19,13,07,06,,,,,,,1.64,1.20,1.12,1*0D
$GNGSA,A,3,88,81,68,,,,,,,,,,1.64,1.20,1.12,2*07
$GNGSA,A,3,26,33,04,,,,,,,,,,1.64,1.20,1.12,3*01
$GNGSA,A,3,46,30,37,29,,,,,,,,,1.64,1.20,1.12,4*08
$GPGSV,2,1,07,17,81,230,34,30,54,157,46,19,49,225,41,44,42,197,47,1*65
$GPGSV,2,2,07,13,35,256,26,07,22,146,48,06,06,180,46,1*51
$GPGSV,1,1,03,30,54,157,38,06,06,180,38,01,,,17,8*61
$GLGSV,1,1,04,88,60,159,44,87,47,044,15,81,12,192,42,68,10,259,39,1*72
$GAGSV,2,1,05,26,45,100,40,09,28,285,14,33,28,159,46,04,26,229,41,7*75
$GAGSV,2,2,05,13,20,042,23,7*41
$GAGSV,1,1,03,26,45,100,33,33,28,159,39,04,26,229,35,1*40
$GBGSV,1,1,04,46,68,105,37,30,57,186,40,37,14,120,38,29,07,210,38,1*79
$GBGSV,1,1,04,46,68,105,31,30,57,186,34,37,14,120,29,29,07,210,40,5*77
$GNGLL,4000.585492,N,10514.616312,W,174528.000,A,A*5B
$GNRMC,174529.000,A,4000.585492,N,10514.616312,W,0.01,0.00,220324,,,A,V*13
$GNVTG,0.00,T,,M,0.01,N,0.01,K,A*23
$GNGGA,174529.000,4000.585492,N,10514.616312,W,1,24,1.25,1609.058,M,-20.635,M,,*73
$GNGSA,A,3,17,30,19,07,06,,,,,,,,1.68,1.25,1.12,1*06
$GNGSA,A,3,88,81,68,,,,,,,,,,1.68,1.25,1.12,2*0E
$GNGSA,A,3,26,33,04,,,,,,,,,,1.68,1.25,1.12,3*08
$GNGSA,A,3,46,30,37,29,,,,,,,,,1.68,1.25,1.12,4*01
$GPGSV,2,1,07,17,81,230,33,30,54,157,46,19,49,225,41,44,42,197,47,1*62
$GPGSV,2,2,07,13,35,256,,07,22,146,48,06,06,180,46,1*55
$GPGSV,1,1,03,30,54,157,38,06,06,180,38,01,,,17,8*61
$GLGSV,1,1,04,88,60,159,44,87,47,044,23,81,12,192,42,68,10,259,39,1*77
$GAGSV,2,1,05,26,45,100,40,09,28,285,15,33,28,159,46,04,26,229,42,7*77
$GAGSV,2,2,05,13,20,042,23,7*41
$GAGSV,1,1,03,26,45,100,33,33,28,159,39,04,26,229,34,1*41
$GBGSV,1,1,04,46,68,105,38,30,57,186,40,37,14,120,38,29,07,210,38,1*76
$GBGSV,1,1,04,46,68,105,31,30,57,186,34,37,14,120,29,29,07,210,40,5*77
$GNGLL,4000.585492,N,10514.616312,W,174529.000,A,A*5A
$GNRMC,174530.000,A,4000.585492,N,10514.616312,W,0.01,0.00,220324,,,A,V*1B
$GNVTG,0.00,T,,M,0.01,N,0.01,K,A*23
$GNGGA,174530.000,4000.585492,N,10514.616312,W,1,25,1.20,1609.058,M,-20.635,M,,*7F
$GNGSA,A,3,17,30,19,13,07,06,,,,,,,1.64,1.20,1.12,1*0D
$GNGSA,A,3,88,81,68,,,,,,,,,,1.64,1.20,1.12,2*07
$GNGSA,A,3,26,33,04,,,,,,,,,,1.64,1.20,1.12,3*01
$GNGSA,A,3,46,30,37,29,,,,,,,,,1.64,1.20,1.12,4*08
$GPGSV,2,1,07,17,81,230,33,30,54,157,46,19,49,225,40,44,42,197,47,1*63
$GPGSV,2,2,07,13,35,256,26,07,22,146,48,06,06,180,46,1*51
$GPGSV,1,1,03,30,54,157,38,06,06,180,38,01,,,17,8*61
$GLGSV,1,1,04,88,60,159,44,87,47,044,24,81,12,192,43,68,10,259,39,1*71
$GAGSV,2,1,05,26,45,100,40,09,28,285,22,33,28,159,46,04,26,229,42,7*73
$GAGSV,2,2,05,13,20,042,23,7*41
$GAGSV,1,1,03,26,45,100,33,33,28,159,39,04,26,229,34,1*41
$GBGSV,1,1,04,46,68,105,38,30,57,186,40,37,14,120,38,29,07,210,38,1*76
$GBGSV,1,1,04,46,68,105,31,30,57,186,34,37,14,120,30,29,07,210,40,5*7F
$GNGLL,4000.585492,N,10514.616312,W,174530.000,A,A*52
$GNRMC,174531.000,A,4000.585486,N,10514.616318,W,0.00,0.00,220324,,,A,V*14
$GNVTG,0.00,T,,M,0.00,N,0.00,K,A*23
$GNGGA,174531.000,4000.585486,N,10514.616318,W,1,25,1.20,1609.055,M,-20.635,M,,*7C
$GNGSA,A,3,17,30,19,13,07,06,,,,,,,1.64,1.20,1.12,1*0D
$GNGSA,A,3,88,81,68,,,,,,,,,,1.64,1.20,1.12,2*07
$GNGSA,A,3,26,33,04,,,,,,,,,,1.64,1.20,1.12,3*01
$GNGSA,A,3,46,30,37,29,,,,,,,,,1.64,1.20,1.12,4*08
$GPGSV,2,1,07,17,81,230,33,30,54,157,46,19,49,225,39,44,42,197,47,1*6D
$GPGSV,2,2,07,13,35,256,26,07,22,146,48,06,06,180,46,1*51
$GPGSV,1,1,03,30,54,157,38,06,06,180,38,01,,,17,8*61
$GLGSV,1,1,04,88,60,159,44,87,47,044,25,81,12,192,44,68,10,259,39,1*77
$GAGSV,2,1,05,26,45,100,40,09,28,285,23,33,28,159,46,04,26,229,42,7*72
$GAGSV,2,2,05,13,20,042,23,7*41
$GAGSV,1,1,03,26,45,100,33,33,28,159,39,04,26,229,34,1*41
$GBGSV,1,1,04,46,68,105,38,30,57,186,41,37,14,120,38,29,07,210,38,1*77
$GBGSV,1,1,04,46,68,105,31,30,57,186,34,37,14,120,30,29,07,210,40,5*7F
$GNGLL,4000.585486,N,10514.616318,W,174531.000,A,A*5C
$GNRMC,174532.000,A,4000.585486,N,10514.616318,W,0.01,0.00,220324,,,A,V*16
$GNVTG,0.00,T,,M,0.01,N,0.03,K,A*21
$GNGGA,174532.000,4000.585486,N,10514.616318,W,1,25,1.20,1609.052,M,-20.635,M,,*78
$GNGSA,A,3,17,30,19,13,07,06,,,,,,,1.64,1.20,1.12,1*0D
$GNGSA,A,3,88,81,68,,,,,,,,,,1.64,1.20,1.12,2*07
$GNGSA,A,3,26,33,04,,,,,,,,,,1.64,1.20,1.12,3*01
$GNGSA,A,3,46,30,37,29,,,,,,,,,1.64,1.20,1.12,4*08
$GPGSV,2,1,07,17,81,230,32,30,54,157,46,19,49,225,39,44,42,197,47,1*6C
$GPGSV,2,2,07,13,35,256,22,07,22,146,48,06,06,180,46,1*55
$GPGSV,1,1,03,30,54,157,38,06,06,180,38,01,,,17,8*61
$GLGSV,1,1,04,88,60,159,44,87,47,044,26,81,12,192,44,68,10,259,39,1*74
$GAGSV,2,1,05,26,45,100,40,09,28,285,23,33,28,159,46,04,26,229,42,7*72
$GAGSV,2,2,05,13,20,042,23,7*41
$GAGSV,1,1,03,26,45,100,33,33,28,159,39,04,26,229,34,1*41
$GBGSV,1,1,04,46,68,105,38,30,57,186,41,37,14,120,39,29,07,210,37,1*79
$GBGSV,1,1,04,46,68,105,31,30,57,186,34,37,14,120,29,29,07,210,40,5*77
$GNGLL,4000.585486,N,10514.616318,W,174532.000,A,A*5F
$GNRMC,174533.000,A,4000.585492,N,10514.616324,W,0.01,0.00,220324,,,A,V*1D
$GNVTG,0.00,T,,M,0.01,N,0.02,K,A*20
$GNGGA,174533.000,4000.585492,N,10514.616324,W,1,25,1.20,1609.048,M,-20.635,M,,*78
$GNGSA,A,3,17,30,19,13,07,06,,,,,,,1.64,1.20,1.12,1*0D
$GNGSA,A,3,88,81,68,,,,,,,,,,1.64,1.20,1.12,2*07
$GNGSA,A,3,26,33,04,,,,,,,,,,1.64,1.20,1.12,3*01
$GNGSA,A,3,46,30,37,29,,,,,,,,,1.64,1.20,1.12,4*08
$GPGSV,2,1,07,17,81,230,31,30,54,157,47,19,49,225,39,44,42,197,47,1*6E
$GPGSV,2,2,07,13,35,256,20,07,22,146,48,06,06,180,46,1*57
$GPGSV,1,1,03,30,54,157,38,06,06,180,38,01,,,17,8*61
$GLGSV,1,1,04,88,60,159,44,87,47,044,26,81,12,192,44,68,10,259,39,1*74
$GAGSV,2,1,05,26,45,100,40,09,28,285,23,33,28,159,46,04,26,229,42,7*72
$GAGSV,2,2,05,13,20,042,23,7*41
$GAGSV,1,1,03,26,45,100,33,33,28,159,39,04,26,229,34,1*41
$GBGSV,2,1,05,46,68,105,38,30,57,186,42,36,56,313,,37,14,120,39,1*74
$GBGSV,2,2,05,29,07,210,36,1*49
$GBGSV,1,1,04,46,68,105,31,30,57,186,34,37,14,120,29,29,07,210,40,5*77
$GNGLL,4000.585492,N,10514.616324,W,174533.000,A,A*54
$GNRMC,174534.000,A,4000.585492,N,10514.616330,W,0.01,0.00,220324,,,A,V*1F
$GNVTG,0.00,T,,M,0.01,N,0.01,K,A*23
$GNGGA,174534.000,4000.585492,N,10514.616330,W,1,25,1.20,1609.045,M,-20.635,M,,*77
$GNGSA,A,3,17,30,19,13,07,06,,,,,,,1.64,1.20,1.12,1*0D
$GNGSA,A,3,88,81,68,,,,,,,,,,1.64,1.20,1.12,2*07
$GNGSA,A,3,26,33,04,,,,,,,,,,1.64,1.20,1.12,3*01
$GNGSA,A,3,46,30,37,29,,,,,,,,,1.64,1.20,1.12,4*08
$GPGSV,2,1,07,17,81,230,31,30,54,157,47,19,49,225,39,44,42,197,47,1*6E
$GPGSV,2,2,07,13,35,256,20,07,22,146,48,06,06,180,46,1*57
$GPGSV,1,1,02,30,54,157,38,06,06,180,38,8*67
$GLGSV,1,1,04,88,60,159,44,87,47,044,26,81,12,192,44,68,10,259,39,1*74
$GAGSV,2,1,05,26,45,100,39,09,28,285,23,33,28,159,46,04,26,229,43,7*7D
$GAGSV,2,2,05,13,20,042,23,7*41
$GAGSV,1,1,03,26,45,100,33,33,28,159,40,04,26,229,34,1*4F
$GBGSV,2,1,05,46,68,105,38,30,57,186,42,36,56,313,,37,14,120,39,1*74
$GBGSV,2,2,05,29,07,210,37,1*48
$GBGSV,1,1,04,46,68,105,31,30,57,186,35,37,14,120,29,29,07,210,40,5*76
$GNGLL,4000.585492,N,10514.616330,W,174534.000,A,A*56
$GNRMC,174535.000,A,4000.585492,N,10514.616324,W,0.00,0.00,220324,,,A,V*1A
$GNVTG,0.00,T,,M,0.00,N,0.00,K,A*23
$GNGGA,174535.000,4000.585492,N,10514.616324,W,1,25,1.20,1609.045,M,-20.635,M,,*73
$GNGSA,A,3,17,30,19,13,07,06,,,,,,,1.64,1.20,1.12,1*0D
$GNGSA,A,3,88,81,68,,,,,,,,,,1.64,1.20,1.12,2*07
$GNGSA,A,3,26,33,04,,,,,,,,,,1.64,1.20,1.12,3*01
$GNGSA,A,3,46,30,37,29,,,,,,,,,1.64,1.20,1.12,4*08
$GPGSV,2,1,07,17,81,230,32,30,54,157,47,19,49,225,39,44,42,197,47,1*6D
$GPGSV,2,2,07,13,35,256,22,07,22,146,48,06,06,180,46,1*55
$GPGSV,1,1,02,30,54,157,38,06,06,180,38,8*67
$GLGSV,1,1,04,88,60,159,45,87,47,044,25,81,13,192,45,68,10,259,38,1*77
$GAGSV,2,1,05,26,45,100,39,09,28,285,22,33,28,159,46,04,26,229,43,7*7C
$GAGSV,2,2,05,13,20,042,22,7*40
$GAGSV,1,1,03,26,45,100,34,33,28,159,40,04,26,229,34,1*48
$GBGSV,2,1,05,46,68,105,38,30,57,186,42,36,56,313,,37,14,120,39,1*74
$GBGSV,2,2,05,29,07,210,37,1*48
$GBGSV,1,1,04,46,68,105,31,30,57,186,35,37,14,120,30,29,07,210,40,5*7E
$GNGLL,4000.585492,N,10514.616324,W,174535.000,A,A*52
$GNRMC,174536.000,A,4000.585498,N,10514.616324,W,0.02,0.00,220324,,,A,V*11
$GNVTG,0.00,T,,M,0.02,N,0.04,K,A*25
$GNGGA,174536.000,4000.585498,N,10514.616324,W,1,25,1.20,1609.044,M,-20.635,M,,*7B
$GNGSA,A,3,17,30,19,13,07,06,,,,,,,1.64,1.20,1.12,1*0D
$GNGSA,A,3,88,81,68,,,,,,,,,,1.64,1.20,1.12,2*07
$GNGSA,A,3,26,33,04,,,,,,,,,,1.64,1.20,1.12,3*01
$GNGSA,A,3,46,30,37,29,,,,,,,,,1.64,1.20,1.12,4*08
$GPGSV,2,1,07,17,81,230,32,30,54,157,47,19,49,225,39,44,42,197,47,1*6D
$GPGSV,2,2,07,13,35,256,21,07,22,146,48,06,06,180,46,1*56
$GPGSV,1,1,03,30,54,157,38,06,06,180,38,01,,,18,8*6E
$GLGSV,1,1,04,88,60,159,45,87,47,044,24,81,13,192,45,68,10,259,38,1*76
$GAGSV,2,1,05,26,45,100,39,09,28,285,21,33,28,159,46,04,26,229,43,7*7F
$GAGSV,2,2,05,13,20,042,22,7*40
$GAGSV,1,1,03,26,45,100,34,33,28,159,40,04,26,229,34,1*48
$GBGSV,2,1,05,46,68,105,38,30,57,186,42,36,56,313,20,37,14,120,39,1*76
$GBGSV,2,2,05,29,07,210,37,1*48
$GBGSV,1,1,04,46,68,105,31,30,57,186,35,37,14,120,30,29,07,210,40,5*7E
$GNGLL,4000.585498,N,10514.616324,W,174536.000,A,A*5B
$GNRMC,174537.000,A,4000.585498,N,10514.616324,W,0.01,0.00,220324,,,A,V*13
$GNVTG,0.00,T,,M,0.01,N,0.01,K,A*23
$GNGGA,174537.000,4000.585498,N,10514.616324,W,1,25,1.20,1609.042,M,-20.635,M,,*7C
$GNGSA,A,3,17,30,19,13,07,06,,,,,,,1.64,1.20,1.12,1*0D
$GNGSA,A,3,88,81,68,,,,,,,,,,1.64,1.20,1.12,2*07
$GNGSA,A,3,26,33,04,,,,,,,,,,1.64,1.20,1.12,3*01
$GNGSA,A,3,46,30,37,29,,,,,,,,,1.64,1.20,1.12,4*08
$GPGSV,2,1,07,17,81,230,32,30,54,157,47,19,49,225,39,44,42,197,47,1*6D
$GPGSV,2,2,07,13,35,256,22,07,22,146,48,06,06,180,46,1*55
$GPGSV,1,1,03,30,54,157,38,06,06,180,38,01,,,18,8*6E
$GLGSV,1,1,04,88,60,159,45,87,47,044,23,81,13,192,45,68,10,259,39,1*70
$GAGSV,2,1,05,26,45,100,39,09,28,285,20,33,28,159,46,04,26,229,43,7*7E
$GAGSV,2,2,05,13,20,042,22,7*40
$GAGSV,1,1,03,26,45,100,34,33,28,159,40,04,26,229,34,1*48
$GBGSV,2,1,05,46,68,105,38,30,57,186,42,36,56,313,18,37,14,120,39,1*7D
$GBGSV,2,2,05,29,07,210,37,1*48
$GBGSV,1,1,04,46,68,105,31,30,57,186,35,37,14,120,30,29,07,210,41,5*7F
$GNGLL,4000.585498,N,10514.616324,W,174537.000,A,A*5A
$GNRMC,174538.000,A,4000.585498,N,10514.616336,W,0.01,0.00,220324,,,A,V*1F
$GNVTG,0.00,T,,M,0.01,N,0.02,K,A*20
$GNGGA,174538.000,4000.585498,N,10514.616336,W,1,25,1.20,1609.036,M,-20.634,M,,*72
$GNGSA,A,3,17,30,19,13,07,06,,,,,,,1.64,1.20,1.12,1*0D
$GNGSA,A,3,88,81,68,,,,,,,,,,1.64,1.20,1.12,2*07
$GNGSA,A,3,26,33,04,,,,,,,,,,1.64,1.20,1.12,3*01
$GNGSA,A,3,46,30,37,29,,,,,,,,,1.64,1.20,1.12,4*08
$GPGSV,2,1,07,17,81,230,31,30,54,157,47,19,49,225,39,44,42,197,47,1*6E
$GPGSV,2,2,07,13,35,256,20,07,22,146,48,06,06,180,46,1*57
$GPGSV,1,1,03,30,54,157,38,06,06,180,38,01,,,18,8*6E
$GLGSV,1,1,04,88,60,159,45,87,47,044,22,81,13,192,45,68,10,259,39,1*71
$GAGSV,2,1,05,26,45,100,39,09,28,285,19,33,28,159,46,04,26,229,43,7*74
$GAGSV,2,2,05,13,20,042,22,7*40
$GAGSV,1,1,03,26,45,100,33,33,28,159,40,04,26,229,34,1*4F
$GBGSV,2,1,05,46,68,105,38,30,57,186,42,36,56,313,18,37,14,120,39,1*7D
$GBGSV,2,2,05,29,07,210,37,1*48
$GBGSV,1,1,04,46,68,105,31,30,57,186,35,37,14,120,30,29,07,210,41,5*7F
$GNGLL,4000.585498,N,10514.616336,W,174538.000,A,A*56
$GNRMC,174539.000,A,4000.585498,N,10514.616324,W,0.01,0.00,220324,,,A,V*1D
$GNVTG,0.00,T,,M,0.01,N,0.01,K,A*23
$GNGGA,174539.000,4000.585498,N,10514.616324,W,1,25,1.20,1609.027,M,-20.635,M,,*71
$GNGSA,A,3,17,30,19,13,07,06,,,,,,,1.64,1.20,1.12,1*0D
$GNGSA,A,3,88,81,68,,,,,,,,,,1.64,1.20,1.12,2*07
$GNGSA,A,3,26,33,04,,,,,,,,,,1.64,1.20,1.12,3*01
$GNGSA,A,3,46,30,37,29,,,,,,,,,1.64,1.20,1.12,4*08
$GPGSV,2,1,07,17,81,230,31,30,54,157,47,19,49,225,39,44,42,197,47,1*6E
$GPGSV,2,2,07,13,35,256,21,07,22,146,48,06,06,180,46,1*56
$GPGSV,1,1,03,30,54,157,38,06,06,180,38,01,,,18,8*6E
$GLGSV,1,1,04,88,60,159,45,87,47,044,21,81,13,192,45,68,10,259,40,1*7C
$GAGSV,2,1,05,26,45,100,38,09,28,285,17,33,28,159,46,04,26,229,43,7*7B
$GAGSV,2,2,05,13,20,042,22,7*40
$GAGSV,1,1,03,26,45,100,32,33,28,159,40,04,26,229,34,1*4E
$GBGSV,2,1,05,46,68,105,38,30,57,186,42,36,56,313,16,37,14,120,40,1*7D
$GBGSV,2,2,05,29,07,210,36,1*49
$GBGSV,1,1,04,46,68,105,30,30,57,186,35,37,14,120,30,29,07,210,40,5*7F
$GNGLL,4000.585498,N,10514.616324,W,174539.000,A,A*54
$GNRMC,174540.000,A,4000.585498,N,10514.616324,W,0.01,0.00,220324,,,A,V*13
$GNVTG,0.00,T,,M,0.01,N,0.01,K,A*23
$GNGGA,174540.000,4000.585498,N,10514.616324,W,1,25,1.20,1609.015,M,-20.635,M,,*7E
$GNGSA,A,3,17,30,19,13,07,06,,,,,,,1.64,1.20,1.12,1*0D
$GNGSA,A,3,88,81,68,,,,,,,,,,1.64,1.20,1.12,2*07
$GNGSA,A,3,26,33,04,,,,,,,,,,1.64,1.20,1.12,3*01
$GNGSA,A,3,46,30,37,29,,,,,,,,,1.64,1.20,1.12,4*08
$GPGSV,2,1,07,17,81,230,31,30,54,157,47,19,49,225,40,44,42,197,47,1*60
$GPGSV,2,2,07,13,35,256,24,07,22,146,48,06,06,180,47,1*52
$GPGSV,1,1,03,30,54,157,38,06,06,180,38,01,,,18,8*6E
$GLGSV,1,1,04,88,60,159,45,87,47,044,20,81,13,192,45,68,10,259,40,1*7D
$GAGSV,2,1,05,26,45,100,38,09,28,285,15,33,28,159,46,04,26,229,43,7*79
$GAGSV,2,2,05,13,20,042,22,7*40
$GAGSV,1,1,03,26,45,100,31,33,28,159,40,04,26,229,34,1*4D
$GBGSV,2,1,05,46,68,105,38,30,57,186,42,36,56,313,17,37,14,120,41,1*7D
$GBGSV,2,2,05,29,07,210,36,1*49
$GBGSV,1,1,04,46,68,105,30,30,57,186,35,37,14,120,30,29,07,210,40,5*7F
$GNGLL,4000.585498,N,10514.616324,W,174540.000,A,A*5A
$GNRMC,174541.000,A,4000.585498,N,10514.616318,W,0.01,0.00,220324,,,A,V*1D
$GNVTG,0.00,T,,M,0.01,N,0.01,K,A*23
$GNGGA,174541.000,4000.585498,N,10514.616318,W,1,25,1.20,1609.006,M,-20.635,M,,*72
$GNGSA,A,3,17,30,19,13,07,06,,,,,,,1.64,1.20,1.12,1*0D
$GNGSA,A,3,88,81,68,,,,,,,,,,1.64,1.20,1.12,2*07
$GNGSA,A,3,26,33,04,,,,,,,,,,1.64,1.20,1.12,3*01
$GNGSA,A,3,46,30,37,29,,,,,,,,,1.64,1.20,1.12,4*08
$GPGSV,2,1,07,17,81,230,31,30,54,157,47,19,49,225,40,44,42,197,47,1*60
$GPGSV,2,2,07,13,35,256,23,07,22,146,48,06,06,180,47,1*55
$GPGSV,1,1,03,30,54,157,38,06,06,180,38,01,,,18,8*6E
$GLGSV,1,1,04,88,60,159,45,87,47,043,19,81,13,192,45,68,10,259,41,1*71
$GAGSV,2,1,05,26,45,100,38,09,28,285,14,33,28,159,46,04,26,229,43,7*78
$GAGSV,2,2,05,13,20,042,22,7*40
$GAGSV,1,1,03,26,45,100,31,33,28,159,40,04,26,229,35,1*4C
$GBGSV,2,1,05,46,68,105,38,30,57,186,42,36,56,313,,37,14,120,41,1*7B
$GBGSV,2,2,05,29,07,210,36,1*49
$GBGSV,1,1,04,46,68,105,30,30,57,186,36,37,14,120,31,29,07,210,40,5*7D
$GNGLL,4000.585498,N,10514.616318,W,174541.000,A,A*54
$GNRMC,174542.000,A,4000.585504,N,10514.616318,W,0.01,0.00,220324,,,A,V*1A
$GNVTG,0.00,T,,M,0.01,N,0.02,K,A*20
$GNGGA,174542.000,4000.585504,N,10514.616318,W,1,25,1.20,1608.998,M,-20.635,M,,*7A
$GNGSA,A,3,17,30,19,13,07,06,,,,,,,1.64,1.20,1.12,1*0D
$GNGSA,A,3,88,81,68,,,,,,,,,,1.64,1.20,1.12,2*07
$GNGSA,A,3,26,33,04,,,,,,,,,,1.64,1.20,1.12,3*01
$GNGSA,A,3,46,30,37,29,,,,,,,,,1.64,1.20,1.12,4*08
$GPGSV,2,1,07,17,81,230,31,30,54,157,47,19,49,225,40,44,42,197,47,1*60
$GPGSV,2,2,07,13,35,256,22,07,22,146,48,06,06,180,47,1*54
$GPGSV,1,1,03,30,54,157,38,06,06,180,38,01,,,18,8*6E
$GLGSV,1,1,04,88,61,158,44,87,47,043,19,81,13,192,45,68,10,259,41,1*70
$GAGSV,2,1,05,26,45,100,39,09,28,285,14,33,28,159,46,04,26,229,43,7*79
$GAGSV,2,2,05,13,20,042,23,7*41
$GAGSV,1,1,03,26,45,100,31,33,28,159,40,04,26,229,35,1*4C
$GBGSV,2,1,05,46,68,105,38,30,57,186,42,36,56,313,,37,14,120,41,1*7B
$GBGSV,2,2,05,29,07,210,36,1*49
$GBGSV,1,1,04,46,68,105,30,30,57,186,36,37,14,120,31,29,07,210,41,5*7C
$GNGLL,4000.585504,N,10514.616318,W,174542.000,A,A*53
$GNRMC,174543.000,A,4000.585498,N,10514.616318,W,0.01,0.00,220324,,,A,V*1F
$GNVTG,0.00,T,,M,0.01,N,0.01,K,A*23
$GNGGA,174543.000,4000.585498,N,10514.616318,W,1,25,1.20,1608.990,M,-20.635,M,,*77
$GNGSA,A,3,17,30,19,13,07,06,,,,,,,1.64,1.20,1.12,1*0D
$GNGSA,A,3,88,81,68,,,,,,,,,,1.64,1.20,1.12,2*07
$GNGSA,A,3,26,33,04,,,,,,,,,,1.64,1.20,1.12,3*01
$GNGSA,A,3,46,30,37,29,,,,,,,,,1.64,1.20,1.12,4*08
$GPGSV,2,1,07,17,81,230,31,30,54,157,47,19,49,225,40,44,42,197,47,1*60
$GPGSV,2,2,07,13,35,256,21,07,22,146,48,06,06,180,47,1*57
$GPGSV,1,1,03,30,54,157,38,06,06,180,38,01,,,18,8*6E
$GLGSV,1,1,04,88,61,158,44,87,47,043,18,81,13,192,45,68,10,259,42,1*72
$GAGSV,2,1,05,26,45,100,39,09,28,285,14,33,28,159,46,04,26,229,43,7*79
$GAGSV,2,2,05,13,20,042,23,7*41
$GAGSV,1,1,03,26,45,100,31,33,28,159,40,04,26,229,35,1*4C
$GBGSV,2,1,05,46,68,105,38,30,57,186,42,36,56,313,,37,14,120,41,1*7B
$GBGSV,2,2,05,29,07,210,35,1*4A
$GBGSV,1,1,04,46,68,105,30,30,57,186,36,37,14,120,31,29,07,210,41,5*7C
$GNGLL,4000.585498,N,10514.616318,W,174543.000,A,A*56
$GNRMC,174544.000,A,4000.585504,N,10514.616318,W,0.02,0.00,220324,,,A,V*1F
$GNVTG,0.00,T,,M,0.02,N,0.03,K,A*22
$GNGGA,174544.000,4000.585504,N,10514.616318,W,1,24,1.25,1608.982,M,-20.635,M,,*73
$GNGSA,A,3,17,30,19,07,06,,,,,,,,1.68,1.25,1.12,1*06
$GNGSA,A,3,88,81,68,,,,,,,,,,1.68,1.25,1.12,2*0E
$GNGSA,A,3,26,33,04,,,,,,,,,,1.68,1.25,1.12,3*08
$GNGSA,A,3,46,30,37,29,,,,,,,,,1.68,1.25,1.12,4*01
$GPGSV,2,1,07,17,81,230,31,30,54,157,47,19,49,225,40,44,42,197,47,1*60
$GPGSV,2,2,07,13,35,256,,07,22,146,48,06,06,180,47,1*54
$GPGSV,1,1,03,30,54,157,38,06,06,180,38,01,,,18,8*6E
$GLGSV,1,1,04,88,61,158,44,87,47,043,18,81,13,192,45,68,10,259,43,1*73
$GAGSV,2,1,05,26,45,100,39,09,28,285,14,33,28,159,45,04,26,229,43,7*7A
$GAGSV,2,2,05,13,20,042,23,7*41
$GAGSV,1,1,03,26,45,100,31,33,28,159,40,04,26,229,35,1*4C
$GBGSV,2,1,05,46,68,105,38,30,57,186,42,36,56,313,,37,14,120,41,1*7B
$GBGSV,2,2,05,29,07,210,35,1*4A
$GBGSV,1,1,04,46,68,105,30,30,57,186,36,37,14,120,31,29,07,210,41,5*7C
$GNGLL,4000.585504,N,10514.616318,W,174544.000,A,A*55
$GNRMC,174545.000,A,4000.585504,N,10514.616312,W,0.00,0.00,220324,,,A,V*16
$GNVTG,0.00,T,,M,0.00,N,0.01,K,A*22
$GNGGA,174545.000,4000.585504,N,10514.616312,W,1,25,1.20,1608.975,M,-20.635,M,,*74
$GNGSA,A,3,17,30,19,13,07,06,,,,,,,1.64,1.20,1.12,1*0D
$GNGSA,A,3,88,81,68,,,,,,,,,,1.64,1.20,1.12,2*07
$GNGSA,A,3,26,33,04,,,,,,,,,,1.64,1.20,1.12,3*01
$GNGSA,A,3,46,30,37,29,,,,,,,,,1.64,1.20,1.12,4*08
$GPGSV,2,1,07,17,81,230,31,30,54,157,47,19,49,225,41,44,42,197,47,1*61
$GPGSV,2,2,07,13,35,256,26,07,22,146,48,06,06,180,47,1*50
$GPGSV,1,1,03,30,54,157,38,06,06,180,38,01,,,18,8*6E
$GLGSV,1,1,04,88,61,158,44,87,47,043,17,81,13,192,46,68,10,259,43,1*7F
$GAGSV,2,1,05,26,45,100,39,09,28,285,14,33,28,159,45,04,26,229,43,7*7A
$GAGSV,2,2,05,13,20,042,23,7*41
$GAGSV,1,1,03,26,45,100,31,33,28,159,40,04,26,229,35,1*4C
$GBGSV,2,1,05,46,68,105,38,30,57,186,42,36,56,313,23,37,14,120,41,1*7A
$GBGSV,2,2,05,29,07,210,34,1*4B
$GBGSV,1,1,04,46,68,105,30,30,57,186,36,37,14,120,31,29,07,210,41,5*7C
$GNGLL,4000.585504,N,10514.616312,W,174545.000,A,A*5E
$GNRMC,174546.000,A,4000.585510,N,10514.616306,W,0.01,0.00,220324,,,A,V*14
$GNVTG,0.00,T,,M,0.01,N,0.02,K,A*20
$GNGGA,174546.000,4000.585510,N,10514.616306,W,1,25,1.20,1608.968,M,-20.635,M,,*7B
$GNGSA,A,3,17,30,19,13,07,06,,,,,,,1.64,1.20,1.12,1*0D
$GNGSA,A,3,88,81,68,,,,,,,,,,1.64,1.20,1.12,2*07
$GNGSA,A,3,26,33,04,,,,,,,,,,1.64,1.20,1.12,3*01
$GNGSA,A,3,46,30,37,29,,,,,,,,,1.64,1.20,1.12,4*08
$GPGSV,2,1,08,17,81,230,31,30,54,157,47,19,49,225,41,44,42,197,47,1*6E
$GPGSV,2,2,08,13,35,256,25,07,22,146,48,06,06,180,47,09,,,18,1*5C
$GPGSV,1,1,03,30,54,157,38,06,06,180,38,01,,,18,8*6E
$GLGSV,1,1,04,88,61,158,44,87,47,043,16,81,13,192,46,68,10,259,42,1*7F
$GAGSV,2,1,05,26,45,100,39,33,28,159,45,09,28,285,15,04,26,229,43,7*7B
$GAGSV,2,2,05,13,20,042,23,7*41
$GAGSV,1,1,03,26,45,100,31,33,28,159,40,04,26,229,35,1*4C
$GBGSV,2,1,05,46,68,105,38,30,57,186,42,36,56,313,23,37,14,120,41,1*7A
$GBGSV,2,2,05,29,07,210,34,1*4B
$GBGSV,1,1,04,46,68,105,30,30,57,186,36,37,14,120,32,29,07,210,41,5*7F
$GNGLL,4000.585510,N,10514.616306,W,174546.000,A,A*5D
$GNRMC,174547.000,A,4000.585510,N,10514.616300,W,0.01,0.00,220324,,,A,V*13
$GNVTG,0.00,T,,M,0.01,N,0.02,K,A*20
$GNGGA,174547.000,4000.585510,N,10514.616300,W,1,25,1.20,1608.956,M,-20.635,M,,*71
$GNGSA,A,3,17,30,19,13,07,06,,,,,,,1.64,1.20,1.12,1*0D
$GNGSA,A,3,88,81,68,,,,,,,,,,1.64,1.20,1.12,2*07
$GNGSA,A,3,26,33,04,,,,,,,,,,1.64,1.20,1.12,3*01
$GNGSA,A,3,46,30,37,29,,,,,,,,,1.64,1.20,1.12,4*08
$GPGSV,2,1,08,17,81,230,31,30,54,157,47,19,49,225,42,44,42,197,47,1*6D
$GPGSV,2,2,08,13,35,256,25,07,22,146,48,06,06,180,47,16,,,20,1*59
$GPGSV,1,1,03,30,54,157,37,06,06,180,38,01,,,18,8*61
$GLGSV,1,1,04,88,61,158,44,87,47,043,16,81,13,192,46,68,10,259,41,1*7C
$GAGSV,2,1,05,26,45,100,39,33,28,159,45,09,28,285,16,04,26,229,43,7*78
$GAGSV,2,2,05,13,20,042,23,7*41
$GAGSV,1,1,03,26,45,100,31,33,28,159,40,04,26,229,35,1*4C
$GBGSV,2,1,05,46,68,105,38,30,57,186,42,36,56,313,23,37,14,120,41,1*7A
$GBGSV,2,2,05,29,07,210,33,1*4C
$GBGSV,1,1,04,46,68,105,30,30,57,186,36,37,14,120,32,29,07,210,41,5*7F
$GNGLL,4000.585510,N,10514.616300,W,174547.000,A,A*5A
$GNRMC,174548.000,A,4000.585504,N,10514.616300,W,0.02,0.00,220324,,,A,V*1A
$GNVTG,0.00,T,,M,0.02,N,0.04,K,A*25
$GNGGA,174548.000,4000.585504,N,10514.616300,W,1,25,1.20,1608.942,M,-20.635,M,,*7E
$GNGSA,A,3,17,30,19,13,07,06,,,,,,,1.64,1.20,1.12,1*0D
$GNGSA,A,3,88,81,68,,,,,,,,,,1.64,1.20,1.12,2*07
$GNGSA,A,3,26,33,04,,,,,,,,,,1.64,1.20,1.12,3*01
$GNGSA,A,3,46,30,37,29,,,,,,,,,1.64,1.20,1.12,4*08
$GPGSV,2,1,08,17,81,230,30,30,54,157,47,19,49,225,42,44,42,197,47,1*6C
$GPGSV,2,2,08,13,35,256,26,07,22,146,48,06,06,180,47,16,,,20,1*5A
$GPGSV,1,1,03,30,54,157,37,06,06,180,38,01,,,18,8*61
$GLGSV,1,1,04,88,61,158,45,87,47,043,16,81,13,192,46,68,10,259,41,1*7D
$GAGSV,2,1,05,26,45,100,39,33,28,159,45,09,28,285,17,04,26,229,43,7*79
$GAGSV,2,2,05,13,20,042,24,7*46
$GAGSV,1,1,03,26,45,100,31,33,28,159,40,04,26,229,35,1*4C
$GBGSV,2,1,05,46,68,105,38,30,57,186,42,36,56,313,21,37,14,120,41,1*78
$GBGSV,2,2,05,29,07,210,25,1*4B
$GBGSV,1,1,04,46,68,105,30,30,57,186,36,37,14,120,32,29,07,210,41,5*7F
$GNGLL,4000.585504,N,10514.616300,W,174548.000,A,A*50
$GNRMC,174549.000,A,4000.585510,N,10514.616300,W,0.02,0.00,220324,,,A,V*1E
$GNVTG,0.00,T,,M,0.02,N,0.03,K,A*22
$GNGGA,174549.000,4000.585510,N,10514.616300,W,1,25,1.20,1608.931,M,-20.635,M,,*7E
$GNGSA,A,3,17,30,19,13,07,06,,,,,,,1.64,1.20,1.12,1*0D
$GNGSA,A,3,88,81,68,,,,,,,,,,1.64,1.20,1.12,2*07
$GNGSA,A,3,26,33,04,,,,,,,,,,1.64,1.20,1.12,3*01
$GNGSA,A,3,46,30,37,29,,,,,,,,,1.64,1.20,1.12,4*08
$GPGSV,2,1,08,17,81,230,30,30,54,157,47,19,49,225,42,44,42,197,47,1*6C
$GPGSV,2,2,08,13,35,256,28,07,22,146,48,06,06,180,47,16,,,20,1*54
$GPGSV,1,1,03,30,54,157,37,06,06,180,38,01,,,18,8*61
$GLGSV,1,1,04,88,61,158,45,87,47,043,15,81,13,192,46,68,10,259,41,1*7E
$GAGSV,2,1,05,26,45,100,39,33,28,159,45,09,28,285,17,04,26,229,44,7*7E
$GAGSV,2,2,05,13,20,042,24,7*46
$GAGSV,1,1,03,26,45,100,32,33,28,159,40,04,26,229,35,1*4F
$GBGSV,2,1,05,46,68,105,38,30,57,186,43,36,56,313,20,37,14,120,41,1*78
$GBGSV,2,2,05,29,07,210,27,1*49
$GBGSV,1,1,04,46,68,105,31,30,57,186,36,37,14,120,32,29,07,210,41,5*7E
$GNGLL,4000.585510,N,10514.616300,W,174549.000,A,A*54
$GNRMC,174550.000,A,4000.585510,N,10514.616306,W,0.00,0.00,220324,,,A,V*12
$GNVTG,0.00,T,,M,0.00,N,0.00,K,A*23
$GNGGA,174550.000,4000.585510,N,10514.616306,W,1,25,1.20,1608.922,M,-20.635,M,,*72
$GNGSA,A,3,17,30,19,13,07,06,,,,,,,1.64,1.20,1.12,1*0D
$GNGSA,A,3,88,81,68,,,,,,,,,,1.64,1.20,1.12,2*07
$GNGSA,A,3,26,33,04,,,,,,,,,,1.64,1.20,1.12,3*01
$GNGSA,A,3,46,30,37,29,,,,,,,,,1.64,1.20,1.12,4*08
$GPGSV,2,1,08,17,81,230,30,30,54,157,47,19,49,225,42,44,42,197,47,1*6C
$GPGSV,2,2,08,13,35,256,25,07,22,146,47,06,06,180,47,16,,,27,1*51
$GPGSV,1,1,03,30,54,157,37,06,06,180,38,01,,,18,8*61
$GLGSV,1,1,04,88,61,158,46,87,47,043,15,81,13,192,46,68,10,259,40,1*7C
$GAGSV,2,1,05,26,45,100,39,33,28,159,45,09,28,285,,04,26,229,44,7*78
$GAGSV,2,2,05,13,20,042,24,7*46
$GAGSV,1,1,03,26,45,100,32,33,28,159,40,04,26,229,35,1*4F
$GBGSV,2,1,05,46,68,105,38,30,57,186,43,36,56,313,20,37,14,120,40,1*79
$GBGSV,2,2,05,29,07,210,34,1*4B
$GBGSV,1,1,04,46,68,105,31,30,57,186,36,37,14,120,32,29,07,210,41,5*7E
$GNGLL,4000.585510,N,10514.616306,W,174550.000,A,A*5A
$GNRMC,174551.000,A,4000.585510,N,10514.616306,W,0.01,0.00,220324,,,A,V*12
$GNVTG,0.00,T,,M,0.01,N,0.02,K,A*20
$GNGGA,174551.000,4000.585510,N,10514.616306,W,1,25,1.20,1608.908,M,-20.634,M,,*7A
$GNGSA,A,3,17,30,19,13,07,06,,,,,,,1.64,1.20,1.12,1*0D
$GNGSA,A,3,88,81,68,,,,,,,,,,1.64,1.20,1.12,2*07
$GNGSA,A,3,26,33,04,,,,,,,,,,1.64,1.20,1.12,3*01
$GNGSA,A,3,46,30,37,29,,,,,,,,,1.64,1.20,1.12,4*08
$GPGSV,2,1,08,17,81,230,30,30,54,157,47,19,49,225,42,44,42,197,47,1*6C
$GPGSV,2,2,08,13,35,256,29,07,22,146,47,06,06,180,48,16,,,24,1*51
$GPGSV,1,1,03,30,54,157,37,06,06,180,38,01,,,18,8*61
$GLGSV,1,1,04,88,61,158,46,87,47,043,15,81,13,192,46,68,10,259,40,1*7C
$GAGSV,2,1,05,26,45,100,39,33,28,159,45,09,28,285,,04,26,229,44,7*78
$GAGSV,2,2,05,13,20,042,24,7*46
$GAGSV,1,1,03,26,45,100,32,33,28,159,40,04,26,229,36,1*4C
$GBGSV,2,1,05,46,68,105,38,30,57,186,43,36,56,313,,37,14,120,40,1*7B
$GBGSV,2,2,05,29,07,210,32,1*4D
$GBGSV,1,1,04,46,68,105,31,30,57,186,36,37,14,120,32,29,07,210,40,5*7F
$GNGLL,4000.585510,N,10514.616306,W,174551.000,A,A*5B
$GNRMC,174552.000,A,4000.585510,N,10514.616312,W,0.01,0.00,220324,,,A,V*14
$GNVTG,0.00,T,,M,0.01,N,0.02,K,A*20
$GNGGA,174552.000,4000.585510,N,10514.616312,W,1,25,1.20,1608.897,M,-20.635,M,,*7A
$GNGSA,A,3,17,30,19,13,07,06,,,,,,,1.64,1.20,1.12,1*0D
$GNGSA,A,3,88,81,68,,,,,,,,,,1.64,1.20,1.12,2*07
$GNGSA,A,3,26,33,04,,,,,,,,,,1.64,1.20,1.12,3*01
$GNGSA,A,3,46,30,37,29,,,,,,,,,1.64,1.20,1.12,4*08
$GPGSV,2,1,08,17,81,230,30,30,54,157,47,19,49,225,42,44,42,197,47,1*6C
$GPGSV,2,2,08,13,35,256,29,07,22,146,47,06,06,180,48,16,,,20,1*55
$GPGSV,1,1,03,30,54,157,37,06,06,180,38,01,,,18,8*61
$GLGSV,1,1,04,88,61,158,46,87,47,043,16,81,13,192,46,68,10,259,40,1*7F
$GAGSV,2,1,05,26,45,100,39,33,28,159,45,09,28,285,,04,26,229,44,7*78
$GAGSV,2,2,05,13,20,042,25,7*47
$GAGSV,1,1,03,26,45,100,32,33,28,159,40,04,26,229,36,1*4C
$GBGSV,2,1,05,46,68,105,38,30,57,186,43,36,56,313,,37,14,120,40,1*7B
$GBGSV,2,2,05,29,07,210,33,1*4C
$GBGSV,1,1,04,46,68,105,31,30,57,186,36,37,14,120,32,29,07,210,40,5*7F
$GNGLL,4000.585510,N,10514.616312,W,174552.000,A,A*5D
$GNRMC,174553.000,A,4000.585510,N,10514.616312,W,0.01,0.00,220324,,,A,V*15
$GNVTG,0.00,T,,M,0.01,N,0.03,K,A*21
$GNGGA,174553.000,4000.585510,N,10514.616312,W,1,25,1.20,1608.889,M,-20.635,M,,*74
$GNGSA,A,3,17,30,19,13,07,06,,,,,,,1.64,1.20,1.12,1*0D
$GNGSA,A,3,88,81,68,,,,,,,,,,1.64,1.20,1.12,2*07
$GNGSA,A,3,26,33,04,,,,,,,,,,1.64,1.20,1.12,3*01
$GNGSA,A,3,46,30,37,29,,,,,,,,,1.64,1.20,1.12,4*08
$GPGSV,2,1,07,17,81,230,30,30,54,157,47,19,49,225,42,44,42,197,47,1*63
$GPGSV,2,2,07,13,35,256,30,07,22,146,47,06,06,180,48,1*57
$GPGSV,1,1,03,30,54,157,37,06,06,180,38,01,,,19,8*60
$GLGSV,1,1,04,88,61,158,46,87,47,043,16,81,13,192,47,68,10,259,40,1*7E
$GAGSV,1,1,04,26,45,100,40,33,28,159,45,04,26,229,44,13,20,042,25,7*79
$GAGSV,1,1,03,26,45,100,32,33,28,159,40,04,26,229,36,1*4C
$GBGSV,2,1,05,46,68,105,36,30,57,186,42,36,56,313,,37,14,120,38,1*7B
$GBGSV,2,2,05,29,07,210,31,1*4E
$GBGSV,1,1,04,46,68,105,31,30,57,186,36,37,14,120,32,29,07,210,41,5*7E
$GNGLL,4000.585510,N,10514.616312,W,174553.000,A,A*5C
$GNRMC,174554.000,A,4000.585516,N,10514.616312,W,0.01,0.00,220324,,,A,V*14
$GNVTG,0.00,T,,M,0.01,N,0.01,K,A*23
$GNGGA,174554.000,4000.585516,N,10514.616312,W,1,25,1.20,1608.879,M,-20.635,M,,*7A
