4,44,206,25,22,20,099,30,26,08,170,34,21,07,147,37,5*7F
$GBGSV,2,2,05,43,06,260,30,5*41
$GNGLL,4000.582006,N,10514.621046,W,215056.000,A,D*5E
$GNRMC,215057.000,A,4000.581916,N,10514.621040,W,0.01,0.00,200324,,,D,V*19
$GNVTG,0.00,T,,M,0.01,N,0.02,K,D*25
$GNGGA,215057.000,4000.581916,N,10514.621040,W,2,36,0.59,1615.265,M,-20.635,M,,*75
$GNGSA,A,3,11,06,20,19,24,05,22,17,,,,,0.98,0.59,0.78,1*0A
$GNGSA,A,3,78,88,87,77,81,72,,,,,,,0.98,0.59,0.78,2*0C
$GNGSA,$GNRMC,215141.000,A,4000.579534,N,10514.620446,W,0.01,0.00,200324,,,D,V*17
$GNVTG,0.00,T,,M,0.01,N,0.02,K,D*25
$GNGGA,215141.000,4000.579534,N,10514.620446,W,2,37,0.56,1617.536,M,-20.635,M,,*76
$GNGSA,A,3,11,12,20,19,24,05,22,17,,,,,0.92,0.56,0.73,1*01
$GNGSA,A,3,78,88,87,77,81,72,,,,,,,0.92,0.56,0.73,2*02
$GNGSA,A,3,13,27,26,30,,,,,,,,,0.92,0.56,0.73,3*0F
$GNGSA,A,3,44,34,24,25,22,19,26,21,43,,,,0.92,0.56,0.73,4*06
$GPGSV,3,1,12,11,88,239,33,12,64,302,17,06,51,045,20,44,42,197,44,1*63
$GPGSV,3,2,12,20,40,160,45,25,32,312,,19,30,078,24,24,17,225,45,1*66
$GPGSV,3,3,12,05,10,181,47,22,08,140,42,17,08,088,27,29,04,279,,1*6B
$GPGSV,1,1,01,24,17,225,30,8*5A
$GLGSV,3,1,09,78,64,278,20,88,62,308,23,87,36,037,20,77,34,180,35,1*7B
$GLGSV,3,2,09,79,21,328,23,81,20,256,40,72,15,080,18,71,11,034,,1*7A
$GLGSV,3,3,09,65,02,131,20,1*41
$GAGSV,2,1,07,13,68,236,40,27,64,159,43,21,56,306,21,15,54,043,,7*71
$GAGSV,2,2,07,26,14,230,43,30,13,143,44,34,05,047,13,7*47
$GAGSV,1,1,04,13,68,236,33,27,64,159,32,26,14,230,28,30,13,143,30,1*7F
$GBGSV,4,1,13,12,72,332,15,44,62,040,16,34,50,278,14,24,44,206,39,1*74
$GBGSV,4,2,13,25,42,288,16,22,20,099,36,19,11,047,17,26,08,170,46,1*74
$GBGSV,4,3,13,21,07,147,44,23,06,325,,43,06,260,33,39,05,332,18,1*77
$GBGSV,4,4,13,16,02,340,15,1*42
$GBGSV,2,1,05,24,44,206,26,22,20,099,26,26,08,170,36,21,07,147,34,5*7A
$GBGSV,2,2,05,43,06,260,32,5*43
$GNGLL,4000.579534,N,10514.620446,W,215141.000,A,D*5C
$GNRMC,215142.000,A,4000.579534,N,10514.620392,W,0.01,0.00,200324,,,D,V*1A
$GNVTG,0.00,T,,M,0.01,N,0.02,K,D*25
$GNGGA,215142.000,4000.579534,N,10514.620392,W,2,37,0.56,1617.530,M,-20.634,M,,*7C
$GNGSA,A,3,11,12,20,19,24,05,22,17,,,,,0.92,0.56,0.73,1*01
$GNGSA,A,3,78,88,87,77,81,72,,,,,,,0.92,0.56,0.73,2*02
$GNGSA,A,3,13,27,26,30,,,,,,,,,0.92,0.56,0.73,3*0F
$GNGSA,A,3,44,34,24,25,22,19,26,21,43,,,,0.92,0.56,0.73,4*06
$GPGSV,3,1,12,11,88,239,33,12,64,302,17,06,51,045,20,44,42,197,44,1*63
$GPGSV,3,2,12,20,40,160,45,25,32,312,,19,30,078,21,24,17,225,45,1*63
$GPGSV,3,3,12,05,10,181,47,22,08,140,42,17,08,088,26,29,04,279,,1*6A
$GPGSV,1,1,01,24,17,225,30,8*5A
$GLGSV,3,1,09,78,64,278,20,88,62,308,22,87,36,037,21,77,34,180,35,1*7B
$GLGSV,3,2,09,79,21,328,23,81,20,256,41,72,15,080,17,71,11,034,,1*74
$GLGSV,3,3,09,65,02,131,20,1*41
$GAGSV,2,1,07,13,68,236,40,27,64,159,43,21,56,306,22,15,54,043,,7*72
$GAGSV,2,2,07,26,14,230,43,30,13,143,44,34,05,047,13,7*47
$GAGSV,1,1,04,13,68,236,33,27,64,159,32,26,14,230,27,30,13,143,31,1*71
$GBGSV,4,1,13,12,72,332,14,44,62,040,17,34,50,278,15,24,44,206,39,1*75
$GBGSV,4,2,13,25,42,288,16,22,20,099,36,19,11,047,17,26,08,170,46,1*74
$GBGSV,4,3,13,21,07,147,44,43,06,260,33,39,05,332,18,57,04,078,,1*7D
$GBGSV,4,4,13,16,02,340,16,1*41
$GBGSV,2,1,05,24,44,206,27,22,20,099,27,26,08,170,36,21,07,147,35,5*7B
$GBGSV,2,2,05,43,06,260,33,5*42
$GNGLL,4000.579534,N,10514.620392,W,215142.000,A,D*51
$GNRMC,215143.000,A,4000.579618,N,10514.620284,W,0.02,0.00,200324,,,D,V*13
$GNVTG,0.00,T,,M,0.02,N,0.03,K,D*27
$GNGGA,215143.000,4000.579618,N,10514.620284,W,2,37,0.60,1617.469,M,-20.634,M,,*7E
$GNGSA,A,3,11,12,20,19,24,05,22,17,,,,,0.98,0.60,0.78,1*05
$GNGSA,A,3,78,88,87,77,81,72,,,,,,,0.98,0.60,0.78,2*06
$GNGSA,A,3,13,27,15,26,30,,,,,,,,0.98,0.60,0.78,3*0F
$GNGSA,A,3,44,34,24,25,22,26,21,43,,,,,0.98,0.60,0.78,4*0A
$GPGSV,3,1,12,11,88,239,33,12,64,302,17,06,51,045,20,44,42,197,44,1*63
$GPGSV,3,2,12,20,40,160,45,25,32,312,,19,30,078,20,24,17,225,45,1*62
$GPGSV,3,3,12,05,10,181,47,22,08,140,42,17,08,088,27,29,04,279,,1*6B
$GPGSV,1,1,01,24,17,225,30,8*5A
$GLGSV,3,1,09,78,64,278,21,88,62,308,21,87,36,037,20,77,34,180,34,1*79
$GLGSV,3,2,09,79,21,328,22,81,20,256,40,72,15,080,17,71,11,034,,1*74
$GLGSV,3,3,09,65,02,131,18,1*4A
$GAGSV,2,1,07,13,68,236,40,27,64,159,43,21,56,306,22,15,54,043,18,7*7B
$GAGSV,2,2,07,26,14,230,43,30,13,143,45,34,05,047,13,7*46
$GAGSV,1,1,04,13,68,236,33,27,64,159,32,26,14,230,27,30,13,143,31,1*71
$GBGSV,4,1,13,12,72,332,14,44,62,040,20,34,50,278,17,24,44,206,39,1*73
$GBGSV,4,2,13,25,42,288,15,22,20,099,36,19,11,047,,26,08,170,46,1*71
$GBGSV,4,3,13,21,07,147,44,43,06,260,33,39,05,332,19,57,04,078,,1*7C
$GBGSV,4,4,13,16,02,340,16,1*41
$GBGSV,2,1,05,24,44,206,26,22,20,099,27,26,08,170,36,21,07,147,35,5*7A
$GBGSV,2,2,05,43,06,260,33,5*42
$GNGLL,4000.579618,N,10514.620284,W,215143.000,A,D*5B
$GNRMC,215144.000,A,4000.579648,N,10514.620236,W,0.01,0.00,200324,,,D,V*1B
$GNVTG,0.00,T,,M,0.01,N,0.03,K,D*24
$GNGGA,215144.000,4000.579648,N,10514.620236,W,2,39,0.55,1617.484,M,-20.635,M,,*7F
$GNGSA,A,3,11,12,06,20,19,24,05,22,17,,,,0.90,0.55,0.72,1*07
$GNGSA,A,3,78,88,87,77,81,72,,,,,,,0.90,0.55,0.72,2*02
$GNGSA,A,3,13,27,15,26,30,,,,,,,,0.90,0.55,0.72,3*0B
$GNGSA,A,3,44,34,24,25,22,19,26,21,43,,,,0.90,0.55,0.72,4*06
$GPGSV,3,1,12,11,88,239,33,12,64,302,17,06,51,045,20,44,42,197,44,1*63
$GPGSV,3,2,12,20,40,160,45,25,32,312,,19,30,078,18,24,17,225,45,1*69
$GPGSV,3,3,12,05,10,181,47,22,08,140,42,17,08,088,27,29,04,279,,1*6B
$GPGSV,1,1,01,24,17,225,30,8*5A
$GLGSV,3,1,09,78,64,278,22,88,62,308,19,87,36,037,20,77,34,180,34,1*71
$GLGSV,3,2,09,79,21,328,21,81,20,256,40,72,15,080,19,71,11,034,,1*79
$GLGSV,3,3,09,65,02,131,17,1*45
$GAGSV,2,1,07,13,68,236,40,27,64,159,43,21,56,306,22,15,54,043,16,7*75
$GAGSV,2,2,07,26,14,230,43,30,13,143,45,34,05,047,13,7*46
$GAGSV,1,1,04,13,68,236,33,27,64,159,32,26,14,230,27,30,13,143,31,1*71
$GBGSV,4,1,14,12,72,332,14,44,62,040,24,34,50,278,20,24,44,206,39,1*74
$GBGSV,4,2,14,25,42,288,16,22,20,099,36,19,11,047,17,26,08,170,46,1*73
$GBGSV,4,3,14,21,07,147,44,23,06,325,,43,06,260,33,39,05,332,19,1*71
$GBGSV,4,4,14,57,04,078,,16,02,340,16,1*7F
$GBGSV,2,1,05,24,44,206,26,22,20,099,27,26,08,170,35,21,07,147,34,5*78
$GBGSV,2,2,05,43,06,260,32,5*43
$GNGLL,4000.579648,N,10514.620236,W,215144.000,A,D*50
$GNRMC,215145.000,A,4000.579726,N,10514.620164,W,0.01,0.00,200324,,,D,V*17
$GNVTG,0.00,T,,M,0.01,N,0.02,K,D*25
$GNGGA,215145.000,4000.579726,N,10514.620164,W,2,38,0.55,1617.453,M,-20.634,M,,*79
$GNGSA,A,3,11,12,20,19,24,05,22,17,,,,,0.90,0.55,0.72,1*01
$GNGSA,A,3,78,88,87,77,81,72,,,,,,,0.90,0.55,0.72,2*02
$GNGSA,A,3,13,27,15,26,30,,,,,,,,0.90,0.55,0.72,3*0B
$GNGSA,A,3,44,34,24,25,22,19,26,21,43,,,,0.90,0.55,0.72,4*06
$GPGSV,3,1,12,11,88,239,33,12,64,302,17,06,51,045,19,44,42,197,44,1*69
$GPGSV,3,2,12,20,40,160,45,25,32,312,,19,30,078,20,24,17,225,45,1*62
$GPGSV,3,3,12,05,10,181,47,22,08,140,42,17,08,088,27,29,04,279,,1*6B
$GPGSV,1,1,01,24,17,225,29,8*52
$GLGSV,3,1,09,78,64,278,23,88,62,308,18,87,36,037,18,77,34,180,33,1*7D
$GLGSV,3,2,09,79,21,328,20,81,20,256,40,72,15,080,21,71,11,034,,1*73
$GLGSV,3,3,09,65,02,131,17,1*45
$GAGSV,2,1,07,13,68,236,40,27,64,159,43,21,56,306,21,15,54,043,16,7*76
$GAGSV,2,2,07,26,14,230,43,30,13,143,45,34,05,047,12,7*47
$GAGSV,1,1,04,13,68,236,33,27,64,159,32,26,14,230,27,30,13,143,30,1*70
$GBGSV,4,1,13,12,72,332,14,44,62,040,24,34,50,278,20,24,44,206,39,1*73
$GBGSV,4,2,13,25,42,288,16,22,20,099,36,19,11,047,17,26,08,170,46,1*74
$GBGSV,4,3,13,21,07,147,44,43,06,260,33,39,05,332,19,57,04,078,,1*7C
$GBGSV,4,4,13,16,02,340,16,1*41
$GBGSV,2,1,05,24,44,206,26,22,20,099,27,26,08,170,35,21,07,147,33,5*7F
$GBGSV,2,2,05,43,06,260,32,5*43
$GNGLL,4000.579726,N,10514.620164,W,215145.000,A,D*5C
$GNRMC,215146.000,A,4000.579774,N,10514.620110,W,0.01,0.00,200324,,,D,V*10
$GNVTG,0.00,T,,M,0.01,N,0.02,K,D*25
$GNGGA,215146.000,4000.579774,N,10514.620110,W,2,37,0.56,1617.469,M,-20.635,M,,*7A
$GNGSA,A,3,11,12,20,19,24,05,22,17,,,,,0.92,0.56,0.73,1*01
$GNGSA,A,3,78,88,87,77,81,72,,,,,,,0.92,0.56,0.73,2*02
$GNGSA,A,3,13,27,26,30,,,,,,,,,0.92,0.56,0.73,3*0F
$GNGSA,A,3,44,34,24,25,22,19,26,21,43,,,,0.92,0.56,0.73,4*06
$GPGSV,3,1,12,11,88,239,32,12,64,302,18,06,51,045,19,44,42,197,44,1*67
$GPGSV,3,2,12,20,40,160,45,25,32,312,,19,30,078,22,24,17,225,45,1*60
$GPGSV,3,3,12,05,10,181,48,22,08,140,42,17,08,088,27,29,04,279,,1*64
$GPGSV,1,1,01,24,17,225,29,8*52
$GLGSV,3,1,09,78,64,278,22,88,62,308,17,87,36,037,17,77,34,180,33,1*7C
$GLGSV,3,2,09,79,21,328,18,81,20,256,40,72,15,080,22,71,11,034,,1*7B
$GLGSV,3,3,09,65,02,131,17,1*45
$GAGSV,2,1,07,13,68,236,40,27,64,159,43,21,56,306,22,15,54,043,,7*72
$GAGSV,2,2,07,26,14,230,43,30,13,143,45,34,05,047,12,7*47
$GAGSV,1,1,04,13,68,236,33,27,64,159,31,26,14,230,28,30,13,143,30,1*7C
$GBGSV,4,1,13,12,72,332,13,44,62,040,26,34,50,278,20,24,44,206,39,1*76
$GBGSV,4,2,13,25,42,288,16,22,20,099,36,19,11,047,17,26,08,170,46,1*74
$GBGSV,4,3,13,21,07,147,44,43,06,260,34,39,05,332,19,57,04,078,,1*7B
$GBGSV,4,4,13,16,02,340,16,1*41
$GBGSV,2,1,05,24,44,206,26,22,20,099,27,26,08,170,35,21,07,147,33,5*7F
$GBGSV,2,2,05,43,06,260,31,5*40
$GNGLL,4000.579774,N,10514.620110,W,215146.000,A,D*5B
$GNRMC,215147.000,A,4000.579822,N,10514.620062,W,0.01,0.00,200324,,,D,V*19
$GNVTG,0.00,T,,M,0.01,N,0.02,K,D*25
$GNGGA,215147.000,4000.579822,N,10514.620062,W,2,37,0.56,1617.477,M,-20.634,M,,*7D
$GNGSA,A,3,11,12,20,19,24,05,22,17,,,,,0.92,0.56,0.73,1*01
$GNGSA,A,3,78,88,87,77,81,72,,,,,,,0.92,0.56,0.73,2*02
$GNGSA,A,3,13,27,26,30,,,,,,,,,0.92,0.56,0.73,3*0F
$GNGSA,A,3,44,34,24,25,22,19,26,21,43,,,,0.92,0.56,0.73,4*06
$GPGSV,3,1,12,11,88,239,32,12,64,302,22,06,51,045,18,44,42,197,44,1*6F
$GPGSV,3,2,12,20,40,160,45,25,32,312,,19,30,078,24,24,17,225,45,1*66
$GPGSV,3,3,12,05,10,181,48,22,08,140,42,17,08,088,27,29,04,279,,1*64
$GPGSV,1,1,01,24,17,225,30,8*5A
$GLGSV,3,1,09,78,64,278,21,88,62,308,16,87,36,037,12,77,34,180,33,1*7B
$GLGSV,3,2,09,79,21,328,16,81,20,256,39,72,15,080,21,71,11,034,,1*78
$GLGSV,3,3,09,65,02,131,16,1*44
$GAGSV,2,1,07,13,68,236,40,27,64,159,43,21,56,306,22,15,54,043,,7*72
$GAGSV,2,2,07,26,14,230,43,30,13,143,45,34,05,047,12,7*47
$GAGSV,1,1,04,13,68,236,33,27,64,159,31,26,14,230,28,30,13,143,30,1*7C
$GBGSV,4,1,13,12,72,332,14,44,62,040,25,34,50,278,19,24,44,206,39,1*78
$GBGSV,4,2,13,25,42,288,17,22,20,099,36,19,11,047,18,26,08,170,46,1*7A
$GBGSV,4,3,13,21,07,147,44,43,06,260,34,39,05,332,19,57,04,078,,1*7B
$GBGSV,4,4,13,16,02,340,15,1*42
$GBGSV,2,1,05,24,44,206,26,22,20,099,27,26,08,170,35,21,07,147,33,5*7F
$GBGSV,2,2,05,43,06,260,32,5*43
$GNGLL,4000.579822,N,10514.620062,W,215147.000,A,D*52
$GNRMC,215148.000,A,4000.579882,N,10514.620008,W,0.01,0.00,200324,,,D,V*10
$GNVTG,0.00,T,,M,0.01,N,0.02,K,D*25
$GNGGA,215148.000,4000.579882,N,10514.620008,W,2,37,0.56,1617.447,M,-20.635,M,,*76
$GNGSA,A,3,11,12,20,19,24,05,22,17,,,,,0.92,0.56,0.73,1*01
$GNGSA,A,3,78,88,87,77,81,72,,,,,,,0.92,0.56,0.73,2*02
$GNGSA,A,3,13,27,26,30,,,,,,,,,0.92,0.56,0.73,3*0F
$GNGSA,A,3,44,34,24,25,22,19,26,21,43,,,,0.92,0.56,0.73,4*06
$GPGSV,3,1,12,11,88,239,32,12,64,302,24,06,51,045,16,44,42,197,44,1*67
$GPGSV,3,2,12,20,40,160,45,25,32,312,,19,30,078,25,24,17,225,45,1*67
$GPGSV,3,3,12,05,10,181,48,22,08,140,42,17,08,088,27,29,04,279,,1*64
$GPGSV,1,1,01,24,17,225,30,8*5A
$GLGSV,2,1,08,78,64,278,21,88,62,308,17,87,36,037,12,77,34,180,33,1*7A
$GLGSV,2,2,08,79,21,328,15,81,20,256,39,72,15,080,20,65,02,131,16,1*7E
$GAGSV,2,1,07,13,68,236,40,27,64,159,43,21,56,306,22,15,54,043,,7*72
$GAGSV,2,2,07,26,14,230,43,30,13,143,45,34,05,047,12,7*47
$GAGSV,1,1,04,13,68,236,33,27,64,159,32,26,14,230,29,30,13,143,30,1*7E
$GBGSV,4,1,13,12,72,332,14,44,62,040,24,34,50,278,15,24,44,206,40,1*7B
$GBGSV,4,2,13,25,42,288,17,22,20,099,35,19,11,047,17,26,08,170,46,1*76
$GBGSV,4,3,13,21,07,147,44,43,06,260,34,39,05,332,19,57,04,078,,1*7B
$GBGSV,4,4,13,16,02,340,15,1*42
$GBGSV,2,1,05,24,44,206,26,22,20,099,28,26,08,170,36,21,07,147,33,5*73
$GBGSV,2,2,05,43,06,260,33,5*42
$GNGLL,4000.579882,N,10514.620008,W,215148.000,A,D*5B
$GNRMC,215149.000,A,4000.579948,N,10514.619966,W,0.01,0.00,200324,,,D,V*1D
$GNVTG,0.00,T,,M,0.01,N,0.02,K,D*25
$GNGGA,215149.000,4000.579948,N,10514.619966,W,2,37,0.56,1617.335,M,-20.635,M,,*79
$GNGSA,A,3,11,12,20,19,24,05,22,17,,,,,0.92,0.56,0.73,1*01
$GNGSA,A,3,78,88,87,77,81,72,,,,,,,0.92,0.56,0.73,2*02
$GNGSA,A,3,13,27,26,30,,,,,,,,,0.92,0.56,0.73,3*0F
$GNGSA,A,3,44,34,24,25,22,19,26,21,43,,,,0.92,0.56,0.73,4*06
$GPGSV,3,1,12,11,88,239,33,12,64,302,27,06,51,045,14,44,42,197,44,1*67
$GPGSV,3,2,12,20,40,160,45,25,32,312,,19,30,078,25,24,17,225,44,1*66
$GPGSV,3,3,12,05,10,181,48,22,08,140,42,17,08,088,27,29,04,279,,1*64
$GPGSV,1,1,01,24,17,225,30,8*5A
$GLGSV,3,1,09,78,64,278,21,88,62,308,17,87,36,037,13,77,34,180,33,1*7B
$GLGSV,3,2,09,79,21,328,15,81,20,256,39,72,15,080,20,71,11,034,,1*7A
$GLGSV,3,3,09,65,02,131,16,1*44
$GAGSV,2,1,07,13,68,236,40,27,64,159,43,21,56,306,22,15,54,043,,7*72
$GAGSV,2,2,07,26,14,230,43,30,13,143,45,34,05,047,12,7*47
$GAGSV,1,1,04,13,68,236,33,27,64,159,32,26,14,230,29,30,13,143,30,1*7E
$GBGSV,4,1,13,12,72,335,15,44,62,040,21,34,50,278,12,24,44,206,41,1*7E
$GBGSV,4,2,13,25,42,288,17,22,20,099,35,19,11,047,16,26,08,170,46,1*77
$GBGSV,4,3,13,21,07,147,44,43,06,260,34,39,05,332,19,57,04,078,,1*7B
$GBGSV,4,4,13,16,02,340,14,1*43
$GBGSV,2,1,05,24,44,206,27,22,20,099,28,26,08,170,36,21,07,147,33,5*72
$GBGSV,2,2,05,43,06,260,33,5*42
$GNGLL,4000.579948,N,10514.619966,W,215149.000,A,D*56
$GNRMC,215150.000,A,4000.579972,N,10514.619924,W,0.01,0.00,200324,,,D,V*1A
$GNVTG,0.00,T,,M,0.01,N,0.02,K,D*25
$GNGGA,215150.000,4000.579972,N,10514.619924,W,2,37,0.56,1617.258,M,-20.635,M,,*74
$GNGSA,A,3,11,12,20,19,24,05,22,17,,,,,0.92,0.56,0.73,1*01
$GNGSA,A,3,78,88,87,77,81,72,,,,,,,0.92,0.56,0.73,2*02
$GNGSA,A,3,13,27,26,30,,,,,,,,,0.92,0.56,0.73,3*0F
$GNGSA,A,3,44,34,24,25,22,19,26,21,43,,,,0.92,0.56,0.73,4*06
$GPGSV,3,1,12,11,88,239,33,12,64,302,27,06,51,045,15,44,42,197,44,1*66
$GPGSV,3,2,12,20,40,160,45,25,32,312,,19,30,078,25,24,17,225,44,1*66
$GPGSV,3,3,12,05,10,181,48,22,08,140,42,17,08,088,27,29,04,279,,1*64
$GPGSV,1,1,01,24,17,225,30,8*5A
$GLGSV,3,1,09,78,64,278,21,88,62,308,13,87,36,037,13,77,34,180,33,1*7F
$GLGSV,3,2,09,79,21,328,16,81,20,256,38,72,15,080,20,71,11,034,,1*78
$GLGSV,3,3,09,65,02,131,16,1*44
$GAGSV,2,1,07,13,68,236,40,27,64,159,43,21,56,306,23,15,54,043,,7*73
$GAGSV,2,2,07,26,14,230,43,30,13,143,45,34,05,047,12,7*47
$GAGSV,1,1,04,13,68,236,33,27,64,159,32,26,14,230,30,30,13,143,30,1*76
$GBGSV,4,1,14,12,72,335,15,44,62,040,20,34,50,278,17,24,44,206,41,1*7D
$GBGSV,4,2,14,25,42,288,18,22,20,099,35,19,11,047,16,26,08,170,46,1*7F
$GBGSV,4,3,14,21,07,147,44,23,06,325,,43,06,260,34,39,05,332,19,1*76
$GBGSV,4,4,14,57,04,078,,16,02,340,14,1*7D
$GBGSV,2,1,05,24,44,206,27,22,20,099,28,26,08,170,36,21,07,147,33,5*72
$GBGSV,2,2,05,43,06,260,33,5*42
$GNGLL,4000.579972,N,10514.619924,W,215150.000,A,D*51
$GNRMC,215151.000,A,4000.580026,N,10514.619876,W,0.01,0.00,200324,,,D,V*13
$GNVTG,0.00,T,,M,0.01,N,0.02,K,D*25
$GNGGA,215151.000,4000.580026,N,10514.619876,W,2,37,0.56,1617.163,M,-20.635,M,,*76
$GNGSA,A,3,11,12,20,19,24,05,22,17,,,,,0.92,0.56,0.73,1*01
$GNGSA,A,3,78,88,87,77,81,72,,,,,,,0.92,0.56,0.73,2*02
$GNGSA,A,3,13,27,26,30,,,,,,,,,0.92,0.56,0.73,3*0F
$GNGSA,A,3,44,34,24,25,22,19,26,21,43,,,,0.92,0.56,0.73,4*06
$GPGSV,3,1,12,11,88,239,33,12,64,302,26,06,51,045,15,44,42,197,44,1*67
$GPGSV,3,2,12,20,40,160,45,25,32,312,,19,30,078,20,24,17,225,44,1*63
$GPGSV,3,3,12,05,10,181,48,22,08,140,42,17,08,088,27,29,04,279,,1*64
$GPGSV,1,1,01,24,17,225,31,8*5B
$GLGSV,3,1,09,78,64,278,21,88,62,308,14,87,36,037,13,77,34,180,33,1*78
$GLGSV,3,2,09,79,21,328,16,81,20,256,38,72,15,080,20,71,11,034,,1*78
$GLGSV,3,3,09,65,02,131,17,1*45
$GAGSV,2,1,07,13,68,236,40,27,64,159,43,21,56,306,23,15,54,043,,7*73
$GAGSV,2,2,07,26,14,230,43,30,13,143,45,34,05,047,12,7*47
$GAGSV,1,1,04,13,68,236,33,27,64,159,32,26,14,230,30,30,13,143,30,1*76
$GBGSV,4,1,14,12,72,335,15,44,62,040,20,34,50,278,19,24,44,206,41,1*73
$GBGSV,4,2,14,25,42,288,19,22,20,099,35,19,11,047,16,26,08,170,46,1*7E
$GBGSV,4,3,14,21,07,147,44,23,06,325,,43,06,260,34,39,05,332,19,1*76
$GBGSV,4,4,14,57,04,078,,16,02,340,15,1*7C
$GBGSV,2,1,05,24,44,206,26,22,20,099,28,26,08,170,36,21,07,147,33,5*73
$GBGSV,2,2,05,43,06,260,33,5*42
$GNGLL,4000.580026,N,10514.619876,W,215151.000,A,D*58
$GNRMC,215152.000,A,4000.580068,N,10514.619852,W,0.01,0.00,200324,,,D,V*1C
$GNVTG,0.00,T,,M,0.01,N,0.02,K,D*25
$GNGGA,215152.000,4000.580068,N,10514.619852,W,2,37,0.56,1617.091,M,-20.635,M,,*75
$GNGSA,A,3,11,12,20,19,24,05,22,17,,,,,0.92,0.56,0.73,1*01
$GNGSA,A,3,78,88,87,77,81,72,,,,,,,0.92,0.56,0.73,2*02
$GNGSA,A,3,13,27,26,30,,,,,,,,,0.92,0.56,0.73,3*0F
$GNGSA,A,3,44,34,24,25,22,19,26,21,43,,,,0.92,0.56,0.73,4*06
$GPGSV,3,1,12,11,88,239,33,12,64,302,24,06,51,045,15,44,42,197,44,1*65
$GPGSV,3,2,12,20,40,160,45,25,32,312,,19,30,078,20,24,17,225,44,1*63
$GPGSV,3,3,12,05,10,181,48,22,08,140,42,17,08,088,27,29,04,279,,1*64
$GPGSV,1,1,01,24,17,225,31,8*5B
$GLGSV,3,1,09,78,64,278,23,88,62,308,15,87,36,037,13,77,34,180,33,1*7B
$GLGSV,3,2,09,79,21,328,17,81,20,256,38,72,15,080,20,71,11,034,,1*79
$GLGSV,3,3,09,65,02,131,17,1*45
$GAGSV,2,1,07,13,68,236,40,27,64,159,43,21,56,306,23,15,54,043,,7*73
$GAGSV,2,2,07,26,14,230,43,30,13,143,45,34,05,047,12,7*47
$GAGSV,1,1,04,13,68,236,33,27,64,159,31,26,14,230,29,30,13,143,30,1*7D
$GBGSV,4,1,14,12,72,335,15,44,62,040,20,34,50,278,20,24,44,206,41,1*79
$GBGSV,4,2,14,25,42,288,19,22,20,099,34,19,11,047,16,26,08,170,46,1*7F
$GBGSV,4,3,14,21,07,147,44,23,06,325,,43,06,260,34,39,05,332,18,1*77
$GBGSV,4,4,14,57,04,078,,16,02,340,15,1*7C
$GBGSV,2,1,05,24,44,206,26,22,20,099,28,26,08,170,36,21,07,147,33,5*73
$GBGSV,2,2,05,43,06,260,33,5*42
$GNGLL,4000.580068,N,10514.619852,W,215152.000,A,D*57
$GNRMC,215153.000,A,4000.580140,N,10514.619846,W,0.01,0.00,200324,,,D,V*13
$GNVTG,0.00,T,,M,0.01,N,0.01,K,D*26
$GNGGA,215153.000,4000.580140,N,10514.619846,W,2,37,0.56,1617.022,M,-20.635,M,,*72
$GNGSA,A,3,11,12,20,19,24,05,22,17,,,,,0.92,0.56,0.73,1*01
$GNGSA,A,3,78,88,87,77,81,72,,,,,,,0.92,0.56,0.73,2*02
$GNGSA,A,3,13,27,26,30,,,,,,,,,0.92,0.56,0.73,3*0F
$GNGSA,A,3,44,34,24,25,22,19,26,21,43,,,,0.92,0.56,0.73,4*06
$GPGSV,3,1,12,11,88,239,32,12,64,302,19,06,51,045,16,44,42,197,44,1*69
$GPGSV,3,2,12,20,40,160,45,25,32,312,,19,30,078,17,24,17,225,44,1*67
$GPGSV,3,3,12,05,10,181,48,22,08,140,42,17,08,088,27,29,04,279,,1*64
$GPGSV,1,1,01,24,17,225,31,8*5B
$GLGSV,3,1,09,78,64,278,23,88,62,308,15,87,36,037,14,77,34,180,32,1*7D
$GLGSV,3,2,09,79,21,328,18,81,20,256,38,72,15,080,20,71,11,034,,1*76
$GLGSV,3,3,09,65,02,131,17,1*45
$GAGSV,2,1,07,13,68,236,40,27,64,159,43,21,56,306,23,15,54,043,,7*73
$GAGSV,2,2,07,26,14,230,43,30,13,143,45,34,05,047,12,7*47
$GAGSV,1,1,04,13,68,236,33,27,64,159,31,26,14,230,29,30,13,143,29,1*75
$GBGSV,4,1,14,12,72,335,15,44,62,040,17,34,50,278,22,24,44,206,41,1*7F
$GBGSV,4,2,14,25,42,288,21,22,20,099,34,19,11,047,17,26,08,170,46,1*75
$GBGSV,4,3,14,21,07,147,44,23,06,325,,43,06,260,34,39,05,332,18,1*77
$GBGSV,4,4,14,57,04,078,,16,02,340,14,1*7D
$GBGSV,2,1,05,24,44,206,26,22,20,099,28,26,08,170,36,21,07,147,33,5*73
$GBGSV,2,2,05,43,06,260,33,5*42
$GNGLL,4000.580140,N,10514.619846,W,215153.000,A,D*58
$GNRMC,215154.000,A,4000.580152,N,10514.619858,W,0.01,0.00,200324,,,D,V*18
$GNVTG,0.00,T,,M,0.01,N,0.02,K,D*25
$GNGGA,215154.000,4000.580152,N,10514.619858,W,2,37,0.56,1616.943,M,-20.635,M,,*76
$GNGSA,A,3,11,12,20,19,24,05,22,17,,,,,0.92,0.56,0.73,1*01
$GNGSA,A,3,78,88,87,77,81,72,,,,,,,0.92,0.56,0.73,2*02
$GNGSA,A,3,13,27,26,30,,,,,,,,,0.92,0.56,0.73,3*0F
$GNGSA,A,3,44,34,24,25,22,19,26,21,43,,,,0.92,0.56,0.73,4*06
$GPGSV,3,1,12,11,88,239,32,12,64,302,16,06,51,045,17,44,42,197,44,1*67
$GPGSV,3,2,12,20,40,160,45,25,32,312,,19,30,078,13,24,17,225,44,1*63
$GPGSV,3,3,12,05,10,181,48,22,08,140,42,17,08,088,27,29,04,279,,1*64
$GPGSV,1,1,01,24,17,225,31,8*5B
$GLGSV,2,1,08,78,64,278,18,88,62,308,14,87,36,037,14,77,34,180,32,1*74
$GLGSV,2,2,08,79,21,328,19,81,20,256,38,72,15,080,21,65,02,131,17,1*73
$GAGSV,2,1,07,13,68,236,40,27,64,159,43,21,56,306,22,15,54,043,,7*72
$GAGSV,2,2,07,26,14,230,43,30,13,143,45,34,05,047,12,7*47
$GAGSV,1,1,04,13,68,236,33,27,64,159,31,26,14,230,29,30,13,143,29,1*75
$GBGSV,4,1,14,12,72,335,14,44,62,040,17,34,50,278,23,24,44,206,41,1*7F
$GBGSV,4,2,14,25,42,288,23,22,20,099,34,19,11,047,17,26,08,170,46,1*77
$GBGSV,4,3,14,21,07,147,44,23,06,325,,43,06,260,34,39,05,332,18,1*77
$GBGSV,4,4,14,57,04,078,,16,02,340,14,1*7D
$GBGSV,2,1,05,24,44,206,26,22,20,099,28,26,08,170,36,21,07,147,33,5*73
$GBGSV,2,2,05,43,06,260,32,5*43
$GNGLL,4000.580152,N,10514.619858,W,215154.000,A,D*53
$GNRMC,215155.000,A,4000.580164,N,10514.619858,W,0.01,0.00,200324,,,D,V*1C
$GNVTG,0.00,T,,M,0.01,N,0.01,K,D*26
$GNGGA,215155.000,4000.580164,N,10514.619858,W,2,36,0.61,1616.930,M,-20.635,M,,*73
$GNGSA,A,3,11,12,20,19,24,05,22,17,,,,,0.99,0.61,0.78,1*05
$GNGSA,A,3,78,88,87,77,81,72,,,,,,,0.99,0.61,0.78,2*06
$GNGSA,A,3,13,27,26,30,,,,,,,,,0.99,0.61,0.78,3*0B
$GNGSA,A,3,44,34,24,25,22,26,21,43,,,,,0.99,0.61,0.78,4*0A
$GPGSV,3,1,12,11,88,239,31,12,64,302,16,06,51,045,17,44,42,197,44,1*64
$GPGSV,3,2,12,20,40,160,45,25,32,312,,19,30,078,15,24,17,225,44,1*65
$GPGSV,3,3,12,05,10,181,49,22,08,140,42,17,08,088,27,29,04,279,,1*65
$GPGSV,1,1,01,24,17,225,32,8*58
$GLGSV,2,1,08,78,64,278,17,88,62,308,14,87,36,037,12,77,34,180,32,1*7D
$GLGSV,2,2,08,79,21,328,19,81,20,256,38,72,15,080,22,65,02,131,17,1*70
$GAGSV,2,1,07,13,68,236,40,27,64,159,43,21,56,306,21,15,54,043,,7*71
$GAGSV,2,2,07,26,14,230,43,30,13,143,45,34,05,047,12,7*47
$GAGSV,1,1,04,13,68,236,33,27,64,159,31,26,14,230,30,30,13,143,29,1*7D
$GBGSV,4,1,14,12,72,335,14,44,62,040,17,34,50,278,23,24,44,206,41,1*7F
$GBGSV,4,2,14,25,42,288,23,22,20,099,34,19,11,047,16,26,08,170,46,1*76
$GBGSV,4,3,14,21,07,147,45,23,06,325,,43,06,260,34,39,05,332,17,1*79
$GBGSV,4,4,14,57,04,078,,16,02,340,14,1*7D
$GBGSV,2,1,05,24,44,206,26,22,20,099,28,26,08,170,36,21,07,147,33,5*73
$GBGSV,2,2,05,43,06,260,32,5*43
$GNGLL,4000.580164,N,10514.619858,W,215155.000,A,D*57
$GNRMC,215156.000,A,4000.580176,N,10514.619852,W,0.01,0.00,200324,,,D,V*16
$GNVTG,0.00,T,,M,0.01,N,0.01,K,D*26
$GNGGA,215156.000,4000.580176,N,10514.619852,W,2,36,0.61,1616.983,M,-20.635,M,,*71
$GNGSA,A,3,11,12,20,19,24,05,22,17,,,,,0.99,0.61,0.78,1*05
$GNGSA,A,3,78,88,87,77,81,72,,,,,,,0.99,0.61,0.78,2*06
$GNGSA,A,3,13,27,26,30,,,,,,,,,0.99,0.61,0.78,3*0B
$GNGSA,A,3,44,34,24,25,22,26,21,43,,,,,0.99,0.61,0.78,4*0A
$GPGSV,3,1,12,11,88,239,30,12,64,302,17,06,51,045,17,44,42,197,44,1*64
$GPGSV,3,2,12,20,40,160,45,25,32,312,,19,30,078,23,24,17,225,44,1*60
$GPGSV,3,3,12,05,10,181,49,22,08,140,42,17,08,088,27,29,04,279,,1*65
$GPGSV,1,1,01,24,17,225,32,8*58
$GLGSV,2,1,08,78,64,278,23,88,62,308,17,87,36,037,10,77,34,180,32,1*7B
$GLGSV,2,2,08,79,21,328,19,81,20,256,37,72,15,080,22,65,02,131,17,1*7F
$GAGSV,2,1,07,13,68,236,40,27,64,159,43,21,56,306,20,15,54,043,,7*70
$GAGSV,2,2,07,26,14,230,43,30,13,143,45,34,05,047,12,7*47
$GAGSV,1,1,04,13,68,236,33,27,64,159,31,26,14,230,30,30,13,143,29,1*7D
$GBGSV,4,1,14,12,72,335,14,44,62,040,18,34,50,278,25,24,44,206,40,1*77
$GBGSV,4,2,14,25,42,288,24,22,20,099,34,19,11,046,14,26,08,170,46,1*72
$GBGSV,4,3,14,21,07,147,45,23,06,325,17,43,06,260,34,39,05,332,17,1*7F
$GBGSV,4,4,14,57,04,078,,16,02,340,14,1*7D
$GBGSV,2,1,05,24,44,206,26,22,20,099,28,26,08,170,36,21,07,147,33,5*73
$GBGSV,2,2,05,43,06,260,32,5*43
$GNGLL,4000.580176,N,10514.619852,W,215156.000,A,D*5D
$GNRMC,215157.000,A,4000.580200,N,10514.619888,W,0.01,0.00,200324,,,D,V*12
$GNVTG,0.00,T,,M,0.01,N,0.01,K,D*26
$GNGGA,215157.000,4000.580200,N,10514.619888,W,2,36,0.61,1617.019,M,-20.634,M,,*7F
$GNGSA,A,3,11,12,20,19,24,05,22,17,,,,,0.99,0.61,0.78,1*05
$GNGSA,A,3,78,88,87,77,81,72,,,,,,,0.99,0.61,0.78,2*06
$GNGSA,A,3,13,27,26,30,,,,,,,,,0.99,0.61,0.78,3*0B
$GNGSA,A,3,44,34,24,25,22,26,21,43,,,,,0.99,0.61,0.78,4*0A
$GPGSV,3,1,12,11,88,239,30,12,64,302,18,06,51,045,18,44,42,197,44,1*64
$GPGSV,3,2,12,20,40,160,45,25,32,312,,19,30,078,23,24,17,225,44,1*60
$GPGSV,3,3,12,05,10,181,49,22,08,140,42,17,08,088,27,29,04,279,,1*65
$GPGSV,1,1,01,24,17,225,32,8*58
$GLGSV,2,1,08,78,64,278,24,88,62,308,17,87,36,037,14,77,34,180,32,1*78
$GLGSV,2,2,08,79,21,328,19,81,20,256,37,72,15,080,23,65,02,131,16,1*7F
$GAGSV,2,1,07,13,68,236,40,27,64,159,43,21,56,306,18,15,54,043,,7*7B
$GAGSV,2,2,07,26,14,230,43,30,13,143,45,34,05,047,12,7*47
$GAGSV,1,1,04,13,68,236,33,27,64,159,31,26,14,230,31,30,13,143,29,1*7C
$GBGSV,4,1,13,12,72,335,14,44,62,040,17,34,50,278,25,24,44,206,40,1*7F
$GBGSV,4,2,13,25,42,288,25,22,20,099,34,19,11,046,15,26,08,170,46,1*75
$GBGSV,4,3,13,21,07,147,45,43,06,260,34,23,06,325,17,39,05,332,16,1*79
$GBGSV,4,4,13,16,02,340,14,1*43
$GBGSV,2,1,05,24,44,206,26,22,20,099,28,26,08,170,36,21,07,147,33,5*73
$GBGSV,2,2,05,43,06,260,32,5*43
$GNGLL,4000.580200,N,10514.619888,W,215157.000,A,D*59
$GNRMC,215158.000,A,4000.580200,N,10514.619918,W,0.01,0.00,200324,,,D,V*15
$GNVTG,0.00,T,,M,0.01,N,0.01,K,D*26
$GNGGA,215158.000,4000.580200,N,10514.619918,W,2,37,0.56,1617.056,M,-20.635,M,,*77
$GNGSA,A,3,11,12,20,19,24,05,22,17,,,,,0.92,0.56,0.73,1*01
$GNGSA,A,3,78,88,87,77,81,72,,,,,,,0.92,0.56,0.73,2*02
$GNGSA,A,3,13,27,26,30,,,,,,,,,0.92,0.56,0.73,3*0F
$GNGSA,A,3,44,34,24,25,22,19,26,21,43,,,,0.92,0.56,0.73,4*06
$GPGSV,3,1,12,11,88,239,30,12,64,302,20,06,51,045,17,44,42,197,44,1*60
$GPGSV,3,2,12,20,40,160,46,25,32,312,,19,30,078,24,24,17,225,44,1*64
$GPGSV,3,3,12,05,10,181,50,22,08,140,42,17,08,088,27,29,04,279,,1*6D
$GPGSV,1,1,01,24,17,225,32,8*58
$GLGSV,2,1,08,78,64,278,23,88,62,308,17,87,36,037,12,77,34,180,32,1*79
$GLGSV,2,2,08,79,21,328,19,81,20,256,37,72,15,080,23,65,02,131,16,1*7F
$GAGSV,2,1,07,13,68,236,40,27,64,159,43,21,56,306,17,15,54,043,,7*74
$GAGSV,2,2,07,26,14,230,43,30,13,143,45,34,05,047,12,7*47
$GAGSV,1,1,04,13,68,236,33,27,64,159,31,26,14,230,31,30,13,143,29,1*7C
$GBGSV,4,1,13,12,72,335,15,44,62,040,19,34,50,278,26,24,44,206,40,1*73
$GBGSV,4,2,13,25,42,288,25,22,20,099,34,19,11,046,15,26,08,170,46,1*75
$GBGSV,4,3,13,21,08,147,45,43,06,260,34,23,06,325,16,39,05,332,16,1*77
$GBGSV,4,4,13,16,02,340,14,1*43
$GBGSV,2,1,05,24,44,206,26,22,20,099,28,21,08,147,33,26,08,170,36,5*7C
$GBGSV,2,2,05,43,06,260,32,5*43
$GNGLL,4000.580200,N,10514.619918,W,215158.000,A,D*5E
$GNRMC,215159.000,A,4000.580206,N,10514.619966,W,0.01,0.00,200324,,,D,V*1B
$GNVTG,0.00,T,,M,0.01,N,0.01,K,D*26
$GNGGA,215159.000,4000.580206,N,10514.619966,W,2,37,0.60,1617.119,M,-20.635,M,,*76
$GNGSA,A,3,11,12,20,19,24,05,17,22,,,,,0.98,0.60,0.78,1*05
$GNGSA,A,3,78,88,87,77,81,72,,,,,,,0.98,0.60,0.78,2*06
$GNGSA,A,3,13,27,15,26,30,,,,,,,,0.98,0.60,0.78,3*0F
$GNGSA,A,3,44,34,24,25,22,26,21,43,,,,,0.98,0.60,0.78,4*0A
$GPGSV,3,1,12,11,88,239,30,12,64,302,20,06,51,045,18,44,42,197,44,1*6F
$GPGSV,3,2,12,20,40,160,46,25,32,312,,19,30,078,24,24,17,225,44,1*64
$GPGSV,3,3,12,05,10,181,50,17,08,088,28,22,08,140,42,29,04,279,,1*62
$GPGSV,1,1,01,24,17,225,32,8*58
$GLGSV,3,1,09,78,64,278,23,88,62,308,19,87,36,037,12,77,34,180,32,1*77
$GLGSV,3,2,09,79,21,328,19,81,20,256,37,72,15,080,23,71,11,034,,1*7B
$GLGSV,3,3,09,65,02,131,16,1*44
$GAGSV,2,1,07,13,68,236,40,27,64,159,43,21,56,306,16,15,54,043,16,7*72
$GAGSV,2,2,07,26,14,230,43,30,13,143,45,34,05,047,13,7*46
$GAGSV,1,1,04,13,68,236,33,27,64,159,31,26,14,230,31,30,13,143,29,1*7C
$GBGSV,4,1,13,12,72,335,15,44,62,040,21,34,50,278,26,24,44,206,40,1*78
$GBGSV,4,2,13,25,42,288,25,22,21,098,33,19,11,046,15,26,08,170,46,1*72
$GBGSV,4,3,13,21,08,147,45,43,06,260,34,23,06,325,16,39,05,332,16,1*77
$GBGSV,4,4,13,16,02,340,15,1*42
$GBGSV,2,1,05,24,44,206,26,22,21,098,28,21,08,147,34,26,08,170,36,5*7B
$GBGSV,2,2,05,43,06,260,32,5*43
$GNGLL,4000.580206,N,10514.619966,W,215159.000,A,D*50
$GNRMC,215200.000,A,4000.580206,N,10514.620002,W,0.01,0.00,200324,,,D,V*15
$GNVTG,0.00,T,,M,0.01,N,0.01,K,D*26
$GNGGA,215200.000,4000.580206,N,10514.620002,W,2,38,0.55,1617.187,M,-20.635,M,,*76
$GNGSA,A,3,11,12,20,19,24,05,22,17,,,,,0.90,0.55,0.72,1*01
$GNGSA,A,3,78,88,87,77,81,72,,,,,,,0.90,0.55,0.72,2*02
$GNGSA,A,3,13,27,15,26,30,,,,,,,,0.90,0.55,0.72,3*0B
$GNGSA,A,3,44,34,24,25,22,19,26,21,43,,,,0.90,0.55,0.72,4*06
$GPGSV,3,1,12,11,88,239,30,12,64,302,18,06,51,045,13,44,42,197,44,1*6F
$GPGSV,3,2,12,20,40,160,46,25,32,312,,19,30,078,24,24,17,225,44,1*64
$GPGSV,3,3,12,05,10,181,50,22,08,140,42,17,08,088,28,29,04,279,,1*62
$GPGSV,1,1,01,24,17,225,32,8*58
$GLGSV,3,1,09,78,64,278,24,88,62,308,20,87,36,037,15,77,34,180,32,1*7D
$GLGSV,3,2,09,79,21,328,18,81,20,256,37,72,15,080,23,71,11,034,,1*7A
$GLGSV,3,3,09,65,02,131,16,1*44
$GAGSV,2,1,07,13,68,236,40,27,64,159,43,21,56,306,14,15,54,043,16,7*70
$GAGSV,2,2,07,26,14,230,43,30,13,143,45,34,05,047,13,7*46
$GAGSV,1,1,04,13,68,236,33,27,64,159,31,26,14,230,31,30,13,143,28,1*7D
$GBGSV,4,1,14,12,72,335,16,44,62,040,22,34,50,278,25,24,44,206,40,1*7C
$GBGSV,4,2,14,25,42,288,25,22,21,098,33,19,11,046,15,26,08,170,46,1*75
$GBGSV,4,3,14,21,08,147,45,23,07,324,16,43,06,260,34,39,05,332,15,1*73
$GBGSV,4,4,14,57,04,078,,16,02,340,15,1*7C
$GBGSV,2,1,05,24,44,206,26,22,21,098,27,21,08,147,34,26,08,170,36,5*74
$GBGSV,2,2,05,43,06,260,32,5*43
$GNGLL,4000.580206,N,10514.620002,W,215200.000,A,D*5E
$GNRMC,215201.000,A,4000.580224,N,10514.620014,W,0.01,0.00,200324,,,D,V*13
$GNVTG,0.00,T,,M,0.01,N,0.01,K,D*26
$GNGGA,215201.000,4000.580224,N,10514.620014,W,2,38,0.55,1617.224,M,-20.635,M,,*7A
$GNGSA,A,3,11,12,20,19,24,05,17,22,,,,,0.90,0.55,0.72,1*01
$GNGSA,A,3,78,88,87,77,81,72,,,,,,,0.90,0.55,0.72,2*02
$GNGSA,A,3,13,27,15,26,30,,,,,,,,0.90,0.55,0.72,3*0B
$GNGSA,A,3,44,34,24,25,22,19,26,21,43,,,,0.90,0.55,0.72,4*06
$GPGSV,3,1,12,11,88,239,30,12,64,302,17,06,51,045,14,44,42,197,44,1*67
$GPGSV,3,2,12,20,40,160,46,25,32,312,,19,30,078,23,24,17,225,44,1*63
$GPGSV,3,3,12,05,10,181,50,17,08,088,27,22,08,140,41,29,04,279,,1*6E
$GPGSV,1,1,01,24,17,225,32,8*58
$GLGSV,3,1,09,78,64,278,23,88,62,308,17,87,36,037,17,77,34,180,33,1*7D
$GLGSV,3,2,09,79,21,328,16,81,20,256,37,72,15,080,23,71,11,034,,1*74
$GLGSV,3,3,09,65,02,131,16,1*44
$GAGSV,2,1,07,13,68,236,40,27,64,159,43,21,56,306,13,15,54,043,16,7*77
$GAGSV,2,2,07,26,14,230,43,30,13,143,45,34,05,047,13,7*46
$GAGSV,1,1,04,13,68,236,33,27,64,159,31,26,14,230,31,30,13,143,28,1*7D
$GBGSV,4,1,13,12,72,335,16,44,62,040,23,34,50,278,24,24,43,206,40,1*7C
$GBGSV,4,2,13,25,42,288,25,22,21,098,33,19,11,046,16,26,08,170,46,1*71
$GBGSV,4,3,13,21,08,147,45,23,07,324,16,43,06,260,34,39,05,332,15,1*74
$GBGSV,4,4,13,16,02,340,15,1*42
$GBGSV,2,1,05,24,43,206,26,22,21,098,27,21,08,147,34,26,08,170,36,5*73
$GBGSV,2,2,05,43,06,260,32,5*43
$GNGLL,4000.580224,N,10514.620014,W,215201.000,A,D*58
$GNRMC,215202.000,A,4000.580260,N,10514.620014,W,0.01,0.00,200324,,,D,V*10
$GNVTG,0.00,T,,M,0.01,N,0.01,K,D*26
$GNGGA,215202.000,4000.580260,N,10514.620014,W,2,38,0.55,1617.234,M,-20.635,M,,*78
$GNGSA,A,3,11,12,20,19,24,05,17,22,,,,,0.90,0.55,0.72,1*01
$GNGSA,A,3,78,88,87,77,81,72,,,,,,,0.90,0.55,0.72,2*02
$GNGSA,A,3,13,27,15,26,30,,,,,,,,0.90,0.55,0.72,3*0B
$GNGSA,A,3,44,34,24,25,22,19,26,21,43,,,,0.90,0.55,0.72,4*06
$GPGSV,3,1,12,11,88,239,30,12,64,302,14,06,51,045,,44,42,197,44,1*61
$GPGSV,3,2,12,20,40,160,46,25,32,312,,19,30,078,20,24,17,225,44,1*60
$GPGSV,3,3,12,05,10,181,50,17,08,088,27,22,08,140,41,29,04,279,,1*6E
$GPGSV,1,1,01,24,17,225,32,8*58
$GLGSV,3,1,09,78,64,278,22,88,62,308,17,87,36,037,20,77,34,180,33,1*78
$GLGSV,3,2,09,79,21,328,15,81,20,256,37,72,15,080,22,71,11,034,,1*76
$GLGSV,3,3,09,65,02,131,16,1*44
$GAGSV,2,1,07,13,68,236,40,27,64,159,43,21,56,306,13,15,54,043,15,7*74
$GAGSV,2,2,07,26,14,230,43,30,13,143,45,34,05,047,13,7*46
$GAGSV,1,1,04,13,68,236,33,27,64,159,31,26,14,230,31,30,13,143,28,1*7D
$GBGSV,4,1,13,12,72,335,16,44,62,040,24,34,50,278,22,24,43,206,40,1*7D
$GBGSV,4,2,13,25,43,287,27,22,21,098,33,19,11,046,16,26,08,170,46,1*7D
$GBGSV,4,3,13,21,08,147,45,23,07,324,16,43,06,260,34,39,05,332,15,1*74
$GBGSV,4,4,13,16,02,340,15,1*42
$GBGSV,2,1,05,24,43,206,26,22,21,098,27,21,08,147,34,26,08,170,36,5*73
$GBGSV,2,2,05,43,06,260,32,5*43
$GNGLL,4000.580260,N,10514.620014,W,215202.000,A,D*5B
$GNRMC,215203.000,A,4000.580314,N,10514.620020,W,0.01,0.00,200324,,,D,V*14
$GNVTG,0.00,T,,M,0.01,N,0.01,K,D*26
$GNGGA,215203.000,4000.580314,N,10514.620020,W,2,38,0.55,1617.209,M,-20.635,M,,*72
$GNGSA,A,3,11,12,20,19,24,05,22,17,,,,,0.90,0.55,0.72,1*01
$GNGSA,A,3,78,88,87,77,81,72,,,,,,,0.90,0.55,0.72,2*02
$GNGSA,A,3,13,27,15,26,30,,,,,,,,0.90,0.55,0.72,3*0B
$GNGSA,A,3,44,34,25,24,22,19,21,26,43,,,,0.90,0.55,0.72,4*06
$GPGSV,3,1,12,11,88,239,29,12,64,302,14,06,51,045,,44,42,197,44,1*69
$GPGSV,3,2,12,20,40,160,46,25,32,312,,19,30,078,18,24,17,225,44,1*6B
$GPGSV,3,3,12,05,10,181,50,22,08,140,41,17,08,088,27,29,04,279,,1*6E
$GPGSV,1,1,01,24,17,225,32,8*58
$GLGSV,3,1,09,78,64,278,22,88,62,308,15,87,36,037,20,77,34,180,33,1*7A
$GLGSV,3,2,09,79,21,328,15,81,20,256,37,72,15,080,21,71,11,034,,1*75
$GLGSV,3,3,09,65,02,131,17,1*45
$GAGSV,2,1,07,13,68,236,40,27,64,159,43,21,56,306,13,15,54,043,16,7*77
$GAGSV,2,2,07,26,14,230,43,30,13,143,45,34,05,047,13,7*46
$GAGSV,1,1,04,13,68,236,33,27,64,159,31,26,14,230,31,30,13,143,28,1*7D
$GBGSV,4,1,13,12,72,335,16,44,62,040,24,34,50,278,20,25,43,287,26,1*77
$GBGSV,4,2,13,24,43,206,40,22,21,098,33,19,11,046,18,21,08,147,45,1*7A
$GBGSV,4,3,13,23,07,324,16,26,07,170,46,43,06,260,33,39,05,332,15,1*7C
$GBGSV,4,4,13,16,02,340,15,1*42
$GBGSV,2,1,05,24,43,206,26,22,21,098,26,21,08,147,34,26,07,170,36,5*7D
$GBGSV,2,2,05,43,06,260,32,5*43
$GNGLL,4000.580314,N,10514.620020,W,215203.000,A,D*5F
$GNRMC,215204.000,A,4000.580344,N,10514.619996,W,0.01,0.00,200324,,,D,V*18
$GNVTG,0.00,T,,M,0.01,N,0.01,K,D*26
$GNGGA,215204.000,4000.580344,N,10514.619996,W,2,38,0.55,1617.166,M,-20.635,M,,*74
$GNGSA,A,3,11,12,20,19,24,05,22,17,,,,,0.90,0.55,0.72,1*01
$GNGSA,A,3,78,88,87,77,81,72,,,,,,,0.90,0.55,0.72,2*02
$GNGSA,A,3,13,27,15,26,30,,,,,,,,0.90,0.55,0.72,3*0B
$GNGSA,A,3,44,34,25,24,22,19,21,26,43,,,,0.90,0.55,0.72,4*06
$GPGSV,3,1,12,11,88,239,29,12,64,302,13,06,51,045,,44,42,197,44,1*6E
$GPGSV,3,2,12,20,40,160,46,25,32,312,,19,30,078,15,24,17,225,44,1*66
$GPGSV,3,3,12,05,10,181,50,22,08,140,41,17,08,088,27,29,04,279,,1*6E
$GPGSV,1,1,01,24,17,225,32,8*58
$GLGSV,3,1,09,78,64,278,22,88,62,308,18,87,36,037,21,77,34,180,33,1*76
$GLGSV,3,2,09,79,21,328,15,81,20,256,37,72,15,080,20,71,11,034,,1*74
$GLGSV,3,3,09,65,02,131,18,1*4A
$GAGSV,2,1,07,13,68,236,40,27,64,159,43,21,56,306,13,15,54,043,15,7*74
$GAGSV,2,2,07,26,14,230,44,30,13,143,45,34,05,047,13,7*41
$GAGSV,1,1,04,13,68,236,33,27,64,159,32,26,14,230,31,30,13,143,28,1*7E
$GBGSV,4,1,13,12,72,335,16,44,62,040,24,34,50,278,18,25,43,287,25,1*7F
$GBGSV,4,2,13,24,43,206,40,22,21,098,33,19,11,046,18,21,08,147,45,1*7A
$GBGSV,4,3,13,23,07,324,15,26,07,170,46,43,06,260,33,39,05,332,15,1*7F
$GBGSV,4,4,13,16,02,340,15,1*42
$GBGSV,2,1,05,24,43,206,27,22,21,098,26,21,08,147,35,26,07,170,37,5*7C
$GBGSV,2,2,05,43,06,260,33,5*42
$GNGLL,4000.580344,N,10514.619996,W,215204.000,A,D*53
$GNRMC,215205.000,A,4000.580380,N,10514.619972,W,0.01,0.00,200324,,,D,V*1B
$GNVTG,0.00,T,,M,0.01,N,0.01,K,D*26
$GNGGA,215205.000,4000.580380,N,10514.619972,W,2,37,0.56,1617.158,M,-20.635,M,,*76
$GNGSA,A,3,11,20,19,24,05,22,17,,,,,,0.92,0.56,0.73,1*02
$GNGSA,A,3,78,88,87,77,81,72,,,,,,,0.92,0.56,0.73,2*02
$GNGSA,A,3,13,27,15,26,30,,,,,,,,0.92,0.56,0.73,3*0B
$GNGSA,A,3,44,34,25,24,22,19,21,26,43,,,,0.92,0.56,0.73,4*06
$GPGSV,3,1,12,11,88,239,29,12,64,302,,06,51,045,,44,42,197,44,1*6C
$GPGSV,3,2,12,20,40,160,46,25,32,312,,19,30,078,12,24,17,225,44,1*61
$GPGSV,3,3,12,05,10,181,50,22,08,140,41,17,08,088,27,29,04,279,,1*6E
$GPGSV,1,1,01,24,17,225,32,8*58
$GLGSV,2,1,08,78,64,278,22,88,62,308,21,87,36,037,20,77,34,180,33,1*7D
$GLGSV,2,2,08,79,21,328,14,81,20,256,38,72,15,080,19,65,02,131,18,1*7A
$GAGSV,2,1,07,13,68,236,40,27,64,159,43,21,56,306,13,15,54,043,16,7*77
$GAGSV,2,2,07,26,14,230,44,30,13,143,45,34,05,047,12,7*40
$GAGSV,1,1,04,13,68,236,33,27,64,159,32,26,14,230,31,30,13,143,28,1*7E
$GBGSV,4,1,13,12,72,335,16,44,62,040,23,34,50,278,15,25,43,287,25,1*75
$GBGSV,4,2,13,24,43,206,40,22,21,098,33,19,11,046,18,21,08,147,45,1*7A
$GBGSV,4,3,13,23,07,324,15,26,07,170,46,43,06,260,33,39,05,332,15,1*7F
$GBGSV,4,4,13,16,02,340,15,1*42
$GBGSV,2,1,05,24,43,206,26,22,21,098,26,21,08,147,35,26,07,170,37,5*7D
$GBGSV,2,2,05,43,06,260,33,5*42
$GNGLL,4000.580380,N,10514.619972,W,215205.000,A,D*50
$GNRMC,215206.000,A,4000.580410,N,10514.619936,W,0.01,0.00,200324,,,D,V*16
$GNVTG,0.00,T,,M,0.01,N,0.01,K,D*26
$GNGGA,215206.000,4000.580410,N,10514.619936,W,2,37,0.56,1617.120,M,-20.635,M,,*74
$GNGSA,A,3,11,20,19,24,05,22,17,,,,,,0.92,0.56,0.73,1*02
$GNGSA,A,3,78,88,87,77,81,72,,,,,,,0.92,0.56,0.73,2*02
$GNGSA,A,3,13,27,15,26,30,,,,,,,,0.92,0.56,0.73,3*0B
$GNGSA,A,3,44,34,25,24,22,19,21,26,43,,,,0.92,0.56,0.73,4*06
$GPGSV,3,1,12,11,88,239,29,12,64,302,,06,51,045,,44,42,197,44,1*6C
$GPGSV,3,2,12,20,40,160,46,25,32,312,,19,30,078,16,24,17,225,44,1*65
$GPGSV,3,3,12,05,10,181,50,22,08,140,41,17,08,088,27,29,04,279,,1*6E
$GPGSV,1,1,01,24,17,225,32,8*58
$GLGSV,2,1,08,78,64,278,22,88,62,308,23,87,36,037,20,77,34,180,33,1*7F
$GLGSV,2,2,08,79,21,328,14,81,20,256,38,72,15,080,19,65,02,131,18,1*7A
$GAGSV,2,1,07,13,68,236,40,27,64,159,43,21,56,306,13,15,54,043,16,7*77
$GAGSV,2,2,07,26,14,230,44,30,13,143,45,34,05,047,10,7*42
$GAGSV,1,1,04,13,68,236,33,27,64,159,32,26,14,230,31,30,13,143,28,1*7E
$GBGSV,4,1,13,12,72,335,16,44,62,040,20,34,50,278,15,25,43,287,23,1*70
$GBGSV,4,2,13,24,43,206,40,22,21,098,33,19,11,046,17,21,08,147,45,1*75
$GBGSV,4,3,13,23,07,324,14,26,07,170,46,43,06,260,32,39,05,332,15,1*7F
$GBGSV,4,4,13,16,02,340,15,1*42
$GBGSV,2,1,05,24,43,206,26,22,21,098,26,21,08,147,35,26,07,170,37,5*7D
$GBGSV,2,2,05,43,06,260,33,5*42
$GNGLL,4000.580410,N,10514.619936,W,215206.000,A,D*5D
$GNRMC,215207.000,A,4000.580422,N,10514.619876,W,0.01,0.00,200324,,,D,V*13
$GNVTG,0.00,T,,M,0.01,N,0.01,K,D*26
$GNGGA,215207.000,4000.580422,N,10514.619876,W,2,37,0.56,1617.050,M,-20.635,M,,*77
$GNGSA,A,3,11,20,19,24,05,22,17,,,,,,0.92,0.56,0.73,1*02
$GNGSA,A,3,78,88,87,77,81,72,,,,,,,0.92,0.56,0.73,2*02
$GNGSA,A,3,13,27,15,26,30,,,,,,,,0.92,0.56,0.73,3*0B
$GNGSA,A,3,44,34,25,24,22,19,21,26,43,,,,0.92,0.56,0.73,4*06
$GPGSV,3,1,12,11,88,239,29,12,64,302,,06,51,045,,44,42,197,44,1*6C
$GPGSV,3,2,12,20,40,160,46,25,32,312,,19,30,078,19,24,17,225,44,1*6A
$GPGSV,3,3,12,05,10,181,50,22,08,140,41,17,08,088,27,29,04,279,,1*6E
$GPGSV,1,1,01,24,17,225,32,8*58
$GLGSV,2,1,08,78,64,278,25,88,62,308,22,87,36,037,20,77,34,180,33,1*79
$GLGSV,2,2,08,79,21,328,14,81,20,256,38,72,15,080,18,65,02,131,18,1*7B
$GAGSV,2,1,07,13,68,236,40,27,64,159,43,21,56,306,14,15,54,043,16,7*70
$GAGSV,2,2,07,26,14,230,44,30,13,143,45,34,05,047,09,7*4A
$GAGSV,1,1,04,13,68,236,33,27,64,159,32,26,14,230,31,30,13,143,28,1*7E
$GBGSV,4,1,13,12,72,335,15,44,62,040,19,34,50,278,17,25,43,287,21,1*79
$GBGSV,4,2,13,24,43,206,40,22,21,098,33,19,11,046,17,21,08,147,45,1*75
$GBGSV,4,3,13,23,07,324,13,26,07,170,46,43,06,260,32,39,05,332,15,1*78
$GBGSV,4,4,13,16,02,340,15,1*42
$GBGSV,2,1,05,24,43,206,26,22,21,098,26,21,08,147,35,26,07,170,37,5*7D
$GBGSV,2,2,05,43,06,260,33,5*42
$GNGLL,4000.580422,N,10514.619876,W,215207.000,A,D*58
$GNRMC,215208.000,A,4000.580470,N,10514.619828,W,0.01,0.00,200324,,,D,V*10
$GNVTG,0.00,T,,M,0.01,N,0.01,K,D*26
$GNGGA,215208.000,4000.580470,N,10514.619828,W,2,37,0.56,1616.967,M,-20.635,M,,*78
$GNGSA,A,3,11,20,19,24,05,22,17,,,,,,0.92,0.56,0.73,1*02
$GNGSA,A,3,78,88,87,77,81,72,,,,,,,0.92,0.56,0.73,2*02
$GNGSA,A,3,13,27,15,26,30,,,,,,,,0.92,0.56,0.73,3*0B
$GNGSA,A,3,44,34,25,24,22,19,21,26,43,,,,0.92,0.56,0.73,4*06
$GPGSV,3,1,12,11,88,239,29,12,64,302,,06,51,045,,44,42,197,44,1*6C
$GPGSV,3,2,12,20,40,160,46,25,32,312,,19,30,078,23,24,17,225,44,1*63
$GPGSV,3,3,12,05,10,181,51,22,08,140,42,17,08,088,27,29,04,279,,1*6C
$GPGSV,1,1,01,24,17,225,32,8*58
$GLGSV,2,1,08,78,64,278,20,88,62,308,20,87,36,037,20,77,34,180,33,1*7E
$GLGSV,2,2,08,79,21,328,15,81,20,256,38,72,15,080,18,65,02,131,19,1*7B
$GAGSV,2,1,07,13,68,236,40,27,64,159,43,21,56,306,15,15,54,043,16,7*71
$GAGSV,2,2,07,26,14,230,44,30,13,143,45,34,05,047,09,7*4A
$GAGSV,1,1,04,13,68,236,33,27,64,159,32,26,14,230,31,30,13,143,28,1*7E
$GBGSV,4,1,13,12,72,335,14,44,62,040,19,34,50,278,17,25,43,287,22,1*7B
$GBGSV,4,2,13,24,43,206,40,22,21,098,33,19,11,046,16,21,08,147,45,1*74
$GBGSV,4,3,13,23,07,324,13,26,07,170,46,43,06,260,32,39,05,332,15,1*78
$GBGSV,4,4,13,16,02,340,14,1*43
$GBGSV,2,1,05,24,43,206,26,22,21,098,26,21,08,147,35,26,07,170,37,5*7D
$GBGSV,2,2,05,43,06,260,33,5*42
$GNGLL,4000.580470,N,10514.619828,W,215208.000,A,D*5B
$GNRMC,215209.000,A,4000.580554,N,10514.619792,W,0.01,0.00,200324,,,D,V*18
$GNVTG,0.00,T,,M,0.01,N,0.01,K,D*26
$GNGGA,215209.000,4000.580554,N,10514.619792,W,2,38,0.55,1616.876,M,-20.634,M,,*7C
$GNGSA,A,3,11,12,20,19,24,05,22,17,,,,,0.90,0.55,0.72,1*01
$GNGSA,A,3,78,88,87,77,81,72,,,,,,,0.90,0.55,0.72,2*02
$GNGSA,A,3,13,27,15,26,30,,,,,,,,0.90,0.55,0.72,3*0B
$GNGSA,A,3,44,34,25,24,22,19,21,26,43,,,,0.90,0.55,0.72,4*06
$GPGSV,3,1,12,11,88,239,29,12,64,302,17,06,51,045,,44,42,197,44,1*6A
$GPGSV,3,2,12,20,40,160,46,25,32,312,,19,30,078,24,24,17,225,44,1*64
$GPGSV,3,3,12,05,10,181,51,22,08,140,42,17,08,088,27,29,04,279,,1*6C
$GPGSV,1,1,01,24,17,225,32,8*58
$GLGSV,3,1,09,78,64,278,18,88,62,308,18,87,36,037,20,77,34,180,33,1*7E
$GLGSV,3,2,09,79,21,328,16,81,20,256,38,72,15,080,17,71,11,034,,1*7C
$GLGSV,3,3,09,65,02,131,19,1*4B
$GAGSV,2,1,07,13,68,236,40,27,64,159,43,21,56,306,16,15,54,043,16,7*72
$GAGSV,2,2,07,26,14,230,44,30,13,143,45,34,05,047,09,7*4A
$GAGSV,1,1,04,13,68,236,34,27,64,159,32,26,14,230,31,30,13,143,28,1*79
$GBGSV,4,1,13,12,72,335,14,44,62,040,17,34,50,278,16,25,43,287,20,1*76
$GBGSV,4,2,13,24,43,206,40,22,21,098,33,19,11,046,16,21,08,147,45,1*74
$GBGSV,4,3,13,23,07,324,,26,07,170,46,43,06,260,32,39,05,332,15,1*7A
$GBGSV,4,4,13,16,02,340,14,1*43
$GBGSV,2,1,05,24,43,206,26,22,21,098,25,21,08,147,35,26,07,170,37,5*7E
$GBGSV,2,2,05,43,06,260,33,5*42
$GNGLL,4000.580554,N,10514.619792,W,215209.000,A,D*53
$GNRMC,215210.000,A,4000.580644,N,10514.619750,W,0.01,0.00,200324,,,D,V*1C
$GNVTG,0.00,T,,M,0.01,N,0.02,K,D*25
$GNGGA,215210.000,4000.580644,N,10514.619750,W,2,38,0.55,1616.780,M,-20.634,M,,*7E
$GNGSA,A,3,11,12,20,19,24,05,22,17,,,,,0.90,0.55,0.72,1*01
$GNGSA,A,3,78,88,87,77,81,72,,,,,,,0.90,0.55,0.72,2*02
$GNGSA,A,3,13,27,15,26,30,,,,,,,,0.90,0.55,0.72,3*0B
$GNGSA,A,3,44,34,25,24,22,19,21,26,43,,,,0.90,0.55,0.72,4*06
$GPGSV,3,1,12,11,88,239,29,12,64,302,18,06,51,045,,44,42,197,44,1*65
$GPGSV,3,2,12,20,40,160,46,25,32,312,,19,30,078,24,24,17,225,44,1*64
$GPGSV,3,3,12,05,10,181,51,22,08,140,42,17,08,088,27,29,04,279,,1*6C
$GPGSV,1,1,01,24,17,225,32,8*58
$GLGSV,3,1,09,78,64,278,22,88,62,308,16,87,36,037,19,77,34,180,33,1*73
$GLGSV,3,2,09,79,21,328,16,81,20,256,38,72,15,080,17,71,11,034,,1*7C
$GLGSV,3,3,09,65,02,131,19,1*4B
$GAGSV,2,1,07,13,68,236,40,27,64,159,43,21,56,306,16,15,54,043,16,7*72
$GAGSV,2,2,07,26,14,230,44,30,13,143,45,34,05,047,09,7*4A
$GAGSV,1,1,04,13,68,236,33,27,64,159,32,26,14,230,31,30,13,143,28,1*7E
$GBGSV,4,1,13,12,72,335,14,44,62,040,16,34,50,278,16,25,43,287,17,1*73
$GBGSV,4,2,13,24,43,206,40,22,21,098,32,19,11,046,16,21,08,147,45,1*75
$GBGSV,4,3,13,23,07,324,,26,07,170,46,43,06,260,32,39,05,332,15,1*7A
$GBGSV,4,4,13,16,02,340,13,1*44
$GBGSV,2,1,05,24,43,206,26,22,21,098,25,21,08,147,35,26,07,170,37,5*7E
$GBGSV,2,2,05,43,06,260,32,5*43
$GNGLL,4000.580644,N,10514.619750,W,215210.000,A,D*57
$GNRMC,215211.000,A,4000.580716,N,10514.619720,W,0.01,0.00,200324,,,D,V*1C
$GNVTG,0.00,T,,M,0.01,N,0.01,K,D*26
$GNGGA,215211.000,4000.580716,N,10514.619720,W,2,38,0.55,1616.658,M,-20.635,M,,*7B
$GNGSA,A,3,11,12,20,19,24,05,22,17,,,,,0.90,0.55,0.72,1*01
$GNGSA,A,3,78,88,87,77,81,72,,,,,,,0.90,0.55,0.72,2*02
$GNGSA,A,3,13,27,15,26,30,,,,,,,,0.90,0.55,0.72,3*0B
$GNGSA,A,3,44,34,25,24,22,19,21,26,43,,,,0.90,0.55,0.72,4*06
$GPGSV,3,1,12,11,88,239,29,12,64,302,20,06,51,045,,44,42,197,44,1*6E
$GPGSV,3,2,12,20,40,160,46,25,32,312,,19,30,078,25,24,17,225,44,1*65
$GPGSV,3,3,12,05,10,181,51,22,08,140,42,17,08,088,27,29,04,279,,1*6C
$GPGSV,1,1,01,24,17,225,32,8*58
$GLGSV,3,1,09,78,64,278,25,88,62,308,14,87,36,037,18,77,34,180,33,1*77
$GLGSV,3,2,09,79,21,328,16,81,20,256,38,72,15,080,17,71,11,034,,1*7C
$GLGSV,3,3,09,65,02,131,21,1*40
$GAGSV,2,1,07,13,68,236,40,27,64,159,43,21,56,306,16,15,54,043,16,7*72
$GAGSV,2,2,07,26,14,230,44,30,13,143,45,34,05,047,09,7*4A
$GAGSV,1,1,04,13,68,236,32,27,64,159,32,26,14,230,31,30,13,143,27,1*70
$GBGSV,4,1,14,12,72,335,15,44,62,040,15,34,51,279,18,25,43,287,15,1*7A
$GBGSV,4,2,14,24,43,206,40,22,21,098,32,19,11,046,16,21,08,147,45,1*72
$GBGSV,4,3,14,23,07,324,,26,07,170,46,43,06,260,32,39,05,332,15,1*7D
$GBGSV,4,4,14,57,04,078,,16,02,340,13,1*7A
$GBGSV,2,1,05,24,43,206,25,22,21,098,25,21,08,147,35,26,07,170,37,5*7D
$GBGSV,2,2,05,43,06,260,31,5*40
$GNGLL,4000.580716,N,10514.619720,W,215211.000,A,D*57
$GNRMC,215212.000,A,4000.580776,N,10514.619696,W,0.01,0.00,200324,,,D,V*15
$GNVTG,0.00,T,,M,0.01,N,0.01,K,D*26
$GNGGA,215212.000,4000.580776,N,10514.619696,W,2,38,0.55,1616.571,M,-20.635,M,,*7A
$GNGSA,A,3,11,12,20,19,24,05,22,17,,,,,0.90,0.55,0.72,1*01
$GNGSA,A,3,78,88,87,77,81,72,,,,,,,0.90,0.55,0.72,2*02
$GNGSA,A,3,13,27,15,26,30,,,,,,,,0.90,0.55,0.72,3*0B
$GNGSA,A,3,44,34,25,24,22,19,21,26,43,,,,0.90,0.55,0.72,4*06
$GPGSV,3,1,12,11,88,239,28,12,64,302,20,06,51,045,,44,42,197,44,1*6F
$GPGSV,3,2,12,20,40,160,46,25,32,312,,19,30,078,23,24,17,225,44,1*63
$GPGSV,3,3,12,05,10,181,51,22,08,140,42,17,08,088,27,29,04,279,,1*6C
$GPGSV,1,1,01,24,17,225,32,8*58
$GLGSV,3,1,09,78,64,278,25,88,62,308,16,87,36,037,17,77,34,180,33,1*7A
$GLGSV,3,2,09,79,21,328,16,81,20,256,38,72,15,080,18,71,11,034,,1*73
$GLGSV,3,3,09,65,02,131,22,1*43
$GAGSV,2,1,07,13,68,236,40,27,64,159,43,21,56,306,17,15,54,043,16,7*73
$GAGSV,2,2,07,26,14,230,44,30,13,143,45,34,05,047,08,7*4B
$GAGSV,1,1,04,13,68,236,32,27,64,159,31,26,14,230,31,30,13,143,27,1*73
$GBGSV,4,1,13,12,72,335,16,44,62,040,13,34,51,279,19,25,43,287,13,1*7F
$GBGSV,4,2,13,24,43,206,40,22,21,098,31,19,11,046,16,21,08,147,45,1*76
$GBGSV,4,3,13,23,07,324,,26,07,170,46,43,06,260,32,39,05,332,15,1*7A
$GBGSV,4,4,13,16,02,340,13,1*44
$GBGSV,2,1,05,24,43,206,25,22,21,098,25,21,08,147,35,26,07,170,36,5*7C
$GBGSV,2,2,05,43,06,260,31,5*40
$GNGLL,4000.580776,N,10514.619696,W,215212.000,A,D*5E
$GNRMC,215213.000,A,4000.580830,N,10514.619660,W,0.01,0.00,200324,,,D,V*10
$GNVTG,0.00,T,,M,0.01,N,0.01,K,D*26
$GNGGA,215213.000,4000.580830,N,10514.619660,W,2,38,0.55,1616.487,M,-20.635,M,,*77
$GNGSA,A,3,11,12,20,19,24,05,22,17,,,,,0.90,0.55,0.72,1*01
$GNGSA,A,3,78,88,87,77,81,72,,,,,,,0.90,0.55,0.72,2*02
$GNGSA,A,3,13,27,15,26,30,,,,,,,,0.90,0.55,0.72,3*0B
$GNGSA,A,3,44,34,25,24,22,19,21,26,43,,,,0.90,0.55,0.72,4*06
$GPGSV,3,1,12,11,88,239,27,12,64,302,21,06,51,045,,44,42,197,44,1*61
$GPGSV,3,2,12,20,40,160,46,25,32,312,,19,30,078,21,24,17,225,44,1*61
$GPGSV,3,3,12,05,10,181,51,22,08,140,42,17,08,088,27,29,04,279,,1*6C
$GPGSV,1,1,01,24,17,225,32,8*58
$GLGSV,3,1,09,78,64,278,21,88,62,308,18,87,36,037,17,77,34,180,33,1*70
$GLGSV,3,2,09,79,21,328,16,81,20,256,38,72,15,080,19,71,11,034,,1*72
$GLGSV,3,3,09,65,02,131,22,1*43
$GAGSV,2,1,07,13,68,236,40,27,64,159,43,21,56,306,18,15,54,043,16,7*7C
$GAGSV,2,2,07,26,14,230,44,30,13,143,45,34,05,047,08,7*4B
$GAGSV,1,1,04,13,68,236,32,27,64,159,31,26,14,230,31,30,13,143,28,1*7C
$GBGSV,4,1,13,12,72,335,16,44,62,040,14,34,51,279,22,25,43,287,13,1*70
$GBGSV,4,2,13,24,43,206,40,22,21,098,31,19,11,046,16,21,08,147,45,1*76
$GBGSV,4,3,13,23,07,324,,26,07,170,46,43,06,260,33,39,05,332,16,1*78
$GBGSV,4,4,13,16,02,340,13,1*44
$GBGSV,2,1,05,24,43,206,25,22,21,098,25,21,08,147,35,26,07,170,36,5*7C
$GBGSV,2,2,05,43,06,260,31,5*40
$GNGLL,4000.580830,N,10514.619660,W,215213.000,A,D*5B
$GNRMC,215214.000,A,4000.580878,N,10514.619618,W,0.01,0.00,200324,,,D,V*14
$GNVTG,0.00,T,,M,0.01,N,0.01,K,D*26
$GNGGA,215214.000,4000.580878,N,10514.619618,W,2,38,0.55,1616.495,M,-20.635,M,,*70
$GNGSA,A,3,11,12,20,19,24,05,22,17,,,,,0.90,0.55,0.72,1*01
$GNGSA,A,3,78,88,87,77,81,72,,,,,,,0.90,0.55,0.72,2*02
$GNGSA,A,3,13,27,15,26,30,,,,,,,,0.90,0.55,0.72,3*0B
$GNGSA,A,3,44,34,25,24,22,19,21,26,43,,,,0.90,0.55,0.72,4*06
$GPGSV,3,1,12,11,88,239,26,12,64,302,21,06,51,045,,44,42,197,44,1*60
$GPGSV,3,2,12,20,40,160,46,25,32,312,,19,30,078,19,24,17,225,44,1*6A
$GPGSV,3,3,12,05,10,181,51,22,08,140,42,17,08,088,26,29,04,279,,1*6D
$GPGSV,1,1,01,24,17,225,33,8*59
$GLGSV,3,1,09,78,64,278,23,88,62,308,18,87,36,037,17,77,34,180,33,1*72
$GLGSV,3,2,09,79,21,328,16,81,20,256,38,72,15,080,20,71,11,034,,1*78
$GLGSV,3,3,09,65,02,131,23,1*42
$GAGSV,2,1,07,13,68,236,40,27,64,159,43,21,56,306,18,15,54,043,16,7*7C
$GAGSV,2,2,07,26,14,230,44,30,13,143,45,34,05,047,07,7*44
$GAGSV,1,1,04,13,68,236,33,27,64,159,32,26,14,230,32,30,13,143,28,1*7D
$GBGSV,4,1,13,12,72,335,16,44,62,040,13,34,51,279,24,25,43,287,17,1*75
$GBGSV,4,2,13,24,43,206,40,22,21,098,31,19,11,046,16,21,08,147,45,1*76
$GBGSV,4,3,13,23,07,324,,26,07,170,46,43,06,260,33,39,05,332,15,1*7B
$GBGSV,4,4,13,16,02,340,12,1*45
$GBGSV,2,1,05,24,43,206,25,22,21,098,25,21,08,147,35,26,07,170,36,5*7C
$GBGSV,2,2,05,43,06,260,31,5*40
$GNGLL,4000.580878,N,10514.619618,W,215214.000,A,D*5F
$GNRMC,215215.000,A,4000.580908,N,10514.619588,W,0.00,0.00,200324,,,D,V*18
$GNVTG,0.00,T,,M,0.00,N,0.01,K,D*27
$GNGGA,215215.000,4000.580908,N,10514.619588,W,2,37,0.60,1616.503,M,-20.635,M,,*7A
$GNGSA,A,3,11,12,20,19,24,05,22,17,,,,,0.98,0.60,0.78,1*05
$GNGSA,A,3,78,88,87,77,81,72,,,,,,,0.98,0.60,0.78,2*06
$GNGSA,A,3,13,27,15,26,30,,,,,,,,0.98,0.60,0.78,3*0F
$GNGSA,A,3,44,34,25,24,22,21,26,43,,,,,0.98,0.60,0.78,4*0A
$GPGSV,3,1,12,11,88,239,25,12,64,302,22,06,51,045,,44,42,197,44,1*60
$GPGSV,3,2,12,20,40,160,46,25,32,312,,19,30,078,18,24,17,225,44,1*6B
$GPGSV,3,3,12,05,10,181,51,22,08,140,42,17,08,088,26,29,04,279,,1*6D
$GPGSV,1,1,01,24,17,225,33,8*59
$GLGSV,3,1,09,78,64,278,27,88,62,308,20,87,36,037,18,77,34,180,33,1*72
$GLGSV,3,2,09,79,21,328,16,81,20,256,38,72,15,080,21,71,11,034,,1*79
$GLGSV,3,3,09,65,02,131,24,1*45
$GAGSV,2,1,07,13,68,236,40,27,64,159,43,21,56,306,18,15,54,043,16,7*7C
$GAGSV,2,2,07,26,14,230,44,30,13,143,45,34,05,047,07,7*44
$GAGSV,1,1,04,13,68,236,33,27,64,159,32,26,14,230,32,30,13,143,28,1*7D
$GBGSV,4,1,14,12,72,335,16,44,62,040,11,34,51,279,24,25,43,287,18,1*7F
$GBGSV,4,2,14,24,43,206,40,22,21,098,32,19,11,046,13,21,08,147,45,1*77
$GBGSV,4,3,14,23,07,324,17,26,07,170,46,43,06,260,33,39,05,332,14,1*7B
$GBGSV,4,4,14,57,04,078,,16,02,340,12,1*7B
$GBGSV,2,1,05,24,43,206,25,22,21,098,25,21,08,147,35,26,07,170,36,5*7C
$GBGSV,2,2,05,43,06,260,31,5*40
$GNGLL,4000.580908,N,10514.619588,W,215215.000,A,D*52
$GNRMC,215216.000,A,4000.580908,N,10514.619528,W,0.01,0.00,200324,,,D,V*10
$GNVTG,0.00,T,,M,0.01,N,0.01,K,D*26
$GNGGA,215216.000,4000.580908,N,10514.619528,W,2,38,0.55,1616.541,M,-20.635,M,,*7C
$GNGSA,A,3,11,12,20,19,24,05,22,17,,,,,0.90,0.55,0.72,1*01
$GNGSA,A,3,78,88,87,77,81,72,,,,,,,0.90,0.55,0.72,2*02
$GNGSA,A,3,13,27,15,26,30,,,,,,,,0.90,0.55,0.72,3*0B
$GNGSA,A,3,44,34,25,24,22,19,21,26,43,,,,0.90,0.55,0.72,4*06
$GPGSV,3,1,12,11,88,239,24,12,64,302,22,06,51,045,,44,42,197,44,1*61
$GPGSV,3,2,12,20,40,160,46,25,32,312,,19,30,078,17,24,17,225,44,1*64
$GPGSV,3,3,12,05,10,181,51,22,08,140,42,17,08,088,26,29,04,279,,1*6D
$GPGSV,1,1,01,24,17,225,33,8*59
$GLGSV,3,1,09,78,64,278,27,88,62,308,24,87,36,037,17,77,34,180,33,1*79
$GLGSV,3,2,09,79,21,328,16,81,20,256,38,72,15,080,21,71,11,034,,1*79
$GLGSV,3,3,09,65,02,131,24,1*45
$GAGSV,2,1,07,13,68,236,40,27,64,159,43,21,56,306,17,15,54,043,16,7*73
$GAGSV,2,2,07,26,14,230,44,30,13,143,45,34,05,047,07,7*44
$GAGSV,1,1,04,13,68,236,33,27,64,159,32,26,14,230,32,30,13,143,28,1*7D
$GBGSV,4,1,13,12,72,335,16,44,62,040,13,34,51,279,25,25,43,287,19,1*7A
$GBGSV,4,2,13,24,43,206,40,22,21,098,32,19,11,046,16,21,08,147,45,1*75
$GBGSV,4,3,13,23,07,324,18,26,07,170,46,43,06,260,34,39,05,332,14,1*74
$GBGSV,4,4,13,16,02,340,12,1*45
$GBGSV,2,1,05,24,43,206,25,22,21,098,25,21,08,147,36,26,07,170,36,5*7F
$GBGSV,2,2,05,43,06,260,32,5*43
$GNGLL,4000.580908,N,10514.619528,W,215216.000,A,D*5B
$GNRMC,215217.000,A,4000.580974,N,10514.619468,W,0.01,0.00,200324,,,D,V*1F
$GNVTG,0.00,T,,M,0.01,N,0.02,K,D*25
$GNGGA,215217.000,4000.580974,N,10514.619468,W,2,37,0.60,1616.568,M,-20.635,M,,*71
$GNGSA,A,3,11,12,20,19,24,05,22,17,,,,,0.98,0.60,0.78,1*05
$GNGSA,A,3,78,88,87,77,81,72,,,,,,,0.98,0.60,0.78,2*06
$GNGSA,A,3,13,27,15,26,30,,,,,,,,0.98,0.60,0.78,3*0F
$GNGSA,A,3,44,34,25,24,22,21,26,43,,,,,0.98,0.60,0.78,4*0A
$GPGSV,3,1,12,11,88,239,24,12,64,302,23,06,51,045,,44,42,197,44,1*60
$GPGSV,3,2,12,20,40,160,46,25,32,312,,19,30,078,18,24,17,225,45,1*6A
$GPGSV,3,3,12,05,10,181,51,22,08,140,43,17,08,088,25,29,04,279,,1*6F
$GPGSV,1,1,01,24,17,225,33,8*59
$GLGSV,3,1,09,78,64,278,26,88,62,308,23,87,36,037,17,77,34,180,33,1*7F
$GLGSV,3,2,09,79,21,328,16,81,20,256,38,72,15,080,20,71,11,034,,1*78
$GLGSV,3,3,09,65,02,131,24,1*45
$GAGSV,2,1,07,13,68,236,40,27,64,159,43,21,56,306,17,15,54,043,16,7*73
$GAGSV,2,2,07,26,14,230,44,30,13,143,45,34,05,047,07,7*44
$GAGSV,1,1,04,13,68,236,33,27,64,159,32,26,14,230,32,30,13,143,28,1*7D
$GBGSV,4,1,13,12,72,335,16,44,62,040,16,34,51,279,25,25,43,287,20,1*75
$GBGSV,4,2,13,24,43,206,40,22,21,098,33,19,11,046,13,21,08,147,45,1*71
$GBGSV,4,3,13,23,07,324,17,26,07,170,46,43,06,260,34,39,05,332,14,1*7B
$GBGSV,4,4,13,16,02,340,12,1*45
$GBGSV,2,1,05,24,43,206,25,22,21,098,25,21,08,147,36,26,07,170,37,5*7E
$GBGSV,2,2,05,43,06,260,32,5*43
$GNGLL,4000.580974,N,10514.619468,W,215217.000,A,D*54
$GNRMC,215218.000,A,4000.581004,N,10514.619426,W,0.01,0.00,200324,,,D,V*15
$GNVTG,0.00,T,,M,0.01,N,0.03,K,D*24
$GNGGA,215218.000,4000.581004,N,10514.619426,W,2,36,0.62,1616.582,M,-20.635,M,,*7C
$GNGSA,A,3,11,12,20,19,24,05,22,17,,,,,0.99,0.62,0.78,1*06
$GNGSA,A,3,78,88,87,77,81,72,,,,,,,0.99,0.62,0.78,2*05
$GNGSA,A,3,13,27,15,26,30,,,,,,,,0.99,0.62,0.78,3*0C
$GNGSA,A,3,44,34,24,22,21,26,43,,,,,,0.99,0.62,0.78,4*0E
$GPGSV,3,1,12,11,88,239,24,12,64,302,23,06,51,045,,44,42,197,44,1*60
$GPGSV,3,2,12,20,40,160,46,25,32,312,,19,30,078,19,24,17,225,45,1*6B
$GPGSV,3,3,12,05,10,181,51,22,08,140,43,17,08,088,24,29,04,279,,1*6E
$GPGSV,1,1,01,24,17,225,32,8*58
$GLGSV,3,1,09,78,64,278,30,88,62,308,20,87,36,037,16,77,34,180,33,1*7A
$GLGSV,3,2,09,79,21,328,16,81,20,256,38,72,15,080,19,71,11,034,,1*72
$GLGSV,3,3,09,65,02,131,24,1*45
$GAGSV,2,1,07,13,68,236,40,27,64,159,43,21,56,306,17,15,54,043,16,7*73
$GAGSV,2,2,07,26,14,230,44,30,13,143,45,34,05,047,07,7*44
$GAGSV,1,1,04,13,68,236,33,27,64,159,32,26,14,230,32,30,13,143,28,1*7D
$GBGSV,4,1,14,12,72,335,16,44,62,040,17,34,51,279,22,25,43,287,,1*76
$GBGSV,4,2,14,24,43,206,40,22,21,098,33,19,11,046,13,21,08,147,45,1*76
$GBGSV,4,3,14,23,07,324,17,26,07,170,46,43,06,260,34,39,05,332,14,1*7C
$GBGSV,4,4,14,57,04,078,,16,02,340,,1*78
$GBGSV,2,1,05,24,43,206,25,22,21,098,24,21,08,147,35,26,07,170,36,5*7D
$GBGSV,2,2,05,43,06,260,31,5*40
$GNGLL,4000.581004,N,10514.619426,W,215218.000,A,D*5E
$GNRMC,215219.000,A,4000.581034,N,10514.619390,W,0.01,0.00,200324,,,D,V*1D
$GNVTG,0.00,T,,M,0.01,N,0.03,K,D*24
$GNGGA,215219.000,4000.581034,N,10514.619390,W,2,36,0.62,1616.541,M,-20.635,M,,*7B
$GNGSA,A,3,11,12,20,19,24,05,22,17,,,,,0.99,0.62,0.78,1*06
$GNGSA,A,3,78,88,87,77,81,72,,,,,,,0.99,0.62,0.78,2*05
$GNGSA,A,3,13,27,15,26,30,,,,,,,,0.99,0.62,0.78,3*0C
$GNGSA,A,3,44,34,24,22,21,26,43,,,,,,0.99,0.62,0.78,4*0E
$GPGSV,3,1,12,11,88,239,24,12,64,302,25,06,51,045,,44,42,197,44,1*66
$GPGSV,3,2,12,20,40,160,46,25,32,312,,19,30,078,25,24,17,225,45,1*64
$GPGSV,3,3,12,05,10,181,51,22,08,140,43,17,08,088,25,29,04,279,,1*6F
$GPGSV,1,1,01,24,17,225,32,8*58
$GLGSV,3,1,09,78,64,278,28,88,62,308,19,87,36,037,14,77,34,180,33,1*7B
$GLGSV,3,2,09,79,21,328,16,81,20,256,38,72,15,080,19,71,11,034,,1*72
$GLGSV,3,3,09,65,02,131,24,1*45
$GAGSV,2,1,07,13,68,236,40,27,64,159,43,21,56,306,17,15,54,043,16,7*73
$GAGSV,2,2,07,26,14,230,44,30,13,143,45,34,05,047,08,7*4B
$GAGSV,1,1,04,13,68,236,33,27,64,159,33,26,14,230,33,30,13,143,29,1*7C
$GBGSV,4,1,14,12,72,335,16,44,62,040,19,34,51,279,22,25,43,287,,1*78
$GBGSV,4,2,14,24,43,206,41,22,21,098,34,19,11,046,14,21,08,147,45,1*77
$GBGSV,4,3,14,23,07,324,17,26,07,170,46,43,06,260,33,39,05,332,14,1*7B
$GBGSV,4,4,14,57,04,078,,16,02,340,,1*78
$GBGSV,2,1,05,24,43,206,25,22,21,098,24,21,08,147,36,26,07,170,37,5*7F
$GBGSV,2,2,05,43,06,260,31,5*40
$GNGLL,4000.581034,N,10514.619390,W,215219.000,A,D*56
$GNRMC,215220.000,A,4000.581100,N,10514.619354,W,0.01,0.00,200324,,,D,V*19
$GNVTG,0.00,T,,M,0.01,N,0.03,K,D*24
$GNGGA,215220.000,4000.581100,N,10514.619354,W,2,37,0.57,1616.479,M,-20.635,M,,*72
$GNGSA,A,3,11,12,20,19,24,05,22,17,,,,,0.93,0.57,0.73,1*01
$GNGSA,A,3,78,88,87,77,81,72,,,,,,,0.93,0.57,0.73,2*02
$GNGSA,A,3,13,27,15,26,30,,,,,,,,0.93,0.57,0.73,3*0B
$GNGSA,A,3,44,34,24,22,19,21,26,43,,,,,0.93,0.57,0.73,4*01
$GPGSV,3,1,12,11,88,239,24,12,64,302,24,06,51,045,,44,42,197,44,1*67
$GPGSV,3,2,12,20,40,160,46,25,32,312,,19,30,078,26,24,17,225,45,1*67
$GPGSV,3,3,12,05,10,181,51,22,08,140,43,17,08,088,23,29,04,279,,1*69
$GPGSV,1,1,01,24,17,225,32,8*58
$GLGSV,3,1,09,78,64,278,27,88,62,308,16,87,36,037,14,77,34,180,33,1*7B
$GLGSV,3,2,09,79,21,328,17,81,20,256,38,72,15,080,20,71,11,034,,1*79
$GLGSV,3,3,09,65,02,131,24,1*45
$GAGSV,2,1,07,13,68,236,40,27,64,159,43,21,56,306,16,15,54,043,16,7*72
$GAGSV,2,2,07,26,14,230,44,30,13,143,45,34,05,047,08,7*4B
$GAGSV,1,1,04,13,68,236,33,27,64,159,33,26,14,230,33,30,13,143,29,1*7C
$GBGSV,4,1,14,12,72,335,16,44,62,040,20,34,51,279,22,25,43,287,,1*72
$GBGSV,4,2,14,24,43,206,41,22,21,098,34,19,11,046,15,21,08,147,45,1*76
$GBGSV,4,3,14,23,07,324,16,26,07,170,46,43,07,261,33,39,05,332,14,1*7A
$GBGSV,4,4,14,57,04,078,,16,02,340,,1*78
$GBGSV,2,1,05,24,43,206,25,22,21,098,24,21,08,147,36,26,07,170,37,5*7F
$GBGSV,2,2,05,43,07,261,30,5*41
$GNGLL,4000.581100,N,10514.619354,W,215220.000,A,D*52
$GNRMC,215221.000,A,4000.581112,N,10514.619336,W,0.01,0.00,200324,,,D,V*1F
$GNVTG,0.00,T,,M,0.01,N,0.02,K,D*25
$GNGGA,215221.000,4000.581112,N,10514.619336,W,2,37,0.60,1616.458,M,-20.635,M,,*73
$GNGSA,A,3,11,12,20,19,24,05,22,17,,,,,0.98,0.60,0.78,1*05
$GNGSA,A,3,78,88,87,77,81,72,,,,,,,0.98,0.60,0.78,2*06
$GNGSA,A,3,13,27,15,26,30,,,,,,,,0.98,0.60,0.78,3*0F
$GNGSA,A,3,44,34,25,24,22,21,26,43,,,,,0.98,0.60,0.78,4*0A
$GPGSV,3,1,12,11,88,239,24,12,64,302,25,06,51,045,,44,42,197,44,1*66
$GPGSV,3,2,12,20,40,160,46,25,32,312,,19,30,078,27,24,17,225,45,1*66
$GPGSV,3,3,12,05,10,181,51,22,08,140,43,17,08,088,20,29,04,279,,1*6A
$GPGSV,1,1,01,24,17,225,32,8*58
$GLGSV,3,1,09,78,64,278,32,88,62,308,17,87,36,037,13,77,34,180,33,1*79
$GLGSV,3,2,09,79,21,328,17,81,20,256,36,72,15,080,21,71,11,034,,1*76
$GLGSV,3,3,09,65,02,131,24,1*45
$GAGSV,2,1,07,13,68,236,40,27,64,159,43,21,56,306,16,15,54,043,16,7*72
$GAGSV,2,2,07,26,14,230,44,30,13,143,45,34,05,047,07,7*44
$GAGSV,1,1,04,13,68,236,33,27,64,159,33,26,14,230,33,30,13,143,28,1*7D
$GBGSV,4,1,14,12,72,335,16,44,62,041,22,34,51,279,20,25,43,287,24,1*75
$GBGSV,4,2,14,24,43,206,41,22,21,098,34,19,11,046,13,21,08,147,45,1*70
$GBGSV,4,3,14,23,07,324,16,26,07,170,46,43,07,261,34,39,05,332,14,1*7D
$GBGSV,4,4,14,57,04,078,,16,02,340,,1*78
$GBGSV,2,1,05,24,43,206,25,22,21,098,23,21,08,147,35,26,07,170,37,5*7B
$GBGSV,2,2,05,43,07,261,29,5*49
